"TOA5","CR800Series","CR800","35658","CR800.Std.28","CPU:Ultralytics1.CR8","18129","Five_Sec"
"TIMESTAMP","RECORD","BattV","PTemp_C","SlrW","AirTC","RH","NMEASent(1)","NMEASent(2)","Latitude_A","Latitude_B","Longitude_A","Longitude_B","Speed","Course","MagVar","FixQual","NumSats","Altitude","PPS","SecSinceGPRMC","GPSReady","MaxClockChange","NumClockChange","BP_kPa","VWC","EC","T","P","PA","VR"
"TS","RN","Volts","Deg C","W/m^2","Deg C","%","","","degrees","minutes","degrees","minutes","knots","degrees","degrees","code","count","meters","microseconds","seconds","count","milliseconds","count","kPa","m^3/m^3","dS/m","Deg C","unitless","nSec","unitless"
"","","Smp","Smp","Smp","Smp","Smp","Smp","Smp","Smp","Smp","Smp","Smp","Smp","Smp","Smp","Smp","Smp","Smp","Smp","Smp","Smp","Smp","Smp","Smp","Smp","Smp","Smp","Smp","Smp","Smp"
"2015-09-14 14:24:35",0,12.91,14.3,114.4,21.32,38.48,"$GPRMC,192431,A,6448.7553,N,14745.6645,W,000.0,178.2,140915,019.4,E","$GPGGA,192431,6448.7553,N,14745.6645,W,1,09,0.9,120.1,M,8.0,M,,",64,48.76,-147,-45.66,0,178.2,19.4,1,9,120.1,"NAN",0.09,0,0,0,98.1,0,0.001,14.08,1,1.075,1
"2015-09-14 14:24:40",1,12.91,14.3,114.4,21.28,38.48,"$GPRMC,192436,A,6448.7553,N,14745.6644,W,000.0,178.2,140915,019.4,E","$GPGGA,192436,6448.7553,N,14745.6644,W,1,09,0.9,120.1,M,8.0,M,,",64,48.76,-147,-45.66,0,178.2,19.4,1,9,120.1,"NAN",0.09,0,0,0,98.1,0,0.001,14.1,1,1.075,1
"2015-09-14 14:24:45",2,12.91,14.32,114.4,21.32,38.41,"$GPRMC,192441,A,6448.7554,N,14745.6644,W,000.0,178.2,140915,019.4,E","$GPGGA,192441,6448.7554,N,14745.6644,W,1,09,0.9,120.1,M,8.0,M,,",64,48.76,-147,-45.66,0,178.2,19.4,1,9,120.1,"NAN",0.09,0,0,0,98.1,0,0.001,14.13,1,1.075,1
"2015-09-14 14:24:50",3,12.92,14.32,114.4,21.32,38.41,"$GPRMC,192446,A,6448.7554,N,14745.6644,W,000.0,178.2,140915,019.4,E","$GPGGA,192446,6448.7554,N,14745.6644,W,1,09,0.9,120.2,M,8.0,M,,",64,48.76,-147,-45.66,0,178.2,19.4,1,9,120.2,"NAN",0.09,0,0,0,98.2,0,0.001,14.17,1,1.075,1
"2015-09-14 14:24:55",4,12.92,14.32,114.4,21.35,38.28,"$GPRMC,192451,A,6448.7554,N,14745.6644,W,000.0,178.2,140915,019.4,E","$GPGGA,192451,6448.7554,N,14745.6644,W,1,09,0.9,120.2,M,8.0,M,,",64,48.76,-147,-45.66,0,178.2,19.4,1,9,120.2,"NAN",0.09,0,0,0,98.1,0,0,14.18,1,1.075,1
"2015-09-14 14:25:00",5,12.92,14.32,114.4,21.32,38.21,"$GPRMC,192456,A,6448.7554,N,14745.6644,W,000.0,178.2,140915,019.4,E","$GPGGA,192456,6448.7554,N,14745.6644,W,1,09,0.9,120.2,M,8.0,M,,",64,48.76,-147,-45.66,0,178.2,19.4,1,9,120.2,"NAN",0.09,0,0,0,98.1,0,0.001,14.19,1,1.075,1
"2015-09-14 14:25:05",6,12.91,14.32,114.4,21.28,38.21,"$GPRMC,192501,A,6448.7554,N,14745.6644,W,000.0,178.2,140915,019.4,E","$GPGGA,192501,6448.7554,N,14745.6644,W,1,09,0.9,120.2,M,8.0,M,,",64,48.76,-147,-45.66,0,178.2,19.4,1,9,120.2,"NAN",0.09,0,0,0,98.1,0,0.001,14.23,1,1.075,1
"2015-09-14 14:25:10",7,12.92,14.32,114.8,21.28,38.31,"$GPRMC,192506,A,6448.7554,N,14745.6644,W,000.0,178.2,140915,019.4,E","$GPGGA,192506,6448.7554,N,14745.6644,W,1,09,0.9,120.2,M,8.0,M,,",64,48.76,-147,-45.66,0,178.2,19.4,1,9,120.2,"NAN",0.07,0,0,0,98.1,0,0.001,14.27,1,1.075,1
"2015-09-14 14:25:15",8,12.91,14.35,114.8,21.32,38.28,"$GPRMC,192511,A,6448.7554,N,14745.6644,W,000.0,178.2,140915,019.4,E","$GPGGA,192511,6448.7554,N,14745.6644,W,1,09,0.9,120.2,M,8.0,M,,",64,48.76,-147,-45.66,0,178.2,19.4,1,9,120.2,"NAN",0.09,0,0,0,98.1,0,0,14.29,1,1.075,1
"2015-09-14 14:25:20",9,12.92,14.35,114.8,21.35,38.24,"$GPRMC,192516,A,6448.7554,N,14745.6644,W,000.0,178.2,140915,019.4,E","$GPGGA,192516,6448.7554,N,14745.6644,W,1,09,0.9,120.3,M,8.0,M,,",64,48.76,-147,-45.66,0,178.2,19.4,1,9,120.3,"NAN",0.09,0,0,0,98.1,0,0.001,14.32,1,1.075,1
"2015-09-14 14:25:25",10,12.92,14.35,115.1,21.32,38.21,"$GPRMC,192521,A,6448.7554,N,14745.6643,W,000.0,178.2,140915,019.4,E","$GPGGA,192521,6448.7554,N,14745.6643,W,1,09,0.9,120.3,M,8.0,M,,",64,48.76,-147,-45.66,0,178.2,19.4,1,9,120.3,"NAN",0.07,0,0,0,98.1,0,0.001,14.35,1,1.075,1
"2015-09-14 14:25:30",11,12.91,14.35,115.1,21.35,38.14,"$GPRMC,192526,A,6448.7554,N,14745.6643,W,000.0,178.2,140915,019.4,E","$GPGGA,192526,6448.7554,N,14745.6643,W,1,09,0.9,120.3,M,8.0,M,,",64,48.76,-147,-45.66,0,178.2,19.4,1,9,120.3,"NAN",0.05,0,0,0,98.1,0,0.001,14.35,1,1.075,1
"2015-09-14 14:25:35",12,12.91,14.35,115.1,21.32,38.21,"$GPRMC,192531,A,6448.7554,N,14745.6644,W,000.0,178.2,140915,019.4,E","$GPGGA,192531,6448.7554,N,14745.6644,W,1,09,0.9,120.3,M,8.0,M,,",64,48.76,-147,-45.66,0,178.2,19.4,1,9,120.3,"NAN",0.08,0,0,0,98.1,0,0.001,14.39,1,1.075,1
"2015-09-14 14:25:40",13,12.91,14.35,115.5,21.32,38.24,"$GPRMC,192536,A,6448.7554,N,14745.6644,W,000.0,178.2,140915,019.4,E","$GPGGA,192536,6448.7554,N,14745.6644,W,1,09,0.9,120.3,M,8.0,M,,",64,48.76,-147,-45.66,0,178.2,19.4,1,9,120.3,"NAN",0.07,0,0,0,98.1,0,0.001,14.39,1,1.075,1
"2015-09-14 14:25:45",14,12.91,14.35,115.5,21.32,38.28,"$GPRMC,192541,A,6448.7554,N,14745.6643,W,000.0,178.2,140915,019.4,E","$GPGGA,192541,6448.7554,N,14745.6643,W,1,09,0.9,120.3,M,8.0,M,,",64,48.76,-147,-45.66,0,178.2,19.4,1,9,120.3,"NAN",0.07,0,0,0,98.1,0,0.001,14.42,1,1.075,1
"2015-09-14 14:25:50",15,12.91,14.35,115.8,21.28,38.38,"$GPRMC,192546,A,6448.7554,N,14745.6643,W,000.0,178.2,140915,019.4,E","$GPGGA,192546,6448.7554,N,14745.6643,W,1,09,0.9,120.3,M,8.0,M,,",64,48.76,-147,-45.66,0,178.2,19.4,1,9,120.3,"NAN",0.08,0,0,0,98.1,0,0.001,14.44,1,1.075,1
"2015-09-14 14:25:55",16,12.91,14.35,115.8,21.35,38.31,"$GPRMC,192551,A,6448.7554,N,14745.6643,W,000.0,178.2,140915,019.4,E","$GPGGA,192551,6448.7554,N,14745.6643,W,1,09,0.9,120.3,M,8.0,M,,",64,48.76,-147,-45.66,0,178.2,19.4,1,9,120.3,"NAN",0.08,0,0,0,98.1,0,0.001,14.45,1,1.075,1
"2015-09-14 14:26:00",17,12.91,14.35,116.1,21.28,38.31,"$GPRMC,192556,A,6448.7554,N,14745.6643,W,000.0,178.2,140915,019.4,E","$GPGGA,192556,6448.7554,N,14745.6643,W,1,09,0.9,120.4,M,8.0,M,,",64,48.76,-147,-45.66,0,178.2,19.4,1,9,120.4,"NAN",0.08,0,0,0,98.1,0,0.001,14.5,1,1.075,1
"2015-09-14 14:26:05",18,12.91,14.35,116.5,21.32,38.34,"$GPRMC,192601,A,6448.7554,N,14745.6643,W,000.0,178.2,140915,019.4,E","$GPGGA,192601,6448.7554,N,14745.6643,W,1,09,0.9,120.4,M,8.0,M,,",64,48.76,-147,-45.66,0,178.2,19.4,1,9,120.4,"NAN",0.09,0,0,0,98.1,0,0.001,14.49,1,1.075,1
"2015-09-14 14:26:10",19,12.91,14.35,116.5,21.28,38.41,"$GPRMC,192606,A,6448.7554,N,14745.6643,W,000.0,178.2,140915,019.4,E","$GPGGA,192606,6448.7554,N,14745.6643,W,1,09,0.9,120.4,M,8.0,M,,",64,48.76,-147,-45.66,0,178.2,19.4,1,9,120.4,"NAN",0.08,0,0,0,98.1,0,0,14.52,1,1.075,1
"2015-09-14 14:26:15",20,12.91,14.35,116.8,21.21,38.68,"$GPRMC,192611,A,6448.7554,N,14745.6643,W,000.0,178.2,140915,019.4,E","$GPGGA,192611,6448.7554,N,14745.6643,W,1,09,0.9,120.4,M,8.0,M,,",64,48.76,-147,-45.66,0,178.2,19.4,1,9,120.4,"NAN",0.08,0,0,0,98.1,0,0.001,14.51,1,1.075,1
"2015-09-14 14:26:20",21,12.91,14.35,116.8,21.25,38.62,"$GPRMC,192616,A,6448.7554,N,14745.6643,W,000.0,178.2,140915,019.4,E","$GPGGA,192616,6448.7554,N,14745.6643,W,1,09,0.9,120.4,M,8.0,M,,",64,48.76,-147,-45.66,0,178.2,19.4,1,9,120.4,"NAN",0.08,0,0,0,98.1,0,0.001,14.54,1,1.075,1
"2015-09-14 14:26:25",22,12.91,14.37,117.1,21.25,38.48,"$GPRMC,192621,A,6448.7554,N,14745.6643,W,000.0,178.2,140915,019.4,E","$GPGGA,192621,6448.7554,N,14745.6643,W,1,09,0.9,120.5,M,8.0,M,,",64,48.76,-147,-45.66,0,178.2,19.4,1,9,120.5,"NAN",0.1,0,0,0,98.1,0,0.001,14.53,1,1.075,1
"2015-09-14 14:26:30",23,12.91,14.35,117.1,21.21,38.34,"$GPRMC,192626,A,6448.7554,N,14745.6643,W,000.0,178.2,140915,019.4,E","$GPGGA,192626,6448.7554,N,14745.6643,W,1,09,0.9,120.5,M,8.0,M,,",64,48.76,-147,-45.66,0,178.2,19.4,1,9,120.5,"NAN",0.08,0,0,0,98.1,0,0.001,14.55,1,1.075,1
"2015-09-14 14:26:35",24,12.91,14.37,117.5,21.25,38.07,"$GPRMC,192631,A,6448.7554,N,14745.6643,W,000.0,178.2,140915,019.4,E","$GPGGA,192631,6448.7554,N,14745.6643,W,1,09,0.9,120.5,M,8.0,M,,",64,48.76,-147,-45.66,0,178.2,19.4,1,9,120.5,"NAN",0.09,0,0,0,98.1,0,0.001,14.58,1,1.075,1
"2015-09-14 14:26:40",25,12.91,14.37,117.5,21.21,37.9,"$GPRMC,192636,A,6448.7554,N,14745.6643,W,000.0,178.2,140915,019.4,E","$GPGGA,192636,6448.7554,N,14745.6643,W,1,08,1.3,120.5,M,8.0,M,,",64,48.76,-147,-45.66,0,178.2,19.4,1,8,120.5,"NAN",0.08,0,0,0,98.1,0,0,14.54,1,1.076,1
"2015-09-14 14:26:45",26,12.91,14.37,117.8,21.28,38.07,"$GPRMC,192641,A,6448.7554,N,14745.6643,W,000.0,178.2,140915,019.4,E","$GPGGA,192641,6448.7554,N,14745.6643,W,1,08,1.3,120.5,M,8.0,M,,",64,48.76,-147,-45.66,0,178.2,19.4,1,8,120.5,"NAN",0.1,0,0,0,98.1,0,0.001,14.57,1,1.076,1
"2015-09-14 14:26:50",27,12.91,14.37,118.2,21.25,38.07,"$GPRMC,192646,A,6448.7554,N,14745.6643,W,000.0,178.2,140915,019.4,E","$GPGGA,192646,6448.7554,N,14745.6643,W,1,08,1.3,120.5,M,8.0,M,,",64,48.76,-147,-45.66,0,178.2,19.4,1,8,120.5,"NAN",0.1,0,0,0,98.1,0,0.001,14.59,1.215,1.093,1
"2015-09-14 14:26:55",28,12.91,14.37,118.2,21.21,38.38,"$GPRMC,192651,A,6448.7554,N,14745.6643,W,000.0,178.2,140915,019.4,E","$GPGGA,192651,6448.7554,N,14745.6643,W,1,09,0.9,120.5,M,8.0,M,,",64,48.76,-147,-45.66,0,178.2,19.4,1,9,120.5,"NAN",0.09,0,0,0,98.1,0,0.001,14.57,1,1.074,1
"2015-09-14 14:27:00",29,12.91,14.37,118.2,21.21,38.79,"$GPRMC,192656,A,6448.7554,N,14745.6642,W,000.0,178.2,140915,019.4,E","$GPGGA,192656,6448.7554,N,14745.6642,W,1,08,1.3,120.6,M,8.0,M,,",64,48.76,-147,-45.66,0,178.2,19.4,1,8,120.6,"NAN",0.09,0,0,0,98.1,0,0.001,14.59,1,1.075,1
"2015-09-14 14:27:05",30,12.91,14.4,118.5,21.21,39.6,"$GPRMC,192701,A,6448.7554,N,14745.6642,W,000.0,178.2,140915,019.4,E","$GPGGA,192701,6448.7554,N,14745.6642,W,1,08,1.3,120.6,M,8.0,M,,",64,48.76,-147,-45.66,0,178.2,19.4,1,8,120.6,"NAN",0.1,0,0,0,98.1,0,0.001,14.56,1,1.078,1
"2015-09-14 14:27:10",31,12.91,14.4,118.5,21.21,40.62,"$GPRMC,192706,A,6448.7554,N,14745.6642,W,000.0,178.2,140915,019.4,E","$GPGGA,192706,6448.7554,N,14745.6642,W,1,08,1.2,120.6,M,8.0,M,,",64,48.76,-147,-45.66,0,178.2,19.4,1,8,120.6,"NAN",0.1,0,0,0,98.1,0,0.001,14.58,1,1.078,1
"2015-09-14 14:27:15",32,12.92,14.4,118.8,21.18,40.58,"$GPRMC,192711,A,6448.7554,N,14745.6642,W,000.0,178.2,140915,019.4,E","$GPGGA,192711,6448.7554,N,14745.6642,W,1,08,1.2,120.6,M,8.0,M,,",64,48.76,-147,-45.66,0,178.2,19.4,1,8,120.6,"NAN",0.09,0,0,0,98.1,0,0.001,14.58,1.002,1.079,1
"2015-09-14 14:27:20",33,12.92,14.4,118.8,21.18,40.38,"$GPRMC,192716,A,6448.7554,N,14745.6642,W,000.0,178.2,140915,019.4,E","$GPGGA,192716,6448.7554,N,14745.6642,W,1,08,1.2,120.6,M,8.0,M,,",64,48.76,-147,-45.66,0,178.2,19.4,1,8,120.6,"NAN",0.09,0,0,0,98.1,0,0.001,14.58,1.001,1.079,1
"2015-09-14 14:27:25",34,12.92,14.4,118.8,21.15,40.11,"$GPRMC,192721,A,6448.7553,N,14745.6642,W,000.0,178.2,140915,019.4,E","$GPGGA,192721,6448.7553,N,14745.6642,W,1,08,1.2,120.6,M,8.0,M,,",64,48.76,-147,-45.66,0,178.2,19.4,1,8,120.6,"NAN",0.1,0,0,0,98.1,0,0,14.6,1.006,1.079,1
"2015-09-14 14:27:30",35,12.92,14.4,119.2,21.01,39.87,"$GPRMC,192726,A,6448.7553,N,14745.6642,W,000.0,178.2,140915,019.4,E","$GPGGA,192726,6448.7553,N,14745.6642,W,1,08,1.2,120.6,M,8.0,M,,",64,48.76,-147,-45.66,0,178.2,19.4,1,8,120.6,"NAN",0.09,0,0,0,98.1,0,0,14.6,1.004,1.079,1
"2015-09-14 14:27:35",36,12.92,14.4,119.2,21.01,39.57,"$GPRMC,192731,A,6448.7553,N,14745.6642,W,000.0,178.2,140915,019.4,E","$GPGGA,192731,6448.7553,N,14745.6642,W,1,08,1.2,120.6,M,8.0,M,,",64,48.76,-147,-45.66,0,178.2,19.4,1,8,120.6,"NAN",0.09,0,0,0,98.1,0,0.001,14.6,1,1.079,1
"2015-09-14 14:27:40",37,12.92,14.4,119.2,20.94,39.43,"$GPRMC,192736,A,6448.7553,N,14745.6642,W,000.0,178.2,140915,019.4,E","$GPGGA,192736,6448.7553,N,14745.6642,W,1,08,1.2,120.7,M,8.0,M,,",64,48.76,-147,-45.66,0,178.2,19.4,1,8,120.7,"NAN",0.09,0,0,0,98.1,0,0.001,14.6,1.003,1.079,1
"2015-09-14 14:27:45",38,12.92,14.4,119.2,20.94,39.36,"$GPRMC,192741,A,6448.7553,N,14745.6642,W,000.0,178.2,140915,019.4,E","$GPGGA,192741,6448.7553,N,14745.6642,W,1,09,1.0,120.7,M,8.0,M,,",64,48.76,-147,-45.66,0,178.2,19.4,1,9,120.7,"NAN",0.09,0,0,0,98.2,0,0.001,14.63,1,1.079,1
"2015-09-14 14:27:50",39,12.93,14.4,119.2,20.94,39.23,"$GPRMC,192746,A,6448.7553,N,14745.6642,W,000.0,178.2,140915,019.4,E","$GPGGA,192746,6448.7553,N,14745.6642,W,1,09,1.0,120.7,M,8.0,M,,",64,48.76,-147,-45.66,0,178.2,19.4,1,9,120.7,"NAN",0.09,0,0,0,98.1,0,0.001,14.6,1,1.079,1
"2015-09-14 14:27:55",40,12.93,14.4,119.2,20.94,39.09,"$GPRMC,192751,A,6448.7553,N,14745.6642,W,000.0,178.2,140915,019.4,E","$GPGGA,192751,6448.7553,N,14745.6642,W,1,09,1.0,120.7,M,8.0,M,,",64,48.76,-147,-45.66,0,178.2,19.4,1,9,120.7,"NAN",0.08,0,0,0,98.1,0,0.001,14.65,1.003,1.079,1
"2015-09-14 14:28:00",41,12.93,14.4,119.2,20.88,39.02,"$GPRMC,192756,A,6448.7553,N,14745.6642,W,000.0,178.2,140915,019.4,E","$GPGGA,192756,6448.7553,N,14745.6642,W,1,09,1.0,120.7,M,8.0,M,,",64,48.76,-147,-45.66,0,178.2,19.4,1,9,120.7,"NAN",0.05,0,0,0,98.2,0,0.001,14.62,1,1.079,1
"2015-09-14 14:28:05",42,12.93,14.42,119.2,20.91,39.23,"$GPRMC,192801,A,6448.7553,N,14745.6642,W,000.0,178.2,140915,019.4,E","$GPGGA,192801,6448.7553,N,14745.6642,W,1,09,1.0,120.7,M,8.0,M,,",64,48.76,-147,-45.66,0,178.2,19.4,1,9,120.7,"NAN",0.08,0,0,0,98.1,0,0.001,14.62,1.003,1.079,1
"2015-09-14 14:28:10",43,12.93,14.42,119.2,20.91,39.19,"$GPRMC,192806,A,6448.7553,N,14745.6642,W,000.0,178.2,140915,019.4,E","$GPGGA,192806,6448.7553,N,14745.6642,W,1,09,1.0,120.8,M,8.0,M,,",64,48.76,-147,-45.66,0,178.2,19.4,1,9,120.8,"NAN",0.08,0,0,0,98.2,0,0.001,14.62,1.002,1.079,1
"2015-09-14 14:28:15",44,12.93,14.42,118.8,20.88,39.12,"$GPRMC,192811,A,6448.7553,N,14745.6642,W,000.0,178.2,140915,019.4,E","$GPGGA,192811,6448.7553,N,14745.6642,W,1,09,1.0,120.8,M,8.0,M,,",64,48.76,-147,-45.66,0,178.2,19.4,1,9,120.8,"NAN",0.08,0,0,0,98.2,0,0.001,14.65,1.003,1.079,1
"2015-09-14 14:28:20",45,12.93,14.42,118.8,20.88,39.19,"$GPRMC,192816,A,6448.7553,N,14745.6642,W,000.0,178.2,140915,019.4,E","$GPGGA,192816,6448.7553,N,14745.6642,W,1,09,1.0,120.8,M,8.0,M,,",64,48.76,-147,-45.66,0,178.2,19.4,1,9,120.8,"NAN",0.08,0,0,0,98.1,0,0,14.66,1.006,1.079,1
"2015-09-14 14:28:25",46,12.93,14.42,118.5,20.88,39.33,"$GPRMC,192821,A,6448.7553,N,14745.6642,W,000.0,178.2,140915,019.4,E","$GPGGA,192821,6448.7553,N,14745.6642,W,1,09,1.0,120.8,M,8.0,M,,",64,48.76,-147,-45.66,0,178.2,19.4,1,9,120.8,"NAN",0.07,0,0,0,98.2,0,0.001,14.68,1.003,1.079,1
"2015-09-14 14:28:30",47,12.93,14.42,118.5,20.91,39.36,"$GPRMC,192826,A,6448.7553,N,14745.6642,W,000.0,178.2,140915,019.4,E","$GPGGA,192826,6448.7553,N,14745.6642,W,1,09,1.0,120.8,M,8.0,M,,",64,48.76,-147,-45.66,0,178.2,19.4,1,9,120.8,"NAN",0.08,0,0,0,98.1,0,0.001,14.67,1,1.079,1
"2015-09-14 14:28:35",48,12.93,14.42,118.2,20.94,39.36,"$GPRMC,192831,A,6448.7553,N,14745.6642,W,000.0,178.2,140915,019.4,E","$GPGGA,192831,6448.7553,N,14745.6642,W,1,09,1.0,120.9,M,8.0,M,,",64,48.76,-147,-45.66,0,178.2,19.4,1,9,120.9,"NAN",0.07,0,0,0,98.1,0,0,14.72,1.004,1.079,1
"2015-09-14 14:28:40",49,12.93,14.42,118.2,20.98,39.53,"$GPRMC,192836,A,6448.7553,N,14745.6642,W,000.0,178.2,140915,019.4,E","$GPGGA,192836,6448.7553,N,14745.6642,W,1,09,1.0,120.9,M,8.0,M,,",64,48.76,-147,-45.66,0,178.2,19.4,1,9,120.9,"NAN",0.06,0,0,0,98.1,0,0.001,14.71,1.001,1.079,1
"2015-09-14 14:28:45",50,12.93,14.44,117.8,20.98,39.57,"$GPRMC,192841,A,6448.7553,N,14745.6642,W,000.0,178.2,140915,019.4,E","$GPGGA,192841,6448.7553,N,14745.6642,W,1,09,1.0,120.9,M,8.0,M,,",64,48.76,-147,-45.66,0,178.2,19.4,1,9,120.9,"NAN",0.07,0,0,0,98.1,0,0.001,14.72,1.002,1.079,1
"2015-09-14 14:28:50",51,12.93,14.44,117.8,21.08,39.63,"$GPRMC,192846,A,6448.7553,N,14745.6642,W,000.0,178.2,140915,019.4,E","$GPGGA,192846,6448.7553,N,14745.6642,W,1,09,1.0,120.9,M,8.0,M,,",64,48.76,-147,-45.66,0,178.2,19.4,1,9,120.9,"NAN",0.08,0,0,0,98.1,0,0.001,14.76,1.001,1.079,1
"2015-09-14 14:28:55",52,12.93,14.44,117.5,21.11,39.36,"$GPRMC,192851,A,6448.7553,N,14745.6642,W,000.0,178.2,140915,019.4,E","$GPGGA,192851,6448.7553,N,14745.6642,W,1,08,1.2,120.9,M,8.0,M,,",64,48.76,-147,-45.66,0,178.2,19.4,1,8,120.9,"NAN",0.09,0,0,0,98.2,0,0.001,14.75,1.002,1.079,1
"2015-09-14 14:29:00",53,12.93,14.44,117.1,21.18,39.09,"$GPRMC,192856,A,6448.7554,N,14745.6642,W,000.0,178.2,140915,019.4,E","$GPGGA,192856,6448.7554,N,14745.6642,W,1,09,1.0,121.0,M,8.0,M,,",64,48.76,-147,-45.66,0,178.2,19.4,1,9,121,"NAN",0.09,0,0,0,98.1,0,0.001,14.77,1,1.079,1
"2015-09-14 14:29:05",54,12.93,14.44,116.8,21.21,38.92,"$GPRMC,192901,A,6448.7554,N,14745.6642,W,000.0,178.2,140915,019.4,E","$GPGGA,192901,6448.7554,N,14745.6642,W,1,09,1.0,121.0,M,8.0,M,,",64,48.76,-147,-45.66,0,178.2,19.4,1,9,121,"NAN",0.09,0,0,0,98.2,0,0.001,14.77,1,1.079,1
"2015-09-14 14:29:10",55,12.93,14.44,116.5,21.25,38.82,"$GPRMC,192906,A,6448.7554,N,14745.6642,W,000.0,178.2,140915,019.4,E","$GPGGA,192906,6448.7554,N,14745.6642,W,1,09,1.0,121.0,M,8.0,M,,",64,48.76,-147,-45.66,0,178.2,19.4,1,9,121,"NAN",0.08,0,0,0,98.2,0,0.001,14.8,1.001,1.079,1
"2015-09-14 14:29:15",56,12.93,14.44,116.1,21.35,38.72,"$GPRMC,192911,A,6448.7554,N,14745.6642,W,000.0,178.2,140915,019.4,E","$GPGGA,192911,6448.7554,N,14745.6642,W,1,09,1.0,121.0,M,8.0,M,,",64,48.76,-147,-45.66,0,178.2,19.4,1,9,121,"NAN",0.09,0,0,0,98.1,0,0.001,14.82,1.001,1.079,1
"2015-09-14 14:29:20",57,12.93,14.44,115.8,21.35,38.79,"$GPRMC,192916,A,6448.7554,N,14745.6642,W,000.0,178.2,140915,019.4,E","$GPGGA,192916,6448.7554,N,14745.6642,W,1,09,1.0,121.0,M,8.0,M,,",64,48.76,-147,-45.66,0,178.2,19.4,1,9,121,"NAN",0.09,0,0,0,98.2,0,0,14.83,1.004,1.079,1
"2015-09-14 14:29:25",58,12.93,14.44,115.4,21.45,38.89,"$GPRMC,192921,A,6448.7554,N,14745.6642,W,000.0,178.2,140915,019.4,E","$GPGGA,192921,6448.7554,N,14745.6642,W,1,09,1.0,121.1,M,8.0,M,,",64,48.76,-147,-45.66,0,178.2,19.4,1,9,121.1,"NAN",0.08,0,0,0,98.2,0,0.001,14.86,1.001,1.079,1
"2015-09-14 14:29:30",59,12.93,14.44,114.8,21.52,38.99,"$GPRMC,192926,A,6448.7554,N,14745.6641,W,000.0,178.2,140915,019.4,E","$GPGGA,192926,6448.7554,N,14745.6641,W,1,09,1.0,121.1,M,8.0,M,,",64,48.76,-147,-45.66,0,178.2,19.4,1,9,121.1,"NAN",0.07,0,0,0,98.2,0,0.001,14.82,1.002,1.079,1
"2015-09-14 14:29:35",60,12.93,14.44,114.4,21.62,38.58,"$GPRMC,192931,A,6448.7554,N,14745.6641,W,000.0,178.2,140915,019.4,E","$GPGGA,192931,6448.7554,N,14745.6641,W,1,09,1.0,121.1,M,8.0,M,,",64,48.76,-147,-45.66,0,178.2,19.4,1,9,121.1,"NAN",0.09,0,0,0,98.1,0,0.001,14.89,1.002,1.079,1
"2015-09-14 14:29:40",61,12.93,14.44,114.1,21.69,38.14,"$GPRMC,192936,A,6448.7555,N,14745.6641,W,000.0,178.2,140915,019.4,E","$GPGGA,192936,6448.7555,N,14745.6641,W,1,09,1.0,121.1,M,8.0,M,,",64,48.76,-147,-45.66,0,178.2,19.4,1,9,121.1,"NAN",0.08,0,0,0,98.2,0,0.001,14.9,1.001,1.079,1
"2015-09-14 14:29:45",62,12.94,14.44,113.4,21.72,37.9,"$GPRMC,192941,A,6448.7555,N,14745.6641,W,000.0,178.2,140915,019.4,E","$GPGGA,192941,6448.7555,N,14745.6641,W,1,09,1.0,121.1,M,8.0,M,,",64,48.76,-147,-45.66,0,178.2,19.4,1,9,121.1,"NAN",0.08,0,0,0,98.1,0,0.001,14.91,1.001,1.079,1
"2015-09-14 14:29:50",63,12.93,14.44,113.1,21.83,37.7,"$GPRMC,192946,A,6448.7555,N,14745.6641,W,000.0,178.2,140915,019.4,E","$GPGGA,192946,6448.7555,N,14745.6641,W,1,09,1.0,121.2,M,8.0,M,,",64,48.76,-147,-45.66,0,178.2,19.4,1,9,121.2,"NAN",0.08,0,0,0,98.2,0,0.001,14.93,1,1.079,1
"2015-09-14 14:29:55",64,12.94,14.44,112.4,21.89,37.63,"$GPRMC,192951,A,6448.7555,N,14745.6641,W,000.0,178.2,140915,019.4,E","$GPGGA,192951,6448.7555,N,14745.6641,W,1,09,1.0,121.2,M,8.0,M,,",64,48.76,-147,-45.66,0,178.2,19.4,1,9,121.2,"NAN",0.08,0,0,0,98.2,0,0.001,14.93,1,1.079,1
"2015-09-14 14:30:00",65,12.93,14.47,112.1,21.93,37.67,"$GPRMC,192956,A,6448.7555,N,14745.6640,W,000.0,178.2,140915,019.4,E","$GPGGA,192956,6448.7555,N,14745.6640,W,1,09,1.0,121.2,M,8.0,M,,",64,48.76,-147,-45.66,0,178.2,19.4,1,9,121.2,"NAN",0.09,0,0,0,98.1,0,0.001,14.96,1.003,1.079,1
"2015-09-14 14:30:05",66,12.94,14.47,111.4,22,37.63,"$GPRMC,193001,A,6448.7555,N,14745.6640,W,000.0,178.2,140915,019.4,E","$GPGGA,193001,6448.7555,N,14745.6640,W,1,09,1.0,121.2,M,8.0,M,,",64,48.76,-147,-45.66,0,178.2,19.4,1,9,121.2,"NAN",0.08,0,0,0,98.2,0,0.001,14.99,1,1.079,1
"2015-09-14 14:30:10",67,12.94,14.47,110.7,22.03,37.56,"$GPRMC,193006,A,6448.7555,N,14745.6640,W,000.0,178.2,140915,019.4,E","$GPGGA,193006,6448.7555,N,14745.6640,W,1,09,1.0,121.2,M,8.0,M,,",64,48.76,-147,-45.66,0,178.2,19.4,1,9,121.2,"NAN",0.09,0,0,0,98.1,0,0.001,15.02,1,1.079,1
"2015-09-14 14:30:15",68,12.94,14.47,110,22.1,37.22,"$GPRMC,193011,A,6448.7555,N,14745.6640,W,000.0,178.2,140915,019.4,E","$GPGGA,193011,6448.7555,N,14745.6640,W,1,09,1.0,121.2,M,8.0,M,,",64,48.76,-147,-45.66,0,178.2,19.4,1,9,121.2,"NAN",0.09,0,0,0,98.1,0,0.001,15.05,1,1.079,1
"2015-09-14 14:30:20",69,12.94,14.47,109.7,22.16,37.05,"$GPRMC,193016,A,6448.7555,N,14745.6640,W,000.0,178.2,140915,019.4,E","$GPGGA,193016,6448.7555,N,14745.6640,W,1,09,1.0,121.3,M,8.0,M,,",64,48.76,-147,-45.66,0,178.2,19.4,1,9,121.3,"NAN",0.08,0,0,0,98.1,0,0,15.06,1.004,1.079,1
"2015-09-14 14:30:25",70,12.94,14.47,109,22.16,36.75,"$GPRMC,193021,A,6448.7555,N,14745.6640,W,000.0,178.2,140915,019.4,E","$GPGGA,193021,6448.7555,N,14745.6640,W,1,09,1.0,121.3,M,8.0,M,,",64,48.76,-147,-45.66,0,178.2,19.4,1,9,121.3,"NAN",0.1,0,0,0,98.2,0,0.001,15.06,1.003,1.079,1
"2015-09-14 14:30:30",71,12.94,14.47,108.4,22.23,36.41,"$GPRMC,193026,A,6448.7555,N,14745.6639,W,000.0,178.2,140915,019.4,E","$GPGGA,193026,6448.7555,N,14745.6639,W,1,09,1.0,121.3,M,8.0,M,,",64,48.76,-147,-45.66,0,178.2,19.4,1,9,121.3,"NAN",0.06,0,0,0,98.1,0,0.001,15.03,1,1.079,1
"2015-09-14 14:30:35",72,12.94,14.47,108,22.27,36.31,"$GPRMC,193031,A,6448.7555,N,14745.6639,W,000.0,178.2,140915,019.4,E","$GPGGA,193031,6448.7555,N,14745.6639,W,1,09,1.0,121.3,M,8.0,M,,",64,48.76,-147,-45.66,0,178.2,19.4,1,9,121.3,"NAN",0.09,0,0,0,98.1,0,0.001,15.11,1.001,1.079,1
"2015-09-14 14:30:40",73,12.94,14.47,107.3,22.37,36.24,"$GPRMC,193036,A,6448.7555,N,14745.6639,W,000.0,178.2,140915,019.4,E","$GPGGA,193036,6448.7555,N,14745.6639,W,1,09,1.0,121.3,M,8.0,M,,",64,48.76,-147,-45.66,0,178.2,19.4,1,9,121.3,"NAN",0.08,0,0,0,98.1,0,0.001,15.14,1,1.079,1
"2015-09-14 14:30:45",74,12.94,14.47,106.7,22.44,36.44,"$GPRMC,193041,A,6448.7555,N,14745.6639,W,000.0,178.2,140915,019.4,E","$GPGGA,193041,6448.7555,N,14745.6639,W,1,09,1.0,121.4,M,8.0,M,,",64,48.76,-147,-45.66,0,178.2,19.4,1,9,121.4,"NAN",0.08,0,0,0,98.2,0,0.001,15.15,1.001,1.079,1
"2015-09-14 14:30:50",75,12.94,14.47,106.3,22.44,36.44,"$GPRMC,193046,A,6448.7556,N,14745.6639,W,000.0,178.2,140915,019.4,E","$GPGGA,193046,6448.7556,N,14745.6639,W,1,09,1.0,121.4,M,8.0,M,,",64,48.76,-147,-45.66,0,178.2,19.4,1,9,121.4,"NAN",0.08,0,0,0,98.2,0,0.001,15.15,1.003,1.079,1
"2015-09-14 14:30:55",76,12.94,14.49,105.7,22.54,36.17,"$GPRMC,193051,A,6448.7556,N,14745.6639,W,000.0,178.2,140915,019.4,E","$GPGGA,193051,6448.7556,N,14745.6639,W,1,09,1.0,121.4,M,8.0,M,,",64,48.76,-147,-45.66,0,178.2,19.4,1,9,121.4,"NAN",0.07,0,0,0,98.1,0,0.001,15.19,1,1.079,1
"2015-09-14 14:31:00",77,12.94,14.49,105,22.61,35.87,"$GPRMC,193056,A,6448.7556,N,14745.6639,W,000.0,178.2,140915,019.4,E","$GPGGA,193056,6448.7556,N,14745.6639,W,1,09,1.0,121.4,M,8.0,M,,",64,48.76,-147,-45.66,0,178.2,19.4,1,9,121.4,"NAN",0.07,0,0,0,98.1,0,0.001,15.22,1.002,1.079,1
"2015-09-14 14:31:05",78,12.94,14.49,104.6,22.64,35.56,"$GPRMC,193101,A,6448.7556,N,14745.6639,W,000.0,178.2,140915,019.4,E","$GPGGA,193101,6448.7556,N,14745.6639,W,1,09,1.0,121.4,M,8.0,M,,",64,48.76,-147,-45.66,0,178.2,19.4,1,9,121.4,"NAN",0.06,0,0,0,98.2,0,0,15.24,1.006,1.079,1
"2015-09-14 14:31:10",79,12.94,14.49,104,22.74,35.39,"$GPRMC,193106,A,6448.7556,N,14745.6639,W,000.0,178.2,140915,019.4,E","$GPGGA,193106,6448.7556,N,14745.6639,W,1,09,1.0,121.5,M,8.0,M,,",64,48.76,-147,-45.66,0,178.2,19.4,1,9,121.5,"NAN",0.07,0,0,0,98.1,0,0.001,15.23,1,1.079,1
"2015-09-14 14:31:15",80,12.94,14.49,103.6,22.78,35.26,"$GPRMC,193111,A,6448.7556,N,14745.6639,W,000.0,178.2,140915,019.4,E","$GPGGA,193111,6448.7556,N,14745.6639,W,1,09,1.0,121.5,M,8.0,M,,",64,48.76,-147,-45.66,0,178.2,19.4,1,9,121.5,"NAN",0.07,0,0,0,98.2,0,0,15.29,1.006,1.079,1
"2015-09-14 14:31:20",81,12.94,14.49,102.9,22.88,35.36,"$GPRMC,193116,A,6448.7556,N,14745.6638,W,000.0,178.2,140915,019.4,E","$GPGGA,193116,6448.7556,N,14745.6638,W,1,09,1.0,121.5,M,8.0,M,,",64,48.76,-147,-45.66,0,178.2,19.4,1,9,121.5,"NAN",0.07,0,0,0,98.2,0,0,15.29,1.004,1.079,1
"2015-09-14 14:31:25",82,12.94,14.49,102.6,22.98,35.43,"$GPRMC,193121,A,6448.7556,N,14745.6638,W,000.0,178.2,140915,019.4,E","$GPGGA,193121,6448.7556,N,14745.6638,W,1,09,1.0,121.5,M,8.0,M,,",64,48.76,-147,-45.66,0,178.2,19.4,1,9,121.5,"NAN",0.08,0,0,0,98.1,0,0.001,15.34,1.002,1.079,1
"2015-09-14 14:31:30",83,12.94,14.49,101.9,23.01,35.36,"$GPRMC,193126,A,6448.7556,N,14745.6638,W,000.0,178.2,140915,019.4,E","$GPGGA,193126,6448.7556,N,14745.6638,W,1,09,1.0,121.6,M,8.0,M,,",64,48.76,-147,-45.66,0,178.2,19.4,1,9,121.6,"NAN",0.08,0,0,0,98.2,0,0.001,15.35,1.001,1.079,1
"2015-09-14 14:31:35",84,12.93,14.49,101.6,23.08,34.92,"$GPRMC,193131,A,6448.7556,N,14745.6638,W,000.0,178.2,140915,019.4,E","$GPGGA,193131,6448.7556,N,14745.6638,W,1,09,1.0,121.6,M,8.0,M,,",64,48.76,-147,-45.66,0,178.2,19.4,1,9,121.6,"NAN",0.06,0,0,0,98.2,0,0,15.36,1.004,1.079,1
"2015-09-14 14:31:40",85,12.93,14.49,101.3,23.12,34.51,"$GPRMC,193136,A,6448.7556,N,14745.6638,W,000.0,178.2,140915,019.4,E","$GPGGA,193136,6448.7556,N,14745.6638,W,1,09,1.0,121.6,M,8.0,M,,",64,48.76,-147,-45.66,0,178.2,19.4,1,9,121.6,"NAN",0.06,0,0,0,98.1,0,0.001,15.38,1.001,1.079,1
"2015-09-14 14:31:45",86,12.93,14.49,100.9,23.22,34.14,"$GPRMC,193141,A,6448.7556,N,14745.6638,W,000.0,178.2,140915,019.4,E","$GPGGA,193141,6448.7556,N,14745.6638,W,1,09,1.0,121.7,M,8.0,M,,",64,48.76,-147,-45.66,0,178.2,19.4,1,9,121.7,"NAN",0.07,0,0,0,98.2,0,0.001,15.4,1.003,1.079,1
"2015-09-14 14:31:50",87,12.93,14.49,100.6,23.28,34.14,"$GPRMC,193146,A,6448.7556,N,14745.6638,W,000.0,178.2,140915,019.4,E","$GPGGA,193146,6448.7556,N,14745.6638,W,1,09,1.0,121.7,M,8.0,M,,",64,48.76,-147,-45.66,0,178.2,19.4,1,9,121.7,"NAN",0.08,0,0,0,98.1,0,0.001,15.44,1.003,1.079,1
"2015-09-14 14:31:55",88,12.93,14.49,100.2,23.39,34.31,"$GPRMC,193151,A,6448.7556,N,14745.6638,W,000.0,178.2,140915,019.4,E","$GPGGA,193151,6448.7556,N,14745.6638,W,1,09,1.0,121.7,M,8.0,M,,",64,48.76,-147,-45.66,0,178.2,19.4,1,9,121.7,"NAN",0.09,0,0,0,98.1,0,0.001,15.44,1.002,1.079,1
"2015-09-14 14:32:00",89,12.92,14.49,99.9,23.45,34.41,"$GPRMC,193156,A,6448.7556,N,14745.6638,W,000.0,178.2,140915,019.4,E","$GPGGA,193156,6448.7556,N,14745.6638,W,1,09,1.0,121.7,M,8.0,M,,",64,48.76,-147,-45.66,0,178.2,19.4,1,9,121.7,"NAN",0.09,0,0,0,98.2,0,0.001,15.5,1.003,1.079,1
"2015-09-14 14:32:05",90,12.92,14.49,99.6,23.45,34.41,"$GPRMC,193201,A,6448.7556,N,14745.6638,W,000.0,178.2,140915,019.4,E","$GPGGA,193201,6448.7556,N,14745.6638,W,1,08,1.0,121.7,M,8.0,M,,",64,48.76,-147,-45.66,0,178.2,19.4,1,8,121.7,"NAN",0.09,0,0,0,98.1,0,0,15.5,1.004,1.079,1
"2015-09-14 14:32:10",91,12.92,14.49,99.2,23.52,34.44,"$GPRMC,193206,A,6448.7556,N,14745.6637,W,000.0,178.2,140915,019.4,E","$GPGGA,193206,6448.7556,N,14745.6637,W,1,08,1.0,121.8,M,8.0,M,,",64,48.76,-147,-45.66,0,178.2,19.4,1,8,121.8,"NAN",0.1,0,0,0,98.2,0,0.001,15.52,1.002,1.079,1
"2015-09-14 14:32:15",92,12.92,14.52,98.9,23.59,34.17,"$GPRMC,193211,A,6448.7556,N,14745.6637,W,000.0,178.2,140915,019.4,E","$GPGGA,193211,6448.7556,N,14745.6637,W,1,09,1.0,121.8,M,8.0,M,,",64,48.76,-147,-45.66,0,178.2,19.4,1,9,121.8,"NAN",0.08,0,0,0,98.1,0,0,15.54,1.004,1.079,1
"2015-09-14 14:32:20",93,12.92,14.52,98.6,23.62,33.8,"$GPRMC,193216,A,6448.7556,N,14745.6637,W,000.0,178.2,140915,019.4,E","$GPGGA,193216,6448.7556,N,14745.6637,W,1,09,1.0,121.8,M,8.0,M,,",64,48.76,-147,-45.66,0,178.2,19.4,1,9,121.8,"NAN",0.09,0,0,0,98.1,0,0.001,15.56,1,1.079,1
"2015-09-14 14:32:25",94,12.92,14.52,98.2,23.73,33.49,"$GPRMC,193221,A,6448.7556,N,14745.6637,W,000.0,178.2,140915,019.4,E","$GPGGA,193221,6448.7556,N,14745.6637,W,1,09,1.0,121.8,M,8.0,M,,",64,48.76,-147,-45.66,0,178.2,19.4,1,9,121.8,"NAN",0.08,0,0,0,98.2,0,0.001,15.57,1,1.079,1
"2015-09-14 14:32:30",95,12.92,14.52,98.2,23.76,33.32,"$GPRMC,193226,A,6448.7556,N,14745.6637,W,000.0,178.2,140915,019.4,E","$GPGGA,193226,6448.7556,N,14745.6637,W,1,09,1.0,121.8,M,8.0,M,,",64,48.76,-147,-45.66,0,178.2,19.4,1,9,121.8,"NAN",0.07,0,0,0,98.1,0,0.001,15.6,1,1.079,1
"2015-09-14 14:32:35",96,12.92,14.52,97.9,23.83,33.29,"$GPRMC,193231,A,6448.7556,N,14745.6637,W,000.0,178.2,140915,019.4,E","$GPGGA,193231,6448.7556,N,14745.6637,W,1,09,1.0,121.9,M,8.0,M,,",64,48.76,-147,-45.66,0,178.2,19.4,1,9,121.9,"NAN",0.08,0,0,0,98.1,0,0.001,15.62,1,1.079,1
"2015-09-14 14:32:40",97,12.93,14.52,97.5,23.9,33.42,"$GPRMC,193236,A,6448.7556,N,14745.6637,W,000.0,178.2,140915,019.4,E","$GPGGA,193236,6448.7556,N,14745.6637,W,1,09,1.0,121.9,M,8.0,M,,",64,48.76,-147,-45.66,0,178.2,19.4,1,9,121.9,"NAN",0.08,0,0,0,98.1,0,0.001,15.65,1,1.079,1
"2015-09-14 14:32:45",98,12.93,14.52,104.6,23.93,33.53,"$GPRMC,193241,A,6448.7565,N,14745.6634,W,001.6,354.6,140915,019.4,E","$GPGGA,193241,6448.7565,N,14745.6634,W,1,09,1.0,122.2,M,8.0,M,,",64,48.76,-147,-45.66,1.6,354.6,19.4,1,9,122.2,"NAN",0.06,0,0,0,98.2,0,0.001,15.66,1,1.079,1
"2015-09-14 14:32:50",99,12.93,14.52,109,24.03,33.53,"$GPRMC,193246,A,6448.7586,N,14745.6656,W,002.1,321.7,140915,019.4,E","$GPGGA,193246,6448.7586,N,14745.6656,W,1,09,0.9,123.2,M,8.0,M,,",64,48.76,-147,-45.67,2.1,321.7,19.4,1,9,123.2,"NAN",0.07,0,0,0,98.1,0,0.001,15.67,1.003,1.079,1
"2015-09-14 14:32:55",100,12.93,14.52,109,24.1,33.32,"$GPRMC,193251,A,6448.7592,N,14745.6700,W,000.0,281.2,140915,019.4,E","$GPGGA,193251,6448.7592,N,14745.6700,W,1,09,0.9,124.6,M,8.0,M,,",64,48.76,-147,-45.67,0,281.2,19.4,1,9,124.6,"NAN",0.09,0,0,0,98.2,0,0.001,15.72,1.002,1.079,1
"2015-09-14 14:33:00",101,12.93,14.54,109,24.13,33.19,"$GPRMC,193256,A,6448.7597,N,14745.6695,W,000.0,281.2,140915,019.4,E","$GPGGA,193256,6448.7597,N,14745.6695,W,1,09,0.9,125.4,M,8.0,M,,",64,48.76,-147,-45.67,0,281.2,19.4,1,9,125.4,"NAN",0.08,0,0,0,98.2,0,0.001,15.7,1.003,1.079,1
"2015-09-14 14:33:05",102,12.93,14.54,109.4,24.17,33.05,"$GPRMC,193301,A,6448.7612,N,14745.6646,W,003.1,059.7,140915,019.4,E","$GPGGA,193301,6448.7612,N,14745.6646,W,1,09,0.9,126.1,M,8.0,M,,",64,48.76,-147,-45.66,3.1,59.7,19.4,1,9,126.1,"NAN",0.07,0,0,0,98.1,0,0.001,15.72,1,1.079,1
"2015-09-14 14:33:10",103,12.93,14.54,109.7,24.17,33.05,"$GPRMC,193306,A,6448.7644,N,14745.6587,W,001.0,024.3,140915,019.4,E","$GPGGA,193306,6448.7644,N,14745.6587,W,1,09,0.9,127.2,M,8.0,M,,",64,48.76,-147,-45.66,1,24.3,19.4,1,9,127.2,"NAN",0.07,0,0,0,98.2,0,0.001,15.75,1.003,1.079,1
"2015-09-14 14:33:15",104,12.93,14.54,109.7,24.27,33.02,"$GPRMC,193311,A,6448.7647,N,14745.6582,W,000.0,024.3,140915,019.4,E","$GPGGA,193311,6448.7647,N,14745.6582,W,1,09,0.9,127.8,M,8.0,M,,",64,48.76,-147,-45.66,0,24.3,19.4,1,9,127.8,"NAN",0.06,0,0,0,98.1,0,0.001,15.77,1,1.079,1
"2015-09-14 14:33:20",105,12.93,14.54,109.7,24.3,32.98,"$GPRMC,193316,A,6448.7649,N,14745.6581,W,001.8,024.3,140915,019.4,E","$GPGGA,193316,6448.7649,N,14745.6581,W,1,09,0.9,127.8,M,8.0,M,,",64,48.76,-147,-45.66,1.8,24.3,19.4,1,9,127.8,"NAN",0.09,0,0,0,98.1,0,0.001,15.78,1,1.079,1
"2015-09-14 14:33:25",106,12.93,14.54,110,24.27,33.12,"$GPRMC,193321,A,6448.7719,N,14745.6478,W,008.3,054.9,140915,019.4,E","$GPGGA,193321,6448.7719,N,14745.6478,W,1,09,1.0,129.0,M,8.0,M,,",64,48.77,-147,-45.65,8.3,54.9,19.4,1,9,129,"NAN",0.09,0,0,0,98.2,0,0,15.81,1.004,1.079,1
"2015-09-14 14:33:30",107,12.93,14.54,105,24.34,33.22,"$GPRMC,193326,A,6448.7740,N,14745.6063,W,017.1,091.6,140915,019.4,E","$GPGGA,193326,6448.7740,N,14745.6063,W,1,09,1.0,129.7,M,8.0,M,,",64,48.77,-147,-45.61,17.1,91.6,19.4,1,9,129.7,"NAN",0.06,0,0,0,98.1,0,0.001,15.85,1.002,1.079,1
"2015-09-14 14:33:35",108,12.93,14.54,109.4,24.3,33.32,"$GPRMC,193331,A,6448.7739,N,14745.5387,W,023.7,089.5,140915,019.4,E","$GPGGA,193331,6448.7739,N,14745.5387,W,1,09,1.0,130.1,M,8.0,M,,",64,48.77,-147,-45.54,23.7,89.5,19.4,1,9,130.1,"NAN",0.08,0,0,0,98.1,0,0.001,15.84,1,1.079,1
"2015-09-14 14:33:40",109,12.93,14.54,111.7,24.4,33.22,"$GPRMC,193336,A,6448.7742,N,14745.4527,W,027.4,089.5,140915,019.4,E","$GPGGA,193336,6448.7742,N,14745.4527,W,1,09,1.0,130.4,M,8.0,M,,",64,48.77,-147,-45.45,27.4,89.5,19.4,1,9,130.4,"NAN",0.08,0,0,0,98.1,0,0.001,15.88,1.002,1.079,1
"2015-09-14 14:33:45",110,12.93,14.54,112.4,24.4,33.08,"$GPRMC,193341,A,6448.7744,N,14745.3608,W,029.2,090.5,140915,019.4,E","$GPGGA,193341,6448.7744,N,14745.3608,W,1,09,1.0,130.8,M,8.0,M,,",64,48.77,-147,-45.36,29.2,90.5,19.4,1,9,130.8,"NAN",0.07,0,0,0,98.1,0,0,15.89,1.004,1.079,1
"2015-09-14 14:33:50",111,12.93,14.54,111.4,24.51,33.08,"$GPRMC,193346,A,6448.7743,N,14745.2656,W,029.6,090.0,140915,019.4,E","$GPGGA,193346,6448.7743,N,14745.2656,W,1,09,1.0,131.1,M,8.0,M,,",64,48.77,-147,-45.27,29.6,90,19.4,1,9,131.1,"NAN",0.09,0,0,0,98.1,0,0.001,15.91,1.002,1.079,1
"2015-09-14 14:33:55",112,12.93,14.54,110,24.54,33.05,"$GPRMC,193351,A,6448.7742,N,14745.1704,W,029.4,090.5,140915,019.4,E","$GPGGA,193351,6448.7742,N,14745.1704,W,1,09,1.0,131.4,M,8.0,M,,",64,48.77,-147,-45.17,29.4,90.5,19.4,1,9,131.4,"NAN",0.1,0,0,0,98.1,0,0.001,15.95,1.002,1.079,1
"2015-09-14 14:34:00",113,12.93,14.54,110,24.61,33.12,"$GPRMC,193356,A,6448.7740,N,14745.0752,W,029.1,089.8,140915,019.4,E","$GPGGA,193356,6448.7740,N,14745.0752,W,1,09,1.0,131.6,M,8.0,M,,",64,48.77,-147,-45.08,29.1,89.8,19.4,1,9,131.6,"NAN",0.06,0,0,0,98.1,0,0.001,15.95,1.001,1.079,1
"2015-09-14 14:34:05",114,12.93,14.54,111.1,24.64,33.05,"$GPRMC,193401,A,6448.7740,N,14744.9819,W,029.0,090.3,140915,019.4,E","$GPGGA,193401,6448.7740,N,14744.9819,W,1,09,1.0,131.6,M,8.0,M,,",64,48.77,-147,-44.98,29,90.3,19.4,1,9,131.6,"NAN",0.07,0,0,0,98.1,0,0,15.97,1.004,1.079,1
"2015-09-14 14:34:10",115,12.93,14.56,113.1,24.64,32.64,"$GPRMC,193406,A,6448.7739,N,14744.8897,W,027.3,089.7,140915,019.4,E","$GPGGA,193406,6448.7739,N,14744.8897,W,1,09,1.0,131.8,M,8.0,M,,",64,48.77,-147,-44.89,27.3,89.7,19.4,1,9,131.8,"NAN",0.09,0,0,0,98.1,0,0.001,15.98,1,1.079,1
"2015-09-14 14:34:15",116,12.93,14.56,113.4,24.74,32.24,"$GPRMC,193411,A,6448.7739,N,14744.8085,W,022.3,090.2,140915,019.4,E","$GPGGA,193411,6448.7739,N,14744.8085,W,1,09,1.0,132.1,M,8.0,M,,",64,48.77,-147,-44.81,22.3,90.2,19.4,1,9,132.1,"NAN",0.09,0,0,0,98.1,0,0.001,16.02,1,1.079,1
"2015-09-14 14:34:20",117,12.93,14.56,111.7,24.74,32.13,"$GPRMC,193416,A,6448.7737,N,14744.7487,W,015.0,090.4,140915,019.4,E","$GPGGA,193416,6448.7737,N,14744.7487,W,1,09,1.0,132.3,M,8.0,M,,",64,48.77,-147,-44.75,15,90.4,19.4,1,9,132.3,"NAN",0.05,0,0,0,98.1,0,0.001,16.05,1,1.079,1
"2015-09-14 14:34:25",118,12.93,14.56,112.7,24.88,32.1,"$GPRMC,193421,A,6448.7726,N,14744.7032,W,016.3,090.5,140915,019.4,E","$GPGGA,193421,6448.7726,N,14744.7032,W,1,09,1.0,132.5,M,8.0,M,,",64,48.77,-147,-44.7,16.3,90.5,19.4,1,9,132.5,"NAN",0.07,0,0,0,98.1,0,0.001,16.05,1,1.078,1
"2015-09-14 14:34:30",119,12.93,14.56,114.1,24.88,32.07,"$GPRMC,193426,A,6448.7732,N,14744.6383,W,023.1,089.5,140915,019.4,E","$GPGGA,193426,6448.7732,N,14744.6383,W,1,09,1.0,132.7,M,8.0,M,,",64,48.77,-147,-44.64,23.1,89.5,19.4,1,9,132.7,"NAN",0.1,0,0,0,98.1,0,0.001,16.09,1,1.078,1
"2015-09-14 14:34:35",120,12.93,14.56,115.4,24.91,32.13,"$GPRMC,193431,A,6448.7738,N,14744.5541,W,027.9,089.6,140915,019.4,E","$GPGGA,193431,6448.7738,N,14744.5541,W,1,09,1.0,133.1,M,8.0,M,,",64,48.77,-147,-44.55,27.9,89.6,19.4,1,9,133.1,"NAN",0.11,0,0,0,98.1,0,0,16.09,1.004,1.079,1
"2015-09-14 14:34:40",121,12.94,14.56,117.8,24.98,32.2,"$GPRMC,193436,A,6448.7739,N,14744.4574,W,030.8,089.9,140915,019.4,E","$GPGGA,193436,6448.7739,N,14744.4574,W,1,09,1.0,133.4,M,8.0,M,,",64,48.77,-147,-44.46,30.8,89.9,19.4,1,9,133.4,"NAN",0.07,0,0,0,98.1,0,0,16.12,1,1.078,1
"2015-09-14 14:34:45",122,12.94,14.56,118.5,25.02,31.93,"$GPRMC,193441,A,6448.7741,N,14744.3539,W,032.1,090.0,140915,019.4,E","$GPGGA,193441,6448.7741,N,14744.3539,W,1,09,1.0,133.5,M,8.0,M,,",64,48.77,-147,-44.35,32.1,90,19.4,1,9,133.5,"NAN",0.08,0,0,0,98.1,0,0,16.14,1.006,1.079,1
"2015-09-14 14:34:50",123,12.93,14.59,116.5,25.08,31.42,"$GPRMC,193446,A,6448.7743,N,14744.2476,W,033.1,090.0,140915,019.4,E","$GPGGA,193446,6448.7743,N,14744.2476,W,1,09,1.0,133.4,M,8.0,M,,",64,48.77,-147,-44.25,33.1,90,19.4,1,9,133.4,"NAN",0.11,0,0,0,98.1,0,0.001,16.16,1,1.079,1
"2015-09-14 14:34:55",124,12.94,14.59,117.1,25.15,30.95,"$GPRMC,193451,A,6448.7742,N,14744.1383,W,033.6,090.2,140915,019.4,E","$GPGGA,193451,6448.7742,N,14744.1383,W,2,09,1.0,133.4,M,8.0,M,,",64,48.77,-147,-44.14,33.6,90.2,19.4,2,9,133.4,"NAN",0.07,0,0,0,98.1,0,0.001,16.19,1,1.079,1
"2015-09-14 14:35:00",125,12.93,14.59,116.8,25.29,30.51,"$GPRMC,193456,A,6448.7742,N,14744.0274,W,034.0,089.9,140915,019.4,E","$GPGGA,193456,6448.7742,N,14744.0274,W,2,09,1.0,133.6,M,8.0,M,,",64,48.77,-147,-44.03,34,89.9,19.4,2,9,133.6,"NAN",0.1,0,0,0,98.1,0,0.001,16.23,1,1.079,1
"2015-09-14 14:35:05",126,12.94,14.59,116.1,25.29,30.27,"$GPRMC,193501,A,6448.7741,N,14743.9183,W,032.7,089.9,140915,019.4,E","$GPGGA,193501,6448.7741,N,14743.9183,W,2,09,1.0,133.5,M,8.0,M,,",64,48.77,-147,-43.92,32.7,89.9,19.4,2,9,133.5,"NAN",0.1,0,0,0,98.1,0,0.001,16.24,1.001,1.079,1
"2015-09-14 14:35:10",127,12.94,14.59,118.5,25.42,30.37,"$GPRMC,193506,A,6448.7742,N,14743.8103,W,034.1,089.7,140915,019.4,E","$GPGGA,193506,6448.7742,N,14743.8103,W,2,09,1.0,133.7,M,8.0,M,,",64,48.77,-147,-43.81,34.1,89.7,19.4,2,9,133.7,"NAN",0.06,0,0,0,98.1,0,0.001,16.26,1.001,1.079,1
"2015-09-14 14:35:15",128,12.94,14.59,123.2,25.42,30.54,"$GPRMC,193511,A,6448.7741,N,14743.6986,W,034.1,090.5,140915,019.4,E","$GPGGA,193511,6448.7741,N,14743.6986,W,2,09,1.0,133.8,M,8.0,M,,",64,48.77,-147,-43.7,34.1,90.5,19.4,2,9,133.8,"NAN",0.06,0,0,0,98.1,0,0.001,16.29,1,1.078,1
"2015-09-14 14:35:20",129,12.94,14.59,125.9,25.46,30.74,"$GPRMC,193516,A,6448.7740,N,14743.5877,W,034.2,090.1,140915,019.4,E","$GPGGA,193516,6448.7740,N,14743.5877,W,2,09,1.0,133.9,M,8.0,M,,",64,48.77,-147,-43.59,34.2,90.1,19.4,2,9,133.9,"NAN",0.11,0,0,0,98.1,0,0,16.3,1.004,1.079,1
"2015-09-14 14:35:25",130,12.94,14.59,125.9,25.56,30.34,"$GPRMC,193521,A,6448.7740,N,14743.4800,W,032.1,089.9,140915,019.4,E","$GPGGA,193521,6448.7740,N,14743.4800,W,2,09,1.0,133.9,M,8.0,M,,",64,48.77,-147,-43.48,32.1,89.9,19.4,2,9,133.9,"NAN",0.06,0,0,0,98.1,0,0.001,16.33,1.002,1.079,1
"2015-09-14 14:35:30",131,12.94,14.59,125.2,25.59,29.89,"$GPRMC,193526,A,6448.7741,N,14743.3781,W,030.9,089.9,140915,019.4,E","$GPGGA,193526,6448.7741,N,14743.3781,W,2,09,1.0,133.9,M,8.0,M,,",64,48.77,-147,-43.38,30.9,89.9,19.4,2,9,133.9,"NAN",0.09,0,0,0,98.1,0,0.001,16.32,1,1.078,1
"2015-09-14 14:35:35",132,12.94,14.59,125.6,25.76,29.49,"$GPRMC,193531,A,6448.7741,N,14743.2799,W,029.3,089.9,140915,019.4,E","$GPGGA,193531,6448.7741,N,14743.2799,W,2,09,1.0,134.0,M,8.0,M,,",64,48.77,-147,-43.28,29.3,89.9,19.4,2,9,134,"NAN",0.09,0,0,0,98.1,0,0.001,16.37,1.002,1.079,1
"2015-09-14 14:35:40",133,12.94,14.59,124.6,25.83,29.28,"$GPRMC,193536,A,6448.7743,N,14743.1876,W,028.1,089.8,140915,019.4,E","$GPGGA,193536,6448.7743,N,14743.1876,W,2,09,1.0,134.2,M,8.0,M,,",64,48.77,-147,-43.19,28.1,89.8,19.4,2,9,134.2,"NAN",0.1,0,0,0,98.1,0,0.001,16.39,1,1.078,1
"2015-09-14 14:35:45",134,12.94,14.59,121.8,25.86,29.15,"$GPRMC,193541,A,6448.7742,N,14743.0974,W,027.7,090.3,140915,019.4,E","$GPGGA,193541,6448.7742,N,14743.0974,W,2,09,1.0,134.3,M,8.0,M,,",64,48.77,-147,-43.1,27.7,90.3,19.4,2,9,134.3,"NAN",0.1,0,0,0,98.1,0,0.001,16.41,1,1.079,1
"2015-09-14 14:35:50",135,12.94,14.59,119.5,25.97,29.05,"$GPRMC,193546,A,6448.7740,N,14743.0090,W,027.3,090.0,140915,019.4,E","$GPGGA,193546,6448.7740,N,14743.0090,W,2,09,1.0,134.5,M,8.0,M,,",64,48.77,-147,-43.01,27.3,90,19.4,2,9,134.5,"NAN",0.11,0,0,0,98.1,0,0.001,16.41,1.003,1.079,1
"2015-09-14 14:35:55",136,12.94,14.59,117.1,26.03,29.25,"$GPRMC,193551,A,6448.7740,N,14742.9246,W,025.1,089.9,140915,019.4,E","$GPGGA,193551,6448.7740,N,14742.9246,W,2,09,1.0,134.5,M,8.0,M,,",64,48.77,-147,-42.92,25.1,89.9,19.4,2,9,134.5,"NAN",0.11,0,0,0,98.1,0,0.001,16.48,1.002,1.079,1
"2015-09-14 14:36:00",137,12.94,14.59,97.9,26.1,29.49,"$GPRMC,193556,A,6448.7741,N,14742.8443,W,025.7,090.0,140915,019.4,E","$GPGGA,193556,6448.7741,N,14742.8443,W,2,09,1.0,134.7,M,8.0,M,,",64,48.77,-147,-42.84,25.7,90,19.4,2,9,134.7,"NAN",0.06,0,0,0,98.1,0,0,16.46,1,1.078,1
"2015-09-14 14:36:05",138,12.94,14.61,113.4,26.17,29.59,"$GPRMC,193601,A,6448.7740,N,14742.7573,W,027.7,089.8,140915,019.4,E","$GPGGA,193601,6448.7740,N,14742.7573,W,2,09,1.0,134.9,M,8.0,M,,",64,48.77,-147,-42.76,27.7,89.8,19.4,2,9,134.9,"NAN",0.09,0,0,0,98.1,0,0.001,16.5,1.002,1.079,1
"2015-09-14 14:36:10",139,12.94,14.61,116.4,26.24,29.32,"$GPRMC,193606,A,6448.7759,N,14742.6797,W,019.1,085.7,140915,019.4,E","$GPGGA,193606,6448.7759,N,14742.6797,W,2,09,1.0,135.1,M,8.0,M,,",64,48.78,-147,-42.68,19.1,85.7,19.4,2,9,135.1,"NAN",0.06,0,0,0,98.1,0,0.001,16.52,1,1.079,1
"2015-09-14 14:36:15",140,12.94,14.61,118.1,26.24,28.98,"$GPRMC,193611,A,6448.7763,N,14742.6442,W,003.7,089.8,140915,019.4,E","$GPGGA,193611,6448.7763,N,14742.6442,W,2,09,1.0,135.1,M,8.0,M,,",64,48.78,-147,-42.64,3.7,89.8,19.4,2,9,135.1,"NAN",0.08,0,0,0,98.1,0,0.001,16.53,1.001,1.079,1
"2015-09-14 14:36:20",141,12.94,14.61,118.1,26.34,28.78,"$GPRMC,193616,A,6448.7766,N,14742.6439,W,000.0,089.8,140915,019.4,E","$GPGGA,193616,6448.7766,N,14742.6439,W,2,09,0.9,135.2,M,8.0,M,,",64,48.78,-147,-42.64,0,89.8,19.4,2,9,135.2,"NAN",0.05,0,0,0,98.1,0,0.001,16.59,1,1.078,1
"2015-09-14 14:36:25",142,12.94,14.61,118.5,26.44,28.71,"$GPRMC,193621,A,6448.7767,N,14742.6429,W,000.0,089.8,140915,019.4,E","$GPGGA,193621,6448.7767,N,14742.6429,W,2,09,0.9,135.1,M,8.0,M,,",64,48.78,-147,-42.64,0,89.8,19.4,2,9,135.1,"NAN",0.05,0,0,0,98.1,0,0.001,16.58,1,1.078,1
"2015-09-14 14:36:30",143,12.94,14.61,116.8,26.41,28.57,"$GPRMC,193626,A,6448.7874,N,14742.6357,W,013.8,357.8,140915,019.4,E","$GPGGA,193626,6448.7874,N,14742.6357,W,2,09,1.0,135.5,M,8.0,M,,",64,48.79,-147,-42.64,13.8,357.8,19.4,2,9,135.5,"NAN",0.07,0,0,0,98.1,0,0.001,16.6,1,1.078,1
"2015-09-14 14:36:35",144,12.94,14.64,119.1,26.44,28.5,"$GPRMC,193631,A,6448.8148,N,14742.6369,W,023.8,359.6,140915,019.4,E","$GPGGA,193631,6448.8148,N,14742.6369,W,2,09,1.0,136.1,M,8.0,M,,",64,48.81,-147,-42.64,23.8,359.6,19.4,2,9,136.1,"NAN",0.05,0,0,0,98.1,0,0.001,16.61,1,1.078,1
"2015-09-14 14:36:40",145,12.94,14.64,117.8,26.47,28.57,"$GPRMC,193636,A,6448.8503,N,14742.6384,W,025.7,358.4,140915,019.4,E","$GPGGA,193636,6448.8503,N,14742.6384,W,2,09,1.0,136.6,M,8.0,M,,",64,48.85,-147,-42.64,25.7,358.4,19.4,2,9,136.6,"NAN",0.05,0,0,0,98.1,0,0.001,16.65,1,1.078,1
"2015-09-14 14:36:45",146,12.94,14.64,115.8,26.58,28.57,"$GPRMC,193641,A,6448.8879,N,14742.6395,W,027.5,359.5,140915,019.4,E","$GPGGA,193641,6448.8879,N,14742.6395,W,2,09,1.0,136.7,M,8.0,M,,",64,48.89,-147,-42.64,27.5,359.5,19.4,2,9,136.7,"NAN",0.06,0,0,0,98.1,0,0.001,16.69,1,1.079,1
"2015-09-14 14:36:50",147,12.94,14.64,114.4,26.58,28.71,"$GPRMC,193646,A,6448.9275,N,14742.6400,W,029.5,000.0,140915,019.4,E","$GPGGA,193646,6448.9275,N,14742.6400,W,2,09,1.0,136.9,M,8.0,M,,",64,48.93,-147,-42.64,29.5,0,19.4,2,9,136.9,"NAN",0.09,0,0,0,98.1,0,0.001,16.7,1,1.078,1
"2015-09-14 14:36:55",148,12.94,14.64,114.4,26.64,28.47,"$GPRMC,193651,A,6448.9699,N,14742.6398,W,031.0,359.9,140915,019.4,E","$GPGGA,193651,6448.9699,N,14742.6398,W,2,09,1.0,136.9,M,8.0,M,,",64,48.97,-147,-42.64,31,359.9,19.4,2,9,136.9,"NAN",0.09,0,0,0,98.1,0,0.001,16.71,1,1.079,1
"2015-09-14 14:37:00",149,12.94,14.64,114.8,26.64,28.5,"$GPRMC,193656,A,6449.0134,N,14742.6402,W,031.2,000.0,140915,019.4,E","$GPGGA,193656,6449.0134,N,14742.6402,W,2,09,1.0,137.0,M,8.0,M,,",64,49.01,-147,-42.64,31.2,0,19.4,2,9,137,"NAN",0.09,0,0,0,98.1,0,0.001,16.75,1.003,1.079,1
"2015-09-14 14:37:05",150,12.94,14.64,113.7,26.64,28.27,"$GPRMC,193701,A,6449.0566,N,14742.6384,W,030.9,001.4,140915,019.4,E","$GPGGA,193701,6449.0566,N,14742.6384,W,2,09,1.0,137.4,M,8.0,M,,",64,49.06,-147,-42.64,30.9,1.4,19.4,2,9,137.4,"NAN",0.05,0,0,0,98.1,0,0.001,16.78,1,1.078,1
"2015-09-14 14:37:10",151,12.94,14.64,109.7,26.71,28.06,"$GPRMC,193706,A,6449.0998,N,14742.6360,W,031.0,001.3,140915,019.4,E","$GPGGA,193706,6449.0998,N,14742.6360,W,2,09,1.0,137.5,M,8.0,M,,",64,49.1,-147,-42.64,31,1.3,19.4,2,9,137.5,"NAN",0.09,0,0,0,98.1,0,0.001,16.79,1,1.079,1
"2015-09-14 14:37:15",152,12.94,14.64,106.7,26.68,27.82,"$GPRMC,193711,A,6449.1414,N,14742.6337,W,028.6,359.7,140915,019.4,E","$GPGGA,193711,6449.1414,N,14742.6337,W,2,09,1.0,138.0,M,8.0,M,,",64,49.14,-147,-42.63,28.6,359.7,19.4,2,9,138,"NAN",0.1,0,0,0,98.1,0,0.001,16.8,1.003,1.079,1
"2015-09-14 14:37:20",153,12.94,14.64,104.6,26.75,27.79,"$GPRMC,193716,A,6449.1815,N,14742.6366,W,030.3,356.3,140915,019.4,E","$GPGGA,193716,6449.1815,N,14742.6366,W,2,09,1.0,138.5,M,8.0,M,,",64,49.18,-147,-42.64,30.3,356.3,19.4,2,9,138.5,"NAN",0.08,0,0,0,98.1,0,0.001,16.84,1.002,1.079,1
"2015-09-14 14:37:25",154,12.94,14.64,4.725,26.78,27.89,"$GPRMC,193721,A,6449.2244,N,14742.6485,W,031.8,350.1,140915,019.4,E","$GPGGA,193721,6449.2244,N,14742.6485,W,2,09,0.9,138.4,M,8.0,M,,",64,49.22,-147,-42.65,31.8,350.1,19.4,2,9,138.4,"NAN",0.08,0,0,0,98.1,0,0.001,16.82,1.002,1.079,1
"2015-09-14 14:37:30",155,12.94,14.64,101.3,26.78,27.96,"$GPRMC,193726,A,6449.2673,N,14742.6692,W,031.2,349.0,140915,019.4,E","$GPGGA,193726,6449.2673,N,14742.6692,W,2,09,1.0,137.8,M,8.0,M,,",64,49.27,-147,-42.67,31.2,349,19.4,2,9,137.8,"NAN",0.07,0,0,0,98.1,0,0,16.84,1.004,1.079,1
"2015-09-14 14:37:35",156,12.94,14.64,94.8,26.85,28.16,"$GPRMC,193731,A,6449.3102,N,14742.6889,W,031.4,349.5,140915,019.4,E","$GPGGA,193731,6449.3102,N,14742.6889,W,2,09,1.0,138.6,M,8.0,M,,",64,49.31,-147,-42.69,31.4,349.5,19.4,2,9,138.6,"NAN",0.06,0,0,0,98.1,0,0.001,16.87,1,1.079,1
"2015-09-14 14:37:40",157,12.94,14.66,95.9,26.88,28.33,"$GPRMC,193736,A,6449.3521,N,14742.7045,W,030.0,351.2,140915,019.4,E","$GPGGA,193736,6449.3521,N,14742.7045,W,2,09,1.0,140.2,M,8.0,M,,",64,49.35,-147,-42.7,30,351.2,19.4,2,9,140.2,"NAN",0.07,0,0,0,98.1,0,0.001,16.89,1,1.079,1
"2015-09-14 14:37:45",158,12.94,14.66,94.5,26.92,28.13,"$GPRMC,193741,A,6449.3931,N,14742.7197,W,029.4,349.9,140915,019.4,E","$GPGGA,193741,6449.3931,N,14742.7197,W,2,09,1.0,140.7,M,8.0,M,,",64,49.39,-147,-42.72,29.4,349.9,19.4,2,9,140.7,"NAN",0.09,0,0,0,98.1,0,0.001,16.9,1.003,1.079,1
"2015-09-14 14:37:50",159,12.94,14.66,94.5,26.95,27.89,"$GPRMC,193746,A,6449.4302,N,14742.7363,W,025.0,349.1,140915,019.4,E","$GPGGA,193746,6449.4302,N,14742.7363,W,2,09,1.0,140.9,M,8.0,M,,",64,49.43,-147,-42.74,25,349.1,19.4,2,9,140.9,"NAN",0.1,0,0,0,98.1,0,0.001,16.9,1,1.079,1
"2015-09-14 14:37:55",160,12.94,14.66,96.9,26.98,27.82,"$GPRMC,193751,A,6449.4607,N,14742.7499,W,021.1,349.3,140915,019.4,E","$GPGGA,193751,6449.4607,N,14742.7499,W,2,09,1.0,141.2,M,8.0,M,,",64,49.46,-147,-42.75,21.1,349.3,19.4,2,9,141.2,"NAN",0.1,0,0,0,98.1,0,0.001,16.96,1.001,1.079,1
"2015-09-14 14:38:00",161,12.94,14.66,97.2,27.05,27.93,"$GPRMC,193756,A,6449.4879,N,14742.7626,W,018.5,348.9,140915,019.4,E","$GPGGA,193756,6449.4879,N,14742.7626,W,2,09,1.0,141.5,M,8.0,M,,",64,49.49,-147,-42.76,18.5,348.9,19.4,2,9,141.5,"NAN",0.09,0,0,0,98.1,0,0.001,16.94,1.003,1.079,1
"2015-09-14 14:38:05",162,12.94,14.66,97.9,27.05,27.89,"$GPRMC,193801,A,6449.5107,N,14742.7729,W,016.5,349.1,140915,019.4,E","$GPGGA,193801,6449.5107,N,14742.7729,W,2,09,1.0,141.8,M,8.0,M,,",64,49.51,-147,-42.77,16.5,349.1,19.4,2,9,141.8,"NAN",0.11,0,0,0,98.1,0,0.001,17.01,1,1.079,1
"2015-09-14 14:38:10",163,12.94,14.66,100.9,26.98,27.96,"$GPRMC,193806,A,6449.5323,N,14742.7831,W,014.9,349.4,140915,019.4,E","$GPGGA,193806,6449.5323,N,14742.7831,W,2,09,1.0,142.2,M,8.0,M,,",64,49.53,-147,-42.78,14.9,349.4,19.4,2,9,142.2,"NAN",0.09,0,0,0,98.1,0,0.001,17.02,1.002,1.079,1
"2015-09-14 14:38:15",164,12.94,14.66,101.6,27.02,27.99,"$GPRMC,193811,A,6449.5492,N,14742.7908,W,010.0,348.8,140915,019.4,E","$GPGGA,193811,6449.5492,N,14742.7908,W,2,10,0.9,142.4,M,8.0,M,,",64,49.55,-147,-42.79,10,348.8,19.4,2,10,142.4,"NAN",0.1,0,0,0,98.1,0,0.001,17.04,1.002,1.079,1
"2015-09-14 14:38:20",165,12.94,14.68,102.6,27.05,28.16,"$GPRMC,193816,A,6449.5582,N,14742.7947,W,003.3,349.4,140915,019.4,E","$GPGGA,193816,6449.5582,N,14742.7947,W,2,10,0.9,142.8,M,8.0,M,,",64,49.56,-147,-42.79,3.3,349.4,19.4,2,10,142.8,"NAN",0.05,0,0,0,98.1,0,0.001,17.04,1,1.079,1
"2015-09-14 14:38:25",166,12.94,14.68,101.9,27.05,28.27,"$GPRMC,193821,A,6449.5592,N,14742.7953,W,000.0,349.5,140915,019.4,E","$GPGGA,193821,6449.5592,N,14742.7953,W,2,10,0.8,143.6,M,8.0,M,,",64,49.56,-147,-42.8,0,349.5,19.4,2,10,143.6,"NAN",0.07,0,0,0,98.1,0,0.001,17.06,1,1.079,1
"2015-09-14 14:38:30",167,12.94,14.68,101.6,27.02,28.4,"$GPRMC,193826,A,6449.5592,N,14742.7952,W,000.0,349.5,140915,019.4,E","$GPGGA,193826,6449.5592,N,14742.7952,W,2,10,0.9,143.7,M,8.0,M,,",64,49.56,-147,-42.8,0,349.5,19.4,2,10,143.7,"NAN",0.05,0,0,0,98.1,0,0.001,17.08,1.002,1.079,1
"2015-09-14 14:38:35",168,12.94,14.68,99.6,27.02,28.37,"$GPRMC,193831,A,6449.5654,N,14742.7977,W,009.8,349.7,140915,019.4,E","$GPGGA,193831,6449.5654,N,14742.7977,W,2,10,0.9,143.8,M,8.0,M,,",64,49.57,-147,-42.8,9.8,349.7,19.4,2,10,143.8,"NAN",0.06,0,0,0,98.1,0,0.001,17.09,1,1.078,1
"2015-09-14 14:38:40",169,12.94,14.68,102.9,26.95,28.44,"$GPRMC,193836,A,6449.5844,N,14742.8055,W,016.9,349.2,140915,019.4,E","$GPGGA,193836,6449.5844,N,14742.8055,W,2,10,0.9,144.2,M,8.0,M,,",64,49.58,-147,-42.81,16.9,349.2,19.4,2,10,144.2,"NAN",0.1,0,0,0,98.1,0,0.001,17.12,1.002,1.079,1
"2015-09-14 14:38:45",170,12.94,14.68,104.3,27.02,28.44,"$GPRMC,193841,A,6449.6106,N,14742.8177,W,021.0,348.5,140915,019.4,E","$GPGGA,193841,6449.6106,N,14742.8177,W,2,10,0.9,143.8,M,8.0,M,,",64,49.61,-147,-42.82,21,348.5,19.4,2,10,143.8,"NAN",0.1,0,0,0,98.1,0,0.001,17.08,1,1.079,1
"2015-09-14 14:38:50",171,12.94,14.68,104.3,26.98,28.54,"$GPRMC,193846,A,6449.6417,N,14742.8315,W,023.6,349.5,140915,019.4,E","$GPGGA,193846,6449.6417,N,14742.8315,W,2,10,0.9,143.5,M,8.0,M,,",64,49.64,-147,-42.83,23.6,349.5,19.4,2,10,143.5,"NAN",0.09,0,0,0,98.1,0,0.001,17.14,1.001,1.079,1
"2015-09-14 14:38:55",172,12.94,14.68,106.3,26.98,28.64,"$GPRMC,193851,A,6449.6751,N,14742.8465,W,024.6,349.0,140915,019.4,E","$GPGGA,193851,6449.6751,N,14742.8465,W,2,10,0.9,143.8,M,8.0,M,,",64,49.68,-147,-42.85,24.6,349,19.4,2,10,143.8,"NAN",0.1,0,0,0,98.1,0,0.001,17.15,1.002,1.079,1
"2015-09-14 14:39:00",173,12.94,14.68,105.6,26.98,28.61,"$GPRMC,193856,A,6449.7093,N,14742.8626,W,025.1,348.6,140915,019.4,E","$GPGGA,193856,6449.7093,N,14742.8626,W,2,10,0.9,143.8,M,8.0,M,,",64,49.71,-147,-42.86,25.1,348.6,19.4,2,10,143.8,"NAN",0.05,0,0,0,98.1,0,0.001,17.16,1,1.079,1
"2015-09-14 14:39:05",174,12.94,14.68,108,26.92,28.57,"$GPRMC,193901,A,6449.7438,N,14742.8782,W,025.7,349.3,140915,019.4,E","$GPGGA,193901,6449.7438,N,14742.8782,W,2,10,0.9,144.0,M,8.0,M,,",64,49.74,-147,-42.88,25.7,349.3,19.4,2,10,144,"NAN",0.09,0,0,0,98.1,0,0.001,17.17,1.001,1.079,1
"2015-09-14 14:39:10",175,12.94,14.68,107.7,26.92,28.47,"$GPRMC,193906,A,6449.7795,N,14742.8941,W,026.6,349.1,140915,019.4,E","$GPGGA,193906,6449.7795,N,14742.8941,W,2,10,0.9,143.9,M,8.0,M,,",64,49.78,-147,-42.89,26.6,349.1,19.4,2,10,143.9,"NAN",0.08,0,0,0,98.1,0,0,17.2,1.004,1.079,1
"2015-09-14 14:39:15",176,12.94,14.68,107.7,26.92,28.47,"$GPRMC,193911,A,6449.8167,N,14742.9105,W,027.5,349.3,140915,019.4,E","$GPGGA,193911,6449.8167,N,14742.9105,W,2,10,0.9,144.0,M,8.0,M,,",64,49.82,-147,-42.91,27.5,349.3,19.4,2,10,144,"NAN",0.09,0,0,0,98.1,0,0.001,17.22,1.002,1.079,1
"2015-09-14 14:39:20",177,12.94,14.68,107.7,26.92,28.61,"$GPRMC,193916,A,6449.8516,N,14742.9260,W,021.5,349.4,140915,019.4,E","$GPGGA,193916,6449.8516,N,14742.9260,W,2,10,0.9,144.3,M,8.0,M,,",64,49.85,-147,-42.93,21.5,349.4,19.4,2,10,144.3,"NAN",0.05,0,0,0,98.1,0,0.001,17.27,1.003,1.079,1
"2015-09-14 14:39:25",178,12.94,14.68,105.3,26.88,28.78,"$GPRMC,193921,A,6449.8734,N,14742.9350,W,011.6,349.2,140915,019.4,E","$GPGGA,193921,6449.8734,N,14742.9350,W,2,10,0.9,144.2,M,8.0,M,,",64,49.87,-147,-42.94,11.6,349.2,19.4,2,10,144.2,"NAN",0.06,0,0,0,98.1,0,0.001,17.23,1.002,1.079,1
"2015-09-14 14:39:30",179,12.94,14.71,105,26.92,28.91,"$GPRMC,193926,A,6449.8814,N,14742.9385,W,002.4,349.0,140915,019.4,E","$GPGGA,193926,6449.8814,N,14742.9385,W,2,10,0.9,144.3,M,8.0,M,,",64,49.88,-147,-42.94,2.4,349,19.4,2,10,144.3,"NAN",0.06,0,0,0,98.1,0,0.001,17.27,1,1.079,1
"2015-09-14 14:39:35",180,12.94,14.71,105.6,26.78,29.01,"$GPRMC,193931,A,6449.8818,N,14742.9387,W,000.0,349.0,140915,019.4,E","$GPGGA,193931,6449.8818,N,14742.9387,W,2,10,0.8,144.6,M,8.0,M,,",64,49.88,-147,-42.94,0,349,19.4,2,10,144.6,"NAN",0.07,0,0,0,98.1,0,0.001,17.26,1.001,1.079,1
"2015-09-14 14:39:40",181,12.94,14.71,102.3,26.78,29.11,"$GPRMC,193936,A,6449.8890,N,14742.9419,W,011.3,349.3,140915,019.4,E","$GPGGA,193936,6449.8890,N,14742.9419,W,2,10,0.9,144.5,M,8.0,M,,",64,49.89,-147,-42.94,11.3,349.3,19.4,2,10,144.5,"NAN",0.06,0,0,0,98.1,0,0.001,17.3,1,1.079,1
"2015-09-14 14:39:45",182,12.94,14.71,104,26.81,29.18,"$GPRMC,193941,A,6449.9102,N,14742.9521,W,019.0,349.0,140915,019.4,E","$GPGGA,193941,6449.9102,N,14742.9521,W,2,10,0.9,144.1,M,8.0,M,,",64,49.91,-147,-42.95,19,349,19.4,2,10,144.1,"NAN",0.06,0,0,0,98.1,0,0.001,17.31,1,1.078,1
"2015-09-14 14:39:50",183,12.94,14.71,99.2,26.71,29.15,"$GPRMC,193946,A,6449.9405,N,14742.9657,W,023.8,349.2,140915,019.4,E","$GPGGA,193946,6449.9405,N,14742.9657,W,2,10,0.9,144.1,M,8.0,M,,",64,49.94,-147,-42.97,23.8,349.2,19.4,2,10,144.1,"NAN",0.1,0,0,0,98.1,0,0.001,17.29,1,1.079,1
"2015-09-14 14:39:55",184,12.94,14.71,98.2,26.78,29.18,"$GPRMC,193951,A,6449.9727,N,14742.9804,W,021.7,349.0,140915,019.4,E","$GPGGA,193951,6449.9727,N,14742.9804,W,2,09,1.0,144.4,M,8.0,M,,",64,49.97,-147,-42.98,21.7,349,19.4,2,9,144.4,"NAN",0.09,0,0,0,98.1,0,0.001,17.34,1,1.078,1
"2015-09-14 14:40:00",185,12.94,14.73,91.1,26.78,29.32,"$GPRMC,193956,A,6449.9992,N,14742.9920,W,017.1,349.1,140915,019.4,E","$GPGGA,193956,6449.9992,N,14742.9920,W,2,09,1.0,144.4,M,8.0,M,,",64,50,-147,-42.99,17.1,349.1,19.4,2,9,144.4,"NAN",0.1,0,0,0,98.1,0,0.001,17.31,1.002,1.079,1
"2015-09-14 14:40:05",186,12.94,14.73,98.6,26.71,29.35,"$GPRMC,194001,A,6450.0186,N,14743.0017,W,011.9,348.9,140915,019.4,E","$GPGGA,194001,6450.0186,N,14743.0017,W,2,10,0.9,144.8,M,8.0,M,,",64,50.02,-147,-43,11.9,348.9,19.4,2,10,144.8,"NAN",0.09,0,0,0,98.1,0,0.001,17.36,1.001,1.079,1
"2015-09-14 14:40:10",187,12.94,14.73,99.2,26.75,29.39,"$GPRMC,194006,A,6450.0303,N,14743.0073,W,004.1,348.9,140915,019.4,E","$GPGGA,194006,6450.0303,N,14743.0073,W,2,10,0.9,145.0,M,8.0,M,,",64,50.03,-147,-43.01,4.1,348.9,19.4,2,10,145,"NAN",0.05,0,0,0,98.1,0,0.001,17.36,1,1.079,1
"2015-09-14 14:40:15",188,12.94,14.73,99.6,26.71,29.39,"$GPRMC,194011,A,6450.0310,N,14743.0072,W,000.0,348.9,140915,019.4,E","$GPGGA,194011,6450.0310,N,14743.0072,W,2,10,0.8,144.7,M,8.0,M,,",64,50.03,-147,-43.01,0,348.9,19.4,2,10,144.7,"NAN",0.05,0,0,0,98.1,0,0.001,17.41,1.002,1.079,1
"2015-09-14 14:40:20",189,12.94,14.73,100.6,26.71,29.62,"$GPRMC,194016,A,6450.0347,N,14743.0089,W,008.7,348.3,140915,019.4,E","$GPGGA,194016,6450.0347,N,14743.0089,W,2,10,0.9,144.7,M,8.0,M,,",64,50.03,-147,-43.01,8.7,348.3,19.4,2,10,144.7,"NAN",0.06,0,0,0,98.1,0,0,17.41,1.004,1.079,1
"2015-09-14 14:40:25",190,12.94,14.73,100.9,26.64,29.76,"$GPRMC,194021,A,6450.0532,N,14743.0174,W,016.4,349.5,140915,019.4,E","$GPGGA,194021,6450.0532,N,14743.0174,W,2,10,0.9,144.4,M,8.0,M,,",64,50.05,-147,-43.02,16.4,349.5,19.4,2,10,144.4,"NAN",0.06,0,0,0,98.1,0,0.001,17.41,1.002,1.079,1
"2015-09-14 14:40:30",191,12.94,14.73,102.9,26.64,29.93,"$GPRMC,194026,A,6450.0782,N,14743.0282,W,018.9,349.1,140915,019.4,E","$GPGGA,194026,6450.0782,N,14743.0282,W,2,10,0.9,144.8,M,8.0,M,,",64,50.08,-147,-43.03,18.9,349.1,19.4,2,10,144.8,"NAN",0.05,0,0,0,98.1,0,0.001,17.42,1,1.079,1
"2015-09-14 14:40:35",192,12.94,14.73,106,26.68,30,"$GPRMC,194031,A,6450.1049,N,14743.0404,W,019.5,348.9,140915,019.4,E","$GPGGA,194031,6450.1049,N,14743.0404,W,2,10,0.9,144.6,M,8.0,M,,",64,50.1,-147,-43.04,19.5,348.9,19.4,2,10,144.6,"NAN",0.09,0,0,0,98.1,0,0.001,17.44,1,1.079,1
"2015-09-14 14:40:40",193,12.94,14.73,98.9,26.61,30,"$GPRMC,194036,A,6450.1312,N,14743.0518,W,018.3,349.8,140915,019.4,E","$GPGGA,194036,6450.1312,N,14743.0518,W,2,10,0.9,145.2,M,7.9,M,,",64,50.13,-147,-43.05,18.3,349.8,19.4,2,10,145.2,"NAN",0.1,0,0,0,98.1,0,0.001,17.44,1.003,1.079,1
"2015-09-14 14:40:45",194,12.94,14.73,106,26.58,30.03,"$GPRMC,194041,A,6450.1530,N,14743.0611,W,013.0,350.0,140915,019.4,E","$GPGGA,194041,6450.1530,N,14743.0611,W,2,10,0.9,145.5,M,7.9,M,,",64,50.15,-147,-43.06,13,350,19.4,2,10,145.5,"NAN",0.05,0,0,0,98.1,0,0.001,17.43,1.003,1.079,1
"2015-09-14 14:40:50",195,12.94,14.73,108,26.54,30.1,"$GPRMC,194046,A,6450.1657,N,14743.0662,W,007.2,350.4,140915,019.4,E","$GPGGA,194046,6450.1657,N,14743.0662,W,2,10,0.9,145.6,M,7.9,M,,",64,50.17,-147,-43.07,7.2,350.4,19.4,2,10,145.6,"NAN",0.07,0,0,0,98.1,0,0.001,17.45,1.001,1.079,1
"2015-09-14 14:40:55",196,12.94,14.75,107,26.54,30,"$GPRMC,194051,A,6450.1723,N,14743.0530,W,009.0,076.7,140915,019.4,E","$GPGGA,194051,6450.1723,N,14743.0530,W,2,10,0.9,144.7,M,7.9,M,,",64,50.17,-147,-43.05,9,76.7,19.4,2,10,144.7,"NAN",0.07,0,0,0,98.1,0,0,17.48,1.006,1.079,1
"2015-09-14 14:41:00",197,12.94,14.75,110.4,26.54,30.06,"$GPRMC,194056,A,6450.1692,N,14743.0056,W,019.9,098.4,140915,019.4,E","$GPGGA,194056,6450.1692,N,14743.0056,W,2,10,0.9,143.3,M,7.9,M,,",64,50.17,-147,-43.01,19.9,98.4,19.4,2,10,143.3,"NAN",0.05,0,0,0,98.1,0,0.001,17.49,1.003,1.079,1
"2015-09-14 14:41:05",198,12.94,14.75,109.7,26.54,30.47,"$GPRMC,194101,A,6450.1635,N,14742.9322,W,025.1,100.1,140915,019.4,E","$GPGGA,194101,6450.1635,N,14742.9322,W,2,10,0.9,141.9,M,7.9,M,,",64,50.16,-147,-42.93,25.1,100.1,19.4,2,10,141.9,"NAN",0.07,0,0,0,98.1,0,0.001,17.52,1.002,1.079,1
"2015-09-14 14:41:10",199,12.94,14.75,108.3,26.51,30.71,"$GPRMC,194106,A,6450.1563,N,14742.8450,W,028.7,099.5,140915,019.4,E","$GPGGA,194106,6450.1563,N,14742.8450,W,2,10,0.9,140.8,M,7.9,M,,",64,50.16,-147,-42.85,28.7,99.5,19.4,2,10,140.8,"NAN",0.07,0,0,0,98.1,0,0.001,17.52,1,1.079,1
"2015-09-14 14:41:15",200,12.94,14.75,104.6,26.51,30.64,"$GPRMC,194111,A,6450.1475,N,14742.7477,W,031.5,106.2,140915,019.4,E","$GPGGA,194111,6450.1475,N,14742.7477,W,2,10,0.9,140.6,M,7.9,M,,",64,50.15,-147,-42.75,31.5,106.2,19.4,2,10,140.6,"NAN",0.07,0,0,0,98.1,0,0.001,17.54,1,1.079,1.001
"2015-09-14 14:41:20",201,12.94,14.75,103.3,26.47,30.61,"$GPRMC,194116,A,6450.1316,N,14742.6488,W,032.9,113.2,140915,019.4,E","$GPGGA,194116,6450.1316,N,14742.6488,W,2,10,0.9,140.3,M,7.9,M,,",64,50.13,-147,-42.65,32.9,113.2,19.4,2,10,140.3,"NAN",0.05,0,0,0,98.1,0,0.001,17.57,1.002,1.079,1
"2015-09-14 14:41:25",202,12.94,14.75,105,26.47,30.61,"$GPRMC,194121,A,6450.1134,N,14742.5494,W,032.3,111.9,140915,019.4,E","$GPGGA,194121,6450.1134,N,14742.5494,W,2,10,0.9,140.2,M,7.9,M,,",64,50.11,-147,-42.55,32.3,111.9,19.4,2,10,140.2,"NAN",0.06,0,0,0,98.1,0,0.001,17.56,1.003,1.079,1
"2015-09-14 14:41:30",203,12.94,14.75,105.3,26.47,30.68,"$GPRMC,194126,A,6450.0988,N,14742.4690,W,019.8,114.2,140915,019.4,E","$GPGGA,194126,6450.0988,N,14742.4690,W,2,10,0.9,140.7,M,7.9,M,,",64,50.1,-147,-42.47,19.8,114.2,19.4,2,10,140.7,"NAN",0.05,0,0,0,98.1,0,0.001,17.57,1.002,1.079,1
"2015-09-14 14:41:35",204,12.94,14.78,104.3,26.47,30.71,"$GPRMC,194131,A,6450.0921,N,14742.4380,W,005.0,115.9,140915,019.4,E","$GPGGA,194131,6450.0921,N,14742.4380,W,2,10,0.9,140.5,M,7.9,M,,",64,50.09,-147,-42.44,5,115.9,19.4,2,10,140.5,"NAN",0.08,0,0,0,98.1,0,0.001,17.59,1,1.079,1
"2015-09-14 14:41:40",205,12.94,14.78,104.3,26.44,30.91,"$GPRMC,194136,A,6450.0915,N,14742.4358,W,000.0,115.9,140915,019.4,E","$GPGGA,194136,6450.0915,N,14742.4358,W,2,10,0.8,140.4,M,7.9,M,,",64,50.09,-147,-42.44,0,115.9,19.4,2,10,140.4,"NAN",0.09,0,0,0,98.1,0,0.001,17.59,1.002,1.079,1
"2015-09-14 14:41:45",206,12.94,14.78,104.3,26.37,31.01,"$GPRMC,194141,A,6450.0915,N,14742.4358,W,000.0,115.9,140915,019.4,E","$GPGGA,194141,6450.0915,N,14742.4358,W,2,10,0.8,140.4,M,7.9,M,,",64,50.09,-147,-42.44,0,115.9,19.4,2,10,140.4,"NAN",0.1,0,0,0,98.1,0,0.001,17.59,1.003,1.079,1
"2015-09-14 14:41:50",207,12.94,14.78,104,26.41,31.08,"$GPRMC,194146,A,6450.0914,N,14742.4357,W,000.0,115.9,140915,019.4,E","$GPGGA,194146,6450.0914,N,14742.4357,W,2,10,0.8,140.3,M,7.9,M,,",64,50.09,-147,-42.44,0,115.9,19.4,2,10,140.3,"NAN",0.09,0,0,0,98.1,0,0.001,17.62,1.001,1.079,1
