"TOA5","CR800Series","CR800","35658","CR800.Std.28","CPU:Ultralytics1.CR8","18129","Five_Sec"
"TIMESTAMP","RECORD","BattV","PTemp_C","SlrW","AirTC","RH","NMEASent(1)","NMEASent(2)","Latitude_A","Latitude_B","Longitude_A","Longitude_B","Speed","Course","MagVar","FixQual","NumSats","Altitude","PPS","SecSinceGPRMC","GPSReady","MaxClockChange","NumClockChange","BP_kPa","VWC","EC","T","P","PA","VR"
"TS","RN","Volts","Deg C","W/m^2","Deg C","%","","","degrees","minutes","degrees","minutes","knots","degrees","degrees","code","count","meters","microseconds","seconds","count","milliseconds","count","kPa","m^3/m^3","dS/m","Deg C","unitless","nSec","unitless"
"","","Smp","Smp","Smp","Smp","Smp","Smp","Smp","Smp","Smp","Smp","Smp","Smp","Smp","Smp","Smp","Smp","Smp","Smp","Smp","Smp","Smp","Smp","Smp","Smp","Smp","Smp","Smp","Smp","Smp"
"2015-09-15 14:14:55",0,13.09,12.28,54.69,7.002,87.4,"$GPRMC,191451,A,6451.5931,N,14751.0005,W,000.0,000.0,150915,019.4,E","$GPGGA,191451,6451.5931,N,14751.0005,W,1,06,1.3,212.2,M,7.9,M,,",64,51.59,-147,-51,0,0,19.4,1,6,212.2,"NAN",0.03,0,0,0,97.9,0,0.001,6.124,1.018,1.081,1
"2015-09-15 14:15:00",1,13.08,12.28,54.69,7.036,87.4,"$GPRMC,191456,A,6451.5936,N,14751.0021,W,000.0,000.0,150915,019.4,E","$GPGGA,191456,6451.5936,N,14751.0021,W,1,05,1.5,212.0,M,7.9,M,,",64,51.59,-147,-51,0,0,19.4,1,5,212,"NAN",0.03,0,0,0,97.9,0,0.001,6.115,1.021,1.081,1
"2015-09-15 14:15:05",2,13.08,12.28,54.36,7.002,87.3,"$GPRMC,191501,A,6451.5949,N,14751.0027,W,000.0,000.0,150915,019.4,E","$GPGGA,191501,6451.5949,N,14751.0027,W,1,05,1.5,214.4,M,7.9,M,,",64,51.59,-147,-51,0,0,19.4,1,5,214.4,"NAN",0.04,0,0,0,97.9,0,0.001,6.085,1.02,1.081,1
"2015-09-15 14:15:10",3,13.08,12.26,54.36,7.036,87.3,"$GPRMC,191506,A,6451.5970,N,14751.0033,W,000.0,000.0,150915,019.4,E","$GPGGA,191506,6451.5970,N,14751.0033,W,1,05,1.5,218.6,M,7.9,M,,",64,51.6,-147,-51,0,0,19.4,1,5,218.6,"NAN",0.03,0,0,0,97.9,0,0.001,6.15,1.019,1.081,1
"2015-09-15 14:15:15",4,13.08,12.26,54.02,7.002,87.3,"$GPRMC,191511,A,6451.5972,N,14751.0032,W,000.0,000.0,150915,019.4,E","$GPGGA,191511,6451.5972,N,14751.0032,W,1,06,1.3,219.8,M,7.9,M,,",64,51.6,-147,-51,0,0,19.4,1,6,219.8,"NAN",0.02,0,0,0,97.8,0,0.001,6.147,1.02,1.081,1
"2015-09-15 14:15:20",5,13.08,12.26,53.68,7.002,87.3,"$GPRMC,191516,A,6451.5970,N,14751.0019,W,000.0,000.0,150915,019.4,E","$GPGGA,191516,6451.5970,N,14751.0019,W,1,05,1.5,220.6,M,7.9,M,,",64,51.6,-147,-51,0,0,19.4,1,5,220.6,"NAN",0.03,0,0,0,97.9,0,0.001,6.124,1.02,1.081,1
"2015-09-15 14:15:25",6,13.07,12.23,53.34,7.036,87.4,"$GPRMC,191521,A,6451.5962,N,14750.9999,W,000.0,000.0,150915,019.4,E","$GPGGA,191521,6451.5962,N,14750.9999,W,1,05,1.5,221.1,M,7.9,M,,",64,51.6,-147,-51,0,0,19.4,1,5,221.1,"NAN",0.03,0,0,0,97.9,0,0.001,6.174,1.021,1.081,1
"2015-09-15 14:15:30",7,13.07,12.23,53,7.036,87.4,"$GPRMC,191526,A,6451.5958,N,14750.9996,W,000.7,308.8,150915,019.4,E","$GPGGA,191526,6451.5958,N,14750.9996,W,1,06,1.3,223.4,M,7.9,M,,",64,51.6,-147,-51,0.7,308.8,19.4,1,5,222.8,"NAN",0,0,0,0,97.9,0,0.001,6.165,1.02,1.081,1
"2015-09-15 14:15:35",8,13.07,12.21,52.33,7.036,87.4,"$GPRMC,191531,A,6451.5956,N,14750.9976,W,000.0,308.4,150915,019.4,E","$GPGGA,191531,6451.5956,N,14750.9976,W,1,05,1.5,225.8,M,7.9,M,,",64,51.6,-147,-51,0,308.4,19.4,1,5,225.8,"NAN",0.03,0,0,0,97.8,0,0.001,6.18,1.018,1.081,1
"2015-09-15 14:15:40",9,13.07,12.21,51.99,7.002,87.4,"$GPRMC,191536,A,6451.5953,N,14750.9964,W,001.0,313.0,150915,019.4,E","$GPGGA,191536,6451.5953,N,14750.9964,W,1,05,1.5,225.8,M,7.9,M,,",64,51.6,-147,-51,1,313,19.4,1,5,225.8,"NAN",0.03,0,0,0,97.9,0,0.001,6.174,1.019,1.081,1
"2015-09-15 14:15:45",10,13.07,12.19,51.65,7.002,87.5,"$GPRMC,191541,A,6451.5950,N,14750.9968,W,001.1,319.5,150915,019.4,E","$GPGGA,191541,6451.5950,N,14750.9968,W,1,05,1.5,224.5,M,7.9,M,,",64,51.6,-147,-51,1.1,319.5,19.4,1,5,224.5,"NAN",0.04,0,0,0,97.8,0,0.001,6.171,1.017,1.081,1
"2015-09-15 14:15:50",11,13.07,12.19,50.98,7.002,87.5,"$GPRMC,191546,A,6451.5942,N,14750.9962,W,000.0,319.3,150915,019.4,E","$GPGGA,191546,6451.5942,N,14750.9962,W,1,05,1.5,222.5,M,7.9,M,,",64,51.59,-147,-51,0,319.3,19.4,1,5,222.5,"NAN",0.03,0,0,0,97.8,0,0.001,6.201,1.02,1.081,1
"2015-09-15 14:15:55",12,13.06,12.19,50.64,7.003,87.6,"$GPRMC,191551,A,6451.5939,N,14750.9959,W,000.0,319.3,150915,019.4,E","$GPGGA,191551,6451.5939,N,14750.9959,W,1,05,1.5,222.5,M,7.9,M,,",64,51.59,-147,-51,0,319.3,19.4,1,5,222.5,"NAN",0.03,0,0,0,97.9,0,0.001,6.177,1.019,1.081,1
"2015-09-15 14:16:00",13,13.05,12.16,50.3,6.969,87.6,"$GPRMC,191556,A,6451.5942,N,14750.9961,W,000.0,314.4,150915,019.4,E","$GPGGA,191556,6451.5942,N,14750.9961,W,1,07,1.1,223.2,M,7.9,M,,",64,51.59,-147,-51,0.9,314.4,19.4,1,6,222.9,"NAN",1.03,0,0,0,97.9,0,0.001,6.192,1.019,1.081,1
"2015-09-15 14:16:05",14,13.05,12.16,49.97,6.969,87.7,"$GPRMC,191601,A,6451.5942,N,14750.9966,W,000.0,314.4,150915,019.4,E","$GPGGA,191601,6451.5942,N,14750.9966,W,1,06,1.1,224.2,M,7.9,M,,",64,51.59,-147,-51,0,314.4,19.4,1,6,224.2,"NAN",0.01,0,0,0,97.9,0,0.001,6.195,1.019,1.081,1
"2015-09-15 14:16:10",15,13.05,12.14,49.97,7.003,87.7,"$GPRMC,191606,A,6451.5946,N,14750.9965,W,000.0,331.1,150915,019.4,E","$GPGGA,191606,6451.5946,N,14750.9965,W,1,07,1.1,225.6,M,7.9,M,,",64,51.59,-147,-51,0,331.1,19.4,1,7,225.3,"NAN",1.01,0,0,0,97.9,0,0.001,6.183,1.019,1.081,1
"2015-09-15 14:16:15",16,13.05,12.14,49.63,7.037,87.8,"$GPRMC,191611,A,6451.5943,N,14750.9962,W,000.0,298.8,150915,019.4,E","$GPGGA,191611,6451.5943,N,14750.9962,W,1,06,1.1,226.1,M,7.9,M,,",64,51.59,-147,-51,0,298.8,19.4,1,6,226.1,"NAN",0.02,0,0,0,97.8,0,0,6.198,1.021,1.081,1
"2015-09-15 14:16:20",17,13.05,12.14,49.29,7.003,87.9,"$GPRMC,191616,A,6451.5940,N,14750.9956,W,000.0,298.8,150915,019.4,E","$GPGGA,191616,6451.5940,N,14750.9956,W,1,07,1.1,226.1,M,7.9,M,,",64,51.59,-147,-51,0,298.8,19.4,1,7,226.2,"NAN",0,0,0,0,97.8,0,0.001,6.216,1.018,1.081,1
"2015-09-15 14:16:25",18,13.05,12.12,49.29,7.003,88,"$GPRMC,191621,A,6451.5937,N,14750.9944,W,000.0,298.8,150915,019.4,E","$GPGGA,191621,6451.5937,N,14750.9944,W,1,06,1.1,225.9,M,7.9,M,,",64,51.59,-147,-50.99,0,298.8,19.4,1,7,225.9,"NAN",0,0,0,0,97.9,0,0.001,6.198,1.019,1.081,1
"2015-09-15 14:16:30",19,13.05,12.12,48.95,7.003,88.1,"$GPRMC,191626,A,6451.5935,N,14750.9938,W,000.0,298.8,150915,019.4,E","$GPGGA,191626,6451.5935,N,14750.9938,W,1,07,1.1,225.7,M,7.9,M,,",64,51.59,-147,-50.99,0,298.8,19.4,1,7,225.7,"NAN",0.02,0,0,0,97.8,0,0.001,6.225,1.019,1.081,1
"2015-09-15 14:16:35",20,13.05,12.09,48.95,7.037,88.1,"$GPRMC,191631,A,6451.5933,N,14750.9922,W,000.0,298.8,150915,019.4,E","$GPGGA,191631,6451.5933,N,14750.9922,W,1,06,1.1,224.8,M,7.9,M,,",64,51.59,-147,-50.99,0,298.8,19.4,1,6,224.8,"NAN",0.02,0,0,0,97.9,0,0,6.216,1.023,1.081,1
"2015-09-15 14:16:40",21,13.05,12.09,48.95,7.037,88.2,"$GPRMC,191636,A,6451.5933,N,14750.9925,W,001.0,316.4,150915,019.4,E","$GPGGA,191636,6451.5933,N,14750.9925,W,1,06,1.1,224.8,M,7.9,M,,",64,51.59,-147,-50.99,1,316.4,19.4,1,6,224.8,"NAN",0.02,0,0,0,97.9,0,0,6.243,1.022,1.081,1
"2015-09-15 14:16:45",22,13.05,12.09,48.95,7.037,88.2,"$GPRMC,191641,A,6451.5940,N,14750.9920,W,000.9,313.8,150915,019.4,E","$GPGGA,191641,6451.5940,N,14750.9920,W,1,06,1.1,224.4,M,7.9,M,,",64,51.59,-147,-50.99,0.9,313.8,19.4,1,6,224.4,"NAN",0.03,0,0,0,97.8,0,0.001,6.24,1.018,1.081,1
"2015-09-15 14:16:50",23,13.05,12.07,48.95,7.037,88.3,"$GPRMC,191646,A,6451.5950,N,14750.9919,W,001.1,313.1,150915,019.4,E","$GPGGA,191646,6451.5950,N,14750.9919,W,1,06,1.1,224.8,M,7.9,M,,",64,51.6,-147,-50.99,1.1,313.1,19.4,1,6,224.7,"NAN",0.01,0,0,0,97.9,0,0,6.246,1.021,1.081,1
"2015-09-15 14:16:55",24,13.05,12.07,48.95,7.003,88.3,"$GPRMC,191651,A,6451.5958,N,14750.9918,W,001.0,315.0,150915,019.4,E","$GPGGA,191651,6451.5958,N,14750.9918,W,1,06,1.1,224.9,M,7.9,M,,",64,51.6,-147,-50.99,1,315,19.4,1,6,224.9,"NAN",0.03,0,0,0,97.9,0,0.001,6.237,1.102,1.086,1.001
"2015-09-15 14:17:00",25,13.05,12.05,48.95,7.037,88.4,"$GPRMC,191656,A,6451.5959,N,14750.9912,W,000.0,317.2,150915,019.4,E","$GPGGA,191656,6451.5959,N,14750.9912,W,1,07,1.1,224.0,M,7.9,M,,",64,51.6,-147,-50.99,0,317.2,19.4,1,7,224,"NAN",0.01,0,0,0,97.9,0,0,6.27,1.11,1.086,1
"2015-09-15 14:17:05",26,13.05,12.05,48.95,7.037,88.4,"$GPRMC,191701,A,6451.5962,N,14750.9917,W,001.4,312.8,150915,019.4,E","$GPGGA,191701,6451.5962,N,14750.9917,W,1,08,1.0,223.7,M,7.9,M,,",64,51.6,-147,-50.99,1.4,315.8,19.4,1,7,223.7,"NAN",1.03,0,0,0,97.9,0,0.001,6.3,1.09,1.085,1
"2015-09-15 14:17:10",27,13.05,12.05,48.95,7.105,88.5,"$GPRMC,191706,A,6451.5957,N,14750.9908,W,000.0,316.8,150915,019.4,E","$GPGGA,191706,6451.5957,N,14750.9908,W,1,06,1.1,223.8,M,7.9,M,,",64,51.6,-147,-50.99,0,316.8,19.4,1,6,223.8,"NAN",0.03,0,0,0,97.8,0,0.001,6.267,1.104,1.086,1
"2015-09-15 14:17:15",28,13.05,12.02,48.95,7.139,88.6,"$GPRMC,191711,A,6451.5955,N,14750.9901,W,000.0,316.8,150915,019.4,E","$GPGGA,191711,6451.5955,N,14750.9901,W,1,08,1.0,223.8,M,7.9,M,,",64,51.6,-147,-50.99,0,316.8,19.4,1,8,223.8,"NAN",0,0,0,0,97.8,0,0.001,6.291,1.102,1.086,1.001
"2015-09-15 14:17:20",29,13.05,12.02,49.29,7.139,88.8,"$GPRMC,191716,A,6451.5952,N,14750.9890,W,000.0,317.0,150915,019.4,E","$GPGGA,191716,6451.5952,N,14750.9890,W,1,07,1.3,223.5,M,7.9,M,,",64,51.6,-147,-50.99,0,317,19.4,1,8,223.5,"NAN",0,0,0,0,97.9,0,0.001,6.255,1.107,1.086,1
"2015-09-15 14:17:25",30,13.05,12,49.29,7.207,88.8,"$GPRMC,191721,A,6451.5954,N,14750.9890,W,000.0,317.0,150915,019.4,E","$GPGGA,191721,6451.5954,N,14750.9890,W,1,08,1.3,223.6,M,7.9,M,,",64,51.6,-147,-50.99,0,317,19.4,1,8,223.6,"NAN",0,0,0,0,97.9,0,0,6.303,1.111,1.086,1
"2015-09-15 14:17:30",31,13.05,12,49.29,7.207,88.8,"$GPRMC,191726,A,6451.5966,N,14750.9905,W,000.0,326.7,150915,019.4,E","$GPGGA,191726,6451.5966,N,14750.9905,W,1,08,1.0,224.6,M,7.9,M,,",64,51.6,-147,-50.99,0,326.7,19.4,1,8,224.3,"NAN",0.01,0,0,0,97.8,0,0.001,6.285,1.106,1.086,1
"2015-09-15 14:17:35",32,13.04,12,49.29,7.207,88.8,"$GPRMC,191731,A,6451.5982,N,14750.9921,W,000.0,317.7,150915,019.4,E","$GPGGA,191731,6451.5982,N,14750.9921,W,1,08,1.3,226.1,M,7.9,M,,",64,51.6,-147,-50.99,0,317.7,19.4,1,8,225.8,"NAN",0.01,0,0,0,97.9,0,0.001,6.306,1.103,1.086,1.001
"2015-09-15 14:17:40",33,13.05,12,49.63,7.173,88.7,"$GPRMC,191736,A,6451.5997,N,14750.9934,W,000.7,328.7,150915,019.4,E","$GPGGA,191736,6451.5997,N,14750.9934,W,1,08,1.3,227.7,M,7.9,M,,",64,51.6,-147,-50.99,0.9,326.2,19.4,1,7,227.4,"NAN",1.03,0,0,0,97.9,0,0.001,6.333,1.108,1.086,1
"2015-09-15 14:17:45",34,13.04,11.98,49.63,7.207,88.7,"$GPRMC,191741,A,6451.6000,N,14750.9940,W,000.0,328.7,150915,019.4,E","$GPGGA,191741,6451.6000,N,14750.9940,W,1,08,1.3,228.2,M,7.9,M,,",64,51.6,-147,-50.99,0,328.7,19.4,1,8,228.2,"NAN",1.01,0,0,0,97.9,0,0.001,6.336,1.104,1.086,1
"2015-09-15 14:17:50",35,13.04,11.98,49.63,7.173,88.6,"$GPRMC,191746,A,6451.6000,N,14750.9939,W,000.8,324.3,150915,019.4,E","$GPGGA,191746,6451.6000,N,14750.9939,W,1,08,1.3,228.1,M,7.9,M,,",64,51.6,-147,-50.99,0.8,324.3,19.4,1,8,228.2,"NAN",0.01,0,0,0,97.9,0,0.001,6.342,1.106,1.086,1
"2015-09-15 14:17:55",36,13.04,11.98,49.63,7.241,88.6,"$GPRMC,191751,A,6451.5999,N,14750.9935,W,000.0,324.3,150915,019.4,E","$GPGGA,191751,6451.5999,N,14750.9935,W,1,08,1.3,227.7,M,7.9,M,,",64,51.6,-147,-50.99,0,324.3,19.4,1,8,227.7,"NAN",0.01,0,0,0,97.9,0,0,6.366,1.11,1.086,1
"2015-09-15 14:18:00",37,13.04,11.96,49.97,7.241,88.5,"$GPRMC,191756,A,6451.5997,N,14750.9934,W,000.0,324.3,150915,019.4,E","$GPGGA,191756,6451.5997,N,14750.9934,W,1,08,1.3,226.1,M,7.9,M,,",64,51.6,-147,-50.99,0,324.3,19.4,1,8,226.5,"NAN",0,0,0,0,97.8,0,0.001,6.339,1.103,1.086,1
"2015-09-15 14:18:05",38,13.04,11.96,49.97,7.207,88.5,"$GPRMC,191801,A,6451.5983,N,14750.9907,W,000.0,324.3,150915,019.4,E","$GPGGA,191801,6451.5983,N,14750.9907,W,1,08,1.3,224.6,M,7.9,M,,",64,51.6,-147,-50.99,0,324.3,19.4,1,8,224.8,"NAN",1.01,0,0,0,97.9,0,0,6.327,1.109,1.086,1
"2015-09-15 14:18:10",39,13.04,11.96,49.97,7.241,88.4,"$GPRMC,191806,A,6451.5977,N,14750.9902,W,000.0,324.3,150915,019.4,E","$GPGGA,191806,6451.5977,N,14750.9902,W,1,08,1.3,223.3,M,7.9,M,,",64,51.6,-147,-50.99,0,324.3,19.4,1,8,223.6,"NAN",0,0,0,0,97.8,0,0,6.333,1.109,1.086,1
"2015-09-15 14:18:15",40,13.04,11.96,50.3,7.241,88.4,"$GPRMC,191811,A,6451.5971,N,14750.9890,W,000.0,324.3,150915,019.4,E","$GPGGA,191811,6451.5971,N,14750.9890,W,1,07,2.0,222.2,M,7.9,M,,",64,51.6,-147,-50.99,0,324.3,19.4,1,7,222.3,"NAN",0.01,0,0,0,97.8,0,0,6.345,1.109,1.086,1
"2015-09-15 14:18:20",41,13.04,11.96,50.3,7.275,88.5,"$GPRMC,191816,A,6451.5972,N,14750.9875,W,000.7,334.1,150915,019.4,E","$GPGGA,191816,6451.5972,N,14750.9875,W,1,08,1.3,221.9,M,7.9,M,,",64,51.6,-147,-50.99,0.7,334.1,19.4,1,8,221.9,"NAN",0,0,0,0,97.9,0,0.001,6.377,1.104,1.086,1
"2015-09-15 14:18:25",42,13.04,11.93,50.3,7.241,88.5,"$GPRMC,191821,A,6451.5964,N,14750.9846,W,000.9,139.9,150915,019.4,E","$GPGGA,191821,6451.5964,N,14750.9846,W,1,08,1.0,221.9,M,7.9,M,,",64,51.6,-147,-50.98,0.9,139.9,19.4,1,8,221.9,"NAN",0.01,0,0,0,97.8,0,0.001,6.392,1.105,1.086,1
"2015-09-15 14:18:30",43,13.04,11.93,50.3,7.241,88.4,"$GPRMC,191826,A,6451.5964,N,14750.9840,W,000.0,322.0,150915,019.4,E","$GPGGA,191826,6451.5964,N,14750.9840,W,1,08,1.0,221.7,M,7.9,M,,",64,51.6,-147,-50.98,0.6,322,19.4,1,8,221.8,"NAN",1.04,0,0,0,97.9,0,0,6.395,1.109,1.086,1
"2015-09-15 14:18:35",44,13.04,11.93,50.3,7.241,88.4,"$GPRMC,191831,A,6451.5963,N,14750.9832,W,000.0,322.0,150915,019.4,E","$GPGGA,191831,6451.5963,N,14750.9832,W,1,08,1.3,221.1,M,7.9,M,,",64,51.6,-147,-50.98,0,322,19.4,1,8,221.2,"NAN",1.01,0,0,0,97.9,0,0.001,6.386,1.107,1.086,1
"2015-09-15 14:18:40",45,13.04,11.91,50.64,7.309,88.3,"$GPRMC,191836,A,6451.5963,N,14750.9827,W,000.0,322.0,150915,019.4,E","$GPGGA,191836,6451.5963,N,14750.9827,W,1,08,1.3,220.7,M,7.9,M,,",64,51.6,-147,-50.98,0,322,19.4,1,7,220.8,"NAN",1.02,0,0,0,97.8,0,0.001,6.392,1.107,1.086,1
"2015-09-15 14:18:45",46,13.04,11.91,50.64,7.241,88.2,"$GPRMC,191841,A,6451.5962,N,14750.9834,W,000.0,322.0,150915,019.4,E","$GPGGA,191841,6451.5962,N,14750.9834,W,1,08,1.0,220.0,M,7.9,M,,",64,51.6,-147,-50.98,0,322,19.4,1,8,220.2,"NAN",0.99,0,0,0,97.9,0,0.001,6.404,1.102,1.086,1.001
"2015-09-15 14:18:50",47,13.04,11.91,50.64,7.275,88.2,"$GPRMC,191846,A,6451.5965,N,14750.9862,W,000.7,310.2,150915,019.4,E","$GPGGA,191846,6451.5965,N,14750.9862,W,1,08,1.3,219.8,M,7.9,M,,",64,51.6,-147,-50.99,0.8,310.8,19.4,1,8,219.9,"NAN",1.02,0,0,0,97.9,0,0.001,6.413,1.107,1.086,1
"2015-09-15 14:18:55",48,13.03,11.91,50.64,7.309,88.1,"$GPRMC,191851,A,6451.5964,N,14750.9871,W,000.0,310.2,150915,019.4,E","$GPGGA,191851,6451.5964,N,14750.9871,W,1,08,1.3,219.1,M,7.9,M,,",64,51.6,-147,-50.99,0,310.2,19.4,1,8,219.2,"NAN",1.01,0,0,0,97.9,0,0,6.404,1.109,1.086,1
"2015-09-15 14:19:00",49,13.03,11.91,50.3,7.309,88,"$GPRMC,191856,A,6451.5959,N,14750.9870,W,000.0,310.2,150915,019.4,E","$GPGGA,191856,6451.5959,N,14750.9870,W,1,08,1.3,218.6,M,7.9,M,,",64,51.6,-147,-50.99,0,310.2,19.4,1,8,218.7,"NAN",0.01,0,0,0,97.9,0,0.001,6.41,1.106,1.086,1
"2015-09-15 14:19:05",50,13.03,11.89,50.3,7.275,88,"$GPRMC,191901,A,6451.5960,N,14750.9878,W,000.0,310.2,150915,019.4,E","$GPGGA,191901,6451.5960,N,14750.9878,W,1,08,1.3,218.2,M,7.9,M,,",64,51.6,-147,-50.99,0,310.2,19.4,1,7,218.4,"NAN",1.03,0,0,0,97.9,0,0,6.425,1.112,1.086,1
"2015-09-15 14:19:10",51,13.03,11.89,50.3,7.309,87.9,"$GPRMC,191906,A,6451.5972,N,14750.9907,W,000.0,317.5,150915,019.4,E","$GPGGA,191906,6451.5972,N,14750.9907,W,1,08,1.3,217.4,M,7.9,M,,",64,51.6,-147,-50.99,0,317.5,19.4,1,8,217.6,"NAN",0.01,0,0,0,97.8,0,0,6.443,1.111,1.086,1
"2015-09-15 14:19:15",52,13.03,11.89,49.97,7.241,87.8,"$GPRMC,191911,A,6451.5969,N,14750.9894,W,000.0,317.5,150915,019.4,E","$GPGGA,191911,6451.5969,N,14750.9894,W,1,07,1.3,216.7,M,7.9,M,,",64,51.6,-147,-50.99,0,317.5,19.4,1,8,216.8,"NAN",0.01,0,0,0,97.9,0,0.001,6.422,1.106,1.086,1
"2015-09-15 14:19:20",53,13.03,11.89,49.97,7.309,87.6,"$GPRMC,191916,A,6451.5969,N,14750.9891,W,000.0,317.5,150915,019.4,E","$GPGGA,191916,6451.5969,N,14750.9891,W,1,07,1.0,216.5,M,7.9,M,,",64,51.6,-147,-50.99,0,317.5,19.4,1,7,216.6,"NAN",0,0,0,0,97.8,0,0,6.437,1.111,1.086,1
"2015-09-15 14:19:25",54,13.03,11.86,49.63,7.275,87.6,"$GPRMC,191921,A,6451.5971,N,14750.9895,W,000.0,317.5,150915,019.4,E","$GPGGA,191921,6451.5971,N,14750.9895,W,1,07,1.0,216.5,M,7.9,M,,",64,51.6,-147,-50.99,0,317.5,19.4,1,7,216.5,"NAN",0.03,0,0,0,97.9,0,0.001,6.446,1.105,1.086,1
"2015-09-15 14:19:30",55,13.03,11.86,49.63,7.241,87.4,"$GPRMC,191926,A,6451.5971,N,14750.9895,W,000.0,317.5,150915,019.4,E","$GPGGA,191926,6451.5971,N,14750.9895,W,1,07,1.0,216.5,M,7.9,M,,",64,51.6,-147,-50.99,0,317.5,19.4,1,7,216.5,"NAN",0.01,0,0,0,97.9,0,0,6.467,1.11,1.086,1
"2015-09-15 14:19:35",56,13.03,11.86,49.29,7.309,87.4,"$GPRMC,191931,A,6451.5975,N,14750.9907,W,000.0,323.3,150915,019.4,E","$GPGGA,191931,6451.5975,N,14750.9907,W,1,07,1.0,216.5,M,7.9,M,,",64,51.6,-147,-50.99,0,323.3,19.4,1,7,216.4,"NAN",0,0,0,0,97.8,0,0.001,6.458,1.107,1.086,1
"2015-09-15 14:19:40",57,13.03,11.86,48.95,7.241,87.4,"$GPRMC,191936,A,6451.5980,N,14750.9917,W,000.0,323.3,150915,019.4,E","$GPGGA,191936,6451.5980,N,14750.9917,W,1,07,1.0,216.3,M,7.9,M,,",64,51.6,-147,-50.99,0,323.3,19.4,1,7,216.3,"NAN",0.01,0,0,0,97.9,0,0.001,6.464,1.106,1.086,1
"2015-09-15 14:19:45",58,13.03,11.86,48.95,7.275,87.5,"$GPRMC,191941,A,6451.5988,N,14750.9930,W,000.0,323.3,150915,019.4,E","$GPGGA,191941,6451.5988,N,14750.9930,W,1,07,1.3,216.6,M,7.9,M,,",64,51.6,-147,-50.99,0,323.3,19.4,1,7,216.5,"NAN",1.02,0,0,0,97.9,0,0.001,6.437,1.101,1.086,1.001
"2015-09-15 14:19:50",59,13.03,11.86,48.62,7.241,87.4,"$GPRMC,191946,A,6451.5997,N,14750.9941,W,000.0,323.3,150915,019.4,E","$GPGGA,191946,6451.5997,N,14750.9941,W,1,07,1.3,217.0,M,7.9,M,,",64,51.6,-147,-50.99,0,323.3,19.4,1,7,216.9,"NAN",0,0,0,0,97.8,0,0.001,6.458,1.107,1.086,1
"2015-09-15 14:19:55",60,13.03,11.84,48.28,7.241,87.3,"$GPRMC,191951,A,6451.5997,N,14750.9940,W,000.0,323.3,150915,019.4,E","$GPGGA,191951,6451.5997,N,14750.9940,W,1,07,1.0,217.0,M,7.9,M,,",64,51.6,-147,-50.99,0,323.3,19.4,1,7,217,"NAN",0,0,0,0,97.9,0,0.001,6.464,1.108,1.086,1
"2015-09-15 14:20:00",61,13.03,11.84,47.94,7.241,87.4,"$GPRMC,191956,A,6451.5997,N,14750.9936,W,000.0,323.3,150915,019.4,E","$GPGGA,191956,6451.5997,N,14750.9936,W,1,07,1.0,216.8,M,7.9,M,,",64,51.6,-147,-50.99,0,323.3,19.4,1,7,216.8,"NAN",0.03,0,0,0,97.9,0,0.001,6.455,1.105,1.086,1
"2015-09-15 14:20:05",62,13.03,11.84,47.94,7.241,87.3,"$GPRMC,192001,A,6451.5999,N,14750.9938,W,000.0,323.3,150915,019.4,E","$GPGGA,192001,6451.5999,N,14750.9938,W,1,07,1.3,217.0,M,7.9,M,,",64,51.6,-147,-50.99,0,323.3,19.4,1,7,217,"NAN",0.02,0,0,0,97.8,0,0.001,6.464,1.107,1.086,1
"2015-09-15 14:20:10",63,13.03,11.82,47.6,7.241,87.3,"$GPRMC,192006,A,6451.5998,N,14750.9934,W,000.0,323.3,150915,019.4,E","$GPGGA,192006,6451.5998,N,14750.9934,W,1,07,1.0,217.1,M,7.9,M,,",64,51.6,-147,-50.99,0,323.3,19.4,1,7,217.1,"NAN",0.04,0,0,0,97.9,0,0.001,6.443,1.106,1.086,1
"2015-09-15 14:20:15",64,13.03,11.82,47.26,7.275,87.2,"$GPRMC,192011,A,6451.5996,N,14750.9925,W,000.0,323.3,150915,019.4,E","$GPGGA,192011,6451.5996,N,14750.9925,W,1,07,1.3,217.1,M,7.9,M,,",64,51.6,-147,-50.99,0,323.3,19.4,1,7,217.1,"NAN",1.02,0,0,0,97.8,0,0,6.482,1.111,1.086,1
"2015-09-15 14:20:20",65,13.02,11.82,47.26,7.275,87.1,"$GPRMC,192016,A,6451.5991,N,14750.9916,W,000.0,323.3,150915,019.4,E","$GPGGA,192016,6451.5991,N,14750.9916,W,1,07,1.0,217.3,M,7.9,M,,",64,51.6,-147,-50.99,0,323.3,19.4,1,7,217.2,"NAN",1.03,0,0,0,97.8,0,0.001,6.464,1.102,1.086,1.001
"2015-09-15 14:20:25",66,13.02,11.82,46.93,7.241,87,"$GPRMC,192021,A,6451.5991,N,14750.9916,W,000.0,323.3,150915,019.4,E","$GPGGA,192021,6451.5991,N,14750.9916,W,1,07,1.3,217.3,M,7.9,M,,",64,51.6,-147,-50.99,0,323.3,19.4,1,7,217.3,"NAN",0.01,0,0,0,97.9,0,0,6.467,1.109,1.086,1
"2015-09-15 14:20:30",67,13.02,11.82,46.59,7.241,86.9,"$GPRMC,192026,A,6451.5991,N,14750.9916,W,000.0,323.3,150915,019.4,E","$GPGGA,192026,6451.5991,N,14750.9916,W,1,07,1.3,217.3,M,7.9,M,,",64,51.6,-147,-50.99,0,323.3,19.4,1,7,217.3,"NAN",0.02,0,0,0,97.8,0,0.001,6.485,1.107,1.086,1
"2015-09-15 14:20:35",68,13.02,11.82,46.59,7.241,86.8,"$GPRMC,192031,A,6451.5991,N,14750.9916,W,000.0,323.3,150915,019.4,E","$GPGGA,192031,6451.5991,N,14750.9916,W,1,08,1.3,217.3,M,7.9,M,,",64,51.6,-147,-50.99,0,323.3,19.4,1,8,217.3,"NAN",1.03,0,0,0,97.8,0,0.001,6.488,1.108,1.086,1
"2015-09-15 14:20:40",69,13.02,11.82,46.25,7.241,86.9,"$GPRMC,192036,A,6451.5991,N,14750.9918,W,000.0,323.3,150915,019.4,E","$GPGGA,192036,6451.5991,N,14750.9918,W,1,07,1.3,217.6,M,7.9,M,,",64,51.6,-147,-50.99,0,323.3,19.4,1,7,217.6,"NAN",0.01,0,0,0,97.9,0,0.001,6.485,1.109,1.086,1
"2015-09-15 14:20:45",70,13.02,11.79,46.25,7.241,86.8,"$GPRMC,192041,A,6451.5989,N,14750.9919,W,000.0,323.3,150915,019.4,E","$GPGGA,192041,6451.5989,N,14750.9919,W,1,07,1.0,217.9,M,7.9,M,,",64,51.6,-147,-50.99,0,323.3,19.4,1,7,217.9,"NAN",0.02,0,0,0,97.8,0,0.001,6.497,1.107,1.086,1
"2015-09-15 14:20:50",71,13.02,11.79,45.91,7.275,86.7,"$GPRMC,192046,A,6451.5989,N,14750.9919,W,000.0,323.3,150915,019.4,E","$GPGGA,192046,6451.5989,N,14750.9919,W,1,07,1.0,217.9,M,7.9,M,,",64,51.6,-147,-50.99,0,323.3,19.4,1,7,217.9,"NAN",0.01,0,0,0,97.9,0,0,6.482,1.111,1.086,1
"2015-09-15 14:20:55",72,13.02,11.79,45.91,7.241,86.7,"$GPRMC,192051,A,6451.5989,N,14750.9919,W,000.0,323.3,150915,019.4,E","$GPGGA,192051,6451.5989,N,14750.9919,W,1,07,1.3,217.9,M,7.9,M,,",64,51.6,-147,-50.99,0,323.3,19.4,1,7,217.9,"NAN",0.02,0,0,0,97.9,0,0.001,6.509,1.106,1.086,1
"2015-09-15 14:21:00",73,13.02,11.79,45.91,7.275,86.6,"$GPRMC,192056,A,6451.5989,N,14750.9919,W,000.0,323.3,150915,019.4,E","$GPGGA,192056,6451.5989,N,14750.9919,W,1,07,1.0,217.9,M,7.9,M,,",64,51.6,-147,-50.99,0,323.3,19.4,1,7,217.9,"NAN",0.02,0,0,0,97.9,0,0.001,6.494,1.107,1.086,1
"2015-09-15 14:21:05",74,13.02,11.77,45.91,7.309,86.6,"$GPRMC,192101,A,6451.5984,N,14750.9912,W,000.0,323.3,150915,019.4,E","$GPGGA,192101,6451.5984,N,14750.9912,W,1,07,1.3,217.9,M,7.9,M,,",64,51.6,-147,-50.99,0,323.3,19.4,1,7,217.9,"NAN",0.03,0,0,0,97.9,0,0.001,6.497,1.107,1.086,1
"2015-09-15 14:21:10",75,13.02,11.77,45.58,7.309,86.7,"$GPRMC,192106,A,6451.5973,N,14750.9898,W,000.0,323.3,150915,019.4,E","$GPGGA,192106,6451.5973,N,14750.9898,W,1,07,1.0,217.8,M,7.9,M,,",64,51.6,-147,-50.99,0,323.3,19.4,1,8,217.8,"NAN",0,0,0,0,97.9,0,0,6.488,1.111,1.086,1
"2015-09-15 14:21:15",76,13.02,11.77,45.58,7.309,86.6,"$GPRMC,192111,A,6451.5963,N,14750.9880,W,000.0,323.3,150915,019.4,E","$GPGGA,192111,6451.5963,N,14750.9880,W,1,07,1.0,217.6,M,7.9,M,,",64,51.6,-147,-50.99,0,323.3,19.4,1,7,217.6,"NAN",0.01,0,0,0,97.9,0,0,6.512,1.109,1.086,1
"2015-09-15 14:21:20",77,13.01,11.77,45.58,7.309,86.6,"$GPRMC,192116,A,6451.5952,N,14750.9861,W,000.0,323.3,150915,019.4,E","$GPGGA,192116,6451.5952,N,14750.9861,W,1,07,1.0,217.4,M,7.9,M,,",64,51.6,-147,-50.99,0,323.3,19.4,1,7,217.4,"NAN",0.01,0,0,0,97.9,0,0.001,6.509,1.105,1.086,1
"2015-09-15 14:21:25",78,13,11.77,45.58,7.241,86.6,"$GPRMC,192121,A,6451.5950,N,14750.9858,W,000.0,323.3,150915,019.4,E","$GPGGA,192121,6451.5950,N,14750.9858,W,1,07,1.0,217.4,M,7.9,M,,",64,51.6,-147,-50.99,0,323.3,19.4,1,7,217.4,"NAN",0,0,0,0,97.9,0,0.001,6.562,1.106,1.086,1
"2015-09-15 14:21:30",79,13,11.77,45.58,7.275,86.7,"$GPRMC,192126,A,6451.5950,N,14750.9858,W,000.0,323.3,150915,019.4,E","$GPGGA,192126,6451.5950,N,14750.9858,W,1,07,1.3,217.4,M,7.9,M,,",64,51.6,-147,-50.99,0,323.3,19.4,1,7,217.4,"NAN",1.04,0,0,0,97.9,0,0,6.5,1.111,1.086,1
"2015-09-15 14:21:35",80,13,11.75,45.58,7.275,86.7,"$GPRMC,192131,A,6451.5950,N,14750.9857,W,000.0,323.3,150915,019.4,E","$GPGGA,192131,6451.5950,N,14750.9857,W,1,07,1.0,217.4,M,7.9,M,,",64,51.6,-147,-50.99,0,323.3,19.4,1,7,217.4,"NAN",0,0,0,0,97.9,0,0.001,6.515,1.106,1.086,1
"2015-09-15 14:21:40",81,13,11.75,45.58,7.309,86.8,"$GPRMC,192136,A,6451.5948,N,14750.9852,W,000.0,323.3,150915,019.4,E","$GPGGA,192136,6451.5948,N,14750.9852,W,1,08,1.3,217.2,M,7.9,M,,",64,51.59,-147,-50.99,0,323.3,19.4,1,8,217.2,"NAN",0.03,0,0,0,97.8,0,0.001,6.529,1.105,1.086,1
"2015-09-15 14:21:45",82,13,11.75,45.58,7.343,86.8,"$GPRMC,192141,A,6451.5946,N,14750.9848,W,000.0,323.3,150915,019.4,E","$GPGGA,192141,6451.5946,N,14750.9848,W,1,08,1.3,217.1,M,7.9,M,,",64,51.59,-147,-50.98,0,323.3,19.4,1,8,217,"NAN",1,0,0,0,97.8,0,0.001,6.529,1.105,1.086,1
"2015-09-15 14:21:50",83,13,11.75,45.58,7.241,86.9,"$GPRMC,192146,A,6451.5945,N,14750.9847,W,000.0,323.3,150915,019.4,E","$GPGGA,192146,6451.5945,N,14750.9847,W,1,08,1.3,217.0,M,7.9,M,,",64,51.59,-147,-50.98,0,323.3,19.4,1,8,217,"NAN",0.02,0,0,0,97.9,0,0,6.523,1.112,1.086,1
"2015-09-15 14:21:55",84,13,11.73,45.58,7.309,87,"$GPRMC,192151,A,6451.5943,N,14750.9845,W,000.0,323.3,150915,019.4,E","$GPGGA,192151,6451.5943,N,14750.9845,W,1,08,1.3,216.8,M,7.9,M,,",64,51.59,-147,-50.98,0,323.3,19.4,1,8,216.9,"NAN",0,0,0,0,97.9,0,0,6.532,1.109,1.086,1
"2015-09-15 14:22:00",85,13,11.73,45.58,7.309,87,"$GPRMC,192156,A,6451.5946,N,14750.9850,W,000.0,325.2,150915,019.4,E","$GPGGA,192156,6451.5946,N,14750.9850,W,1,08,1.0,217.2,M,7.9,M,,",64,51.59,-147,-50.98,0,325.2,19.4,1,8,217.1,"NAN",1.02,0,0,0,97.8,0,0.001,6.538,1.101,1.086,1.001
"2015-09-15 14:22:05",86,12.99,11.73,45.58,7.309,87.2,"$GPRMC,192201,A,6451.5948,N,14750.9852,W,000.0,325.2,150915,019.4,E","$GPGGA,192201,6451.5948,N,14750.9852,W,1,08,1.3,217.6,M,7.9,M,,",64,51.59,-147,-50.99,0,325.2,19.4,1,8,217.6,"NAN",0.01,0,0,0,97.9,0,0.001,6.535,1.104,1.086,1
"2015-09-15 14:22:10",87,12.99,11.73,45.58,7.343,87.2,"$GPRMC,192206,A,6451.5949,N,14750.9852,W,000.0,325.2,150915,019.4,E","$GPGGA,192206,6451.5949,N,14750.9852,W,1,08,1.0,217.7,M,7.9,M,,",64,51.59,-147,-50.99,0,325.2,19.4,1,8,217.7,"NAN",1.01,0,0,0,97.9,0,0.001,6.544,1.108,1.086,1
"2015-09-15 14:22:15",88,12.99,11.73,45.58,7.275,87.3,"$GPRMC,192211,A,6451.5951,N,14750.9858,W,000.0,325.2,150915,019.4,E","$GPGGA,192211,6451.5951,N,14750.9858,W,1,08,1.3,218.0,M,7.9,M,,",64,51.6,-147,-50.99,0,325.2,19.4,1,8,217.9,"NAN",1.01,0,0,0,97.9,0,0.001,6.541,1.106,1.086,1
"2015-09-15 14:22:20",89,12.99,11.73,45.24,7.309,87.4,"$GPRMC,192216,A,6451.5954,N,14750.9867,W,000.0,325.2,150915,019.4,E","$GPGGA,192216,6451.5954,N,14750.9867,W,1,08,1.3,218.2,M,7.9,M,,",64,51.6,-147,-50.99,0,325.2,19.4,1,8,218.2,"NAN",0.02,0,0,0,97.9,0,0.001,6.553,1.107,1.086,1
"2015-09-15 14:22:25",90,13,11.73,45.24,7.343,87.4,"$GPRMC,192221,A,6451.5958,N,14750.9876,W,000.0,325.2,150915,019.4,E","$GPGGA,192221,6451.5958,N,14750.9876,W,1,08,1.3,218.4,M,7.9,M,,",64,51.6,-147,-50.99,0,325.2,19.4,1,8,218.4,"NAN",0.01,0,0,0,97.9,0,0.001,6.544,1.105,1.086,1
"2015-09-15 14:22:30",91,13,11.73,45.24,7.377,87.4,"$GPRMC,192226,A,6451.5958,N,14750.9878,W,000.0,325.2,150915,019.4,E","$GPGGA,192226,6451.5958,N,14750.9878,W,1,08,1.0,218.4,M,7.9,M,,",64,51.6,-147,-50.99,0,325.2,19.4,1,8,218.4,"NAN",0,0,0,0,97.9,0,0.001,6.571,1.107,1.086,1
"2015-09-15 14:22:35",92,13,11.7,45.24,7.377,87.4,"$GPRMC,192231,A,6451.5955,N,14750.9874,W,000.0,325.2,150915,019.4,E","$GPGGA,192231,6451.5955,N,14750.9874,W,1,08,1.0,218.3,M,7.9,M,,",64,51.6,-147,-50.99,0,325.2,19.4,1,8,218.3,"NAN",0.02,0,0,0,97.9,0,0.001,6.556,1.101,1.086,1.001
"2015-09-15 14:22:40",93,13,11.7,45.24,7.343,87.4,"$GPRMC,192236,A,6451.5955,N,14750.9881,W,000.0,325.2,150915,019.4,E","$GPGGA,192236,6451.5955,N,14750.9881,W,1,08,1.0,218.0,M,7.9,M,,",64,51.6,-147,-50.99,0,325.2,19.4,1,8,218,"NAN",1.02,0,0,0,97.8,0,0.001,6.58,1.107,1.086,1
"2015-09-15 14:22:45",94,13,11.7,45.24,7.343,87.4,"$GPRMC,192241,A,6451.5960,N,14750.9894,W,000.0,325.2,150915,019.4,E","$GPGGA,192241,6451.5960,N,14750.9894,W,1,07,1.1,218.1,M,7.9,M,,",64,51.6,-147,-50.99,0,325.2,19.4,1,7,218.1,"NAN",0.02,0,0,0,97.9,0,0,6.568,1.113,1.086,0.999
"2015-09-15 14:22:50",95,13,11.7,45.24,7.377,87.5,"$GPRMC,192246,A,6451.5964,N,14750.9906,W,000.0,325.2,150915,019.4,E","$GPGGA,192246,6451.5964,N,14750.9906,W,1,08,1.2,218.0,M,7.9,M,,",64,51.6,-147,-50.99,0,325.2,19.4,1,8,218.1,"NAN",0,0,0,0,97.8,0,0.001,6.592,1.105,1.086,1
"2015-09-15 14:22:55",96,13,11.7,45.24,7.343,87.4,"$GPRMC,192251,A,6451.5960,N,14750.9912,W,000.0,325.2,150915,019.4,E","$GPGGA,192251,6451.5960,N,14750.9912,W,1,08,1.0,217.9,M,7.9,M,,",64,51.6,-147,-50.99,0,325.2,19.4,1,8,218,"NAN",0,0,0,0,97.8,0,0.001,6.55,1.106,1.086,1
"2015-09-15 14:23:00",97,13,11.68,45.58,7.377,87.4,"$GPRMC,192256,A,6451.5957,N,14750.9914,W,000.0,325.2,150915,019.4,E","$GPGGA,192256,6451.5957,N,14750.9914,W,1,07,1.3,217.7,M,7.9,M,,",64,51.6,-147,-50.99,0,325.2,19.4,1,7,217.7,"NAN",0.02,0,0,0,97.9,0,0.001,6.589,1.105,1.086,1
"2015-09-15 14:23:05",98,13,11.68,45.58,7.377,87.3,"$GPRMC,192301,A,6451.5954,N,14750.9910,W,000.0,325.2,150915,019.4,E","$GPGGA,192301,6451.5954,N,14750.9910,W,1,08,1.0,217.0,M,7.9,M,,",64,51.6,-147,-50.99,0,325.2,19.4,1,8,217,"NAN",0.02,0,0,0,97.9,0,0,6.565,1.109,1.086,1
"2015-09-15 14:23:10",99,13,11.68,45.58,7.377,87.4,"$GPRMC,192306,A,6451.5950,N,14750.9910,W,000.0,325.2,150915,019.4,E","$GPGGA,192306,6451.5950,N,14750.9910,W,1,08,1.0,216.5,M,7.9,M,,",64,51.6,-147,-50.99,0,325.2,19.4,1,8,216.5,"NAN",0.02,0,0,0,97.8,0,0.001,6.589,1.105,1.086,1
"2015-09-15 14:23:15",100,13,11.68,45.58,7.377,87.3,"$GPRMC,192311,A,6451.5949,N,14750.9911,W,000.0,325.2,150915,019.4,E","$GPGGA,192311,6451.5949,N,14750.9911,W,1,08,1.0,216.0,M,7.9,M,,",64,51.59,-147,-50.99,0,325.2,19.4,1,8,216,"NAN",0.02,0,0,0,97.9,0,0.001,6.598,1.106,1.086,1
"2015-09-15 14:23:20",101,13,11.68,45.58,7.41,87.3,"$GPRMC,192316,A,6451.5948,N,14750.9911,W,000.0,325.2,150915,019.4,E","$GPGGA,192316,6451.5948,N,14750.9911,W,1,08,1.0,215.4,M,7.9,M,,",64,51.59,-147,-50.99,0,325.2,19.4,1,8,215.5,"NAN",0,0,0,0,97.9,0,0.001,6.592,1.108,1.086,1
"2015-09-15 14:23:25",102,13,11.68,45.58,7.445,87.3,"$GPRMC,192321,A,6451.5948,N,14750.9912,W,000.0,325.2,150915,019.4,E","$GPGGA,192321,6451.5948,N,14750.9912,W,1,08,1.2,215.0,M,7.9,M,,",64,51.59,-147,-50.99,0,325.2,19.4,1,8,215.1,"NAN",1.02,0,0,0,97.8,0,0,6.607,1.11,1.086,1
"2015-09-15 14:23:30",103,13,11.66,45.58,7.445,87.2,"$GPRMC,192326,A,6451.5946,N,14750.9912,W,000.0,325.2,150915,019.4,E","$GPGGA,192326,6451.5946,N,14750.9912,W,1,08,1.0,214.6,M,7.9,M,,",64,51.59,-147,-50.99,0,325.2,19.4,1,8,214.5,"NAN",0,0,0,0,97.9,0,0.001,6.622,1.103,1.086,1
"2015-09-15 14:23:35",104,13,11.66,45.58,7.445,87.3,"$GPRMC,192331,A,6451.5945,N,14750.9910,W,000.0,325.2,150915,019.4,E","$GPGGA,192331,6451.5945,N,14750.9910,W,1,08,1.2,214.2,M,7.9,M,,",64,51.59,-147,-50.99,0,325.2,19.4,1,8,214.2,"NAN",0.01,0,0,0,97.9,0,0.001,6.616,1.105,1.086,1
"2015-09-15 14:23:40",105,13,11.66,45.24,7.479,87.3,"$GPRMC,192336,A,6451.5946,N,14750.9912,W,000.0,325.2,150915,019.4,E","$GPGGA,192336,6451.5946,N,14750.9912,W,1,07,1.0,214.3,M,7.9,M,,",64,51.59,-147,-50.99,0,325.2,19.4,1,7,214.3,"NAN",0.01,0,0,0,97.8,0,0.001,6.634,1.106,1.086,1
"2015-09-15 14:23:45",106,13,11.66,45.24,7.479,87.4,"$GPRMC,192341,A,6451.5944,N,14750.9909,W,000.0,325.2,150915,019.4,E","$GPGGA,192341,6451.5944,N,14750.9909,W,1,08,1.2,214.3,M,7.9,M,,",64,51.59,-147,-50.99,0,325.2,19.4,1,8,214.3,"NAN",0.02,0,0,0,97.9,0,0,6.645,1.111,1.086,1
"2015-09-15 14:23:50",107,13,11.66,45.24,7.513,87.4,"$GPRMC,192346,A,6451.5943,N,14750.9907,W,000.0,325.2,150915,019.4,E","$GPGGA,192346,6451.5943,N,14750.9907,W,1,08,1.2,214.1,M,7.9,M,,",64,51.59,-147,-50.99,0,325.2,19.4,1,8,214.1,"NAN",0,0,0,0,97.9,0,0.001,6.628,1.107,1.086,1
"2015-09-15 14:23:55",108,12.99,11.63,44.9,7.513,87.6,"$GPRMC,192351,A,6451.5942,N,14750.9909,W,000.0,325.2,150915,019.4,E","$GPGGA,192351,6451.5942,N,14750.9909,W,1,08,1.0,214.2,M,7.9,M,,",64,51.59,-147,-50.99,0,325.2,19.4,1,8,214.2,"NAN",0.01,0,0,0,97.9,0,0.001,6.645,1.106,1.086,1
"2015-09-15 14:24:00",109,13,11.63,44.9,7.513,87.7,"$GPRMC,192356,A,6451.5943,N,14750.9912,W,000.0,325.2,150915,019.4,E","$GPGGA,192356,6451.5943,N,14750.9912,W,1,08,1.0,214.1,M,7.9,M,,",64,51.59,-147,-50.99,0,325.2,19.4,1,8,214.1,"NAN",1.02,0,0,0,97.9,0,0.001,6.654,1.104,1.086,1
"2015-09-15 14:24:05",110,12.99,11.63,44.56,7.547,87.9,"$GPRMC,192401,A,6451.5943,N,14750.9911,W,000.0,325.2,150915,019.4,E","$GPGGA,192401,6451.5943,N,14750.9911,W,1,08,1.2,214.0,M,7.9,M,,",64,51.59,-147,-50.99,0,325.2,19.4,1,8,214,"NAN",0.01,0,0,0,97.9,0,0,6.678,1.109,1.086,1
"2015-09-15 14:24:10",111,12.99,11.63,44.23,7.614,87.9,"$GPRMC,192406,A,6451.5946,N,14750.9920,W,000.0,325.2,150915,019.4,E","$GPGGA,192406,6451.5946,N,14750.9920,W,1,08,1.0,214.1,M,7.9,M,,",64,51.59,-147,-50.99,0,325.2,19.4,1,7,214.1,"NAN",1.02,0,0,0,97.9,0,0.001,6.681,1.105,1.086,1
"2015-09-15 14:24:15",112,13,11.63,44.23,7.581,88.1,"$GPRMC,192411,A,6451.5950,N,14750.9927,W,000.0,325.2,150915,019.4,E","$GPGGA,192411,6451.5950,N,14750.9927,W,1,08,1.2,213.9,M,7.9,M,,",64,51.6,-147,-50.99,0,325.2,19.4,1,8,214,"NAN",1.03,0,0,0,97.9,0,0.001,6.663,1.101,1.086,1.001
"2015-09-15 14:24:20",113,13,11.63,43.89,7.649,88.4,"$GPRMC,192416,A,6451.5951,N,14750.9926,W,000.0,325.2,150915,019.4,E","$GPGGA,192416,6451.5951,N,14750.9926,W,1,08,1.2,213.8,M,7.9,M,,",64,51.6,-147,-50.99,0,325.2,19.4,1,8,213.8,"NAN",1,0,0,0,97.8,0,0.001,6.663,1.105,1.086,1
"2015-09-15 14:24:25",114,12.99,11.63,43.55,7.683,88.4,"$GPRMC,192421,A,6451.5959,N,14750.9942,W,000.0,325.2,150915,019.4,E","$GPGGA,192421,6451.5959,N,14750.9942,W,1,08,1.0,213.9,M,7.9,M,,",64,51.6,-147,-50.99,0,325.2,19.4,1,8,213.8,"NAN",1.01,0,0,0,97.9,0,0.001,6.666,1.106,1.086,1
"2015-09-15 14:24:30",115,12.99,11.61,43.55,7.683,88.4,"$GPRMC,192426,A,6451.5962,N,14750.9951,W,000.0,325.2,150915,019.4,E","$GPGGA,192426,6451.5962,N,14750.9951,W,1,08,1.0,213.9,M,7.9,M,,",64,51.6,-147,-51,0,325.2,19.4,1,8,213.9,"NAN",0.03,0,0,0,97.9,0,0,6.684,1.109,1.086,1
"2015-09-15 14:24:35",116,12.99,11.61,43.55,7.717,88.4,"$GPRMC,192431,A,6451.5965,N,14750.9956,W,000.0,325.2,150915,019.4,E","$GPGGA,192431,6451.5965,N,14750.9956,W,1,08,1.0,214.2,M,7.9,M,,",64,51.6,-147,-51,0,325.2,19.4,1,8,214.1,"NAN",1.01,0,0,0,97.8,0,0.001,6.717,1.108,1.086,1
"2015-09-15 14:24:40",117,12.99,11.61,43.21,7.717,88.4,"$GPRMC,192436,A,6451.5967,N,14750.9960,W,000.0,325.2,150915,019.4,E","$GPGGA,192436,6451.5967,N,14750.9960,W,1,08,1.0,214.4,M,7.9,M,,",64,51.6,-147,-51,0,325.2,19.4,1,8,214.4,"NAN",1.01,0,0,0,97.9,0,0,6.708,1.114,1.086,0.999
"2015-09-15 14:24:45",118,12.99,11.61,43.21,7.683,88.4,"$GPRMC,192441,A,6451.5963,N,14750.9953,W,000.0,325.2,150915,019.4,E","$GPGGA,192441,6451.5963,N,14750.9953,W,1,08,1.0,214.7,M,7.9,M,,",64,51.6,-147,-51,0,325.2,19.4,1,8,214.6,"NAN",0.01,0,0,0,97.8,0,0,6.705,1.113,1.086,0.999
"2015-09-15 14:24:50",119,12.99,11.61,42.88,7.75,88.4,"$GPRMC,192446,A,6451.5953,N,14750.9932,W,000.0,325.2,150915,019.4,E","$GPGGA,192446,6451.5953,N,14750.9932,W,1,08,1.2,215.0,M,7.9,M,,",64,51.6,-147,-50.99,0,325.2,19.4,1,8,215,"NAN",1.01,0,0,0,97.8,0,0.001,6.723,1.106,1.086,1
"2015-09-15 14:24:55",120,12.99,11.61,42.88,7.75,88.5,"$GPRMC,192451,A,6451.5950,N,14750.9923,W,000.0,325.2,150915,019.4,E","$GPGGA,192451,6451.5950,N,14750.9923,W,1,08,1.2,215.2,M,7.9,M,,",64,51.6,-147,-50.99,0,325.2,19.4,1,8,215.2,"NAN",1,0,0,0,97.9,0,0.001,6.699,1.105,1.086,1
"2015-09-15 14:25:00",121,12.99,11.61,42.88,7.75,88.6,"$GPRMC,192456,A,6451.5945,N,14750.9915,W,000.0,325.2,150915,019.4,E","$GPGGA,192456,6451.5945,N,14750.9915,W,1,08,1.2,215.2,M,7.9,M,,",64,51.59,-147,-50.99,0,325.2,19.4,1,8,215.2,"NAN",1.04,0,0,0,97.9,0,0.001,6.717,1.105,1.086,1
"2015-09-15 14:25:05",122,12.99,11.59,42.54,7.75,88.6,"$GPRMC,192501,A,6451.5940,N,14750.9906,W,000.0,325.2,150915,019.4,E","$GPGGA,192501,6451.5940,N,14750.9906,W,1,08,1.0,215.3,M,7.9,M,,",64,51.59,-147,-50.99,0,325.2,19.4,1,8,215.3,"NAN",0,0,0,0,97.8,0,0,6.737,1.11,1.086,1
"2015-09-15 14:25:10",123,12.99,11.59,42.54,7.784,88.4,"$GPRMC,192506,A,6451.5937,N,14750.9898,W,000.0,325.2,150915,019.4,E","$GPGGA,192506,6451.5937,N,14750.9898,W,1,08,1.0,215.4,M,7.9,M,,",64,51.59,-147,-50.99,0,325.2,19.4,1,8,215.3,"NAN",1.01,0,0,0,97.9,0,0.001,6.743,1.105,1.086,1
"2015-09-15 14:25:15",124,12.99,11.59,42.2,7.785,88.4,"$GPRMC,192511,A,6451.5936,N,14750.9898,W,000.0,325.2,150915,019.4,E","$GPGGA,192511,6451.5936,N,14750.9898,W,1,08,1.0,215.5,M,7.9,M,,",64,51.59,-147,-50.99,0,325.2,19.4,1,8,215.5,"NAN",0.03,0,0,0,97.8,0,0.001,6.732,1.106,1.086,1
"2015-09-15 14:25:20",125,12.99,11.59,42.2,7.751,88.2,"$GPRMC,192516,A,6451.5936,N,14750.9893,W,000.0,325.2,150915,019.4,E","$GPGGA,192516,6451.5936,N,14750.9893,W,1,08,1.0,215.3,M,7.9,M,,",64,51.59,-147,-50.99,0,325.2,19.4,1,8,215.4,"NAN",0,0,0,0,97.8,0,0.001,6.726,1.107,1.086,1
"2015-09-15 14:25:25",126,12.99,11.59,41.86,7.853,88.1,"$GPRMC,192521,A,6451.5935,N,14750.9885,W,000.0,325.2,150915,019.4,E","$GPGGA,192521,6451.5935,N,14750.9885,W,1,08,1.0,215.0,M,7.9,M,,",64,51.59,-147,-50.99,0,325.2,19.4,1,8,215.1,"NAN",0,0,0,0,97.9,0,0.001,6.746,1.105,1.086,1
"2015-09-15 14:25:30",127,12.99,11.59,41.86,7.785,88,"$GPRMC,192526,A,6451.5939,N,14750.9889,W,000.0,325.2,150915,019.4,E","$GPGGA,192526,6451.5939,N,14750.9889,W,1,06,1.3,215.0,M,7.9,M,,",64,51.59,-147,-50.99,0,325.2,19.4,1,6,215,"NAN",0.03,0,0,0,97.9,0,0.001,6.746,1.102,1.086,1.001
"2015-09-15 14:25:35",128,12.99,11.59,41.53,7.819,87.9,"$GPRMC,192531,A,6451.5939,N,14750.9886,W,000.0,325.2,150915,019.4,E","$GPGGA,192531,6451.5939,N,14750.9886,W,1,08,1.0,215.0,M,7.9,M,,",64,51.59,-147,-50.99,0,325.2,19.4,1,8,215,"NAN",0,0,0,0,97.8,0,0.001,6.749,1.105,1.086,1
"2015-09-15 14:25:40",129,12.99,11.56,41.19,7.886,87.9,"$GPRMC,192536,A,6451.5938,N,14750.9885,W,000.0,325.2,150915,019.4,E","$GPGGA,192536,6451.5938,N,14750.9885,W,1,07,1.1,215.0,M,7.9,M,,",64,51.59,-147,-50.99,0,325.2,19.4,1,7,215,"NAN",0.02,0,0,0,97.9,0,0.001,6.749,1.107,1.086,1
"2015-09-15 14:25:45",130,12.99,11.56,40.85,7.819,87.8,"$GPRMC,192541,A,6451.5939,N,14750.9885,W,000.0,325.2,150915,019.4,E","$GPGGA,192541,6451.5939,N,14750.9885,W,1,07,1.2,215.0,M,7.9,M,,",64,51.59,-147,-50.99,0,325.2,19.4,1,7,215,"NAN",0.03,0,0,0,97.8,0,0.001,6.785,1.108,1.086,1
"2015-09-15 14:25:50",131,12.99,11.56,40.85,7.853,87.8,"$GPRMC,192546,A,6451.5936,N,14750.9873,W,000.0,325.2,150915,019.4,E","$GPGGA,192546,6451.5936,N,14750.9873,W,1,08,1.2,214.8,M,7.9,M,,",64,51.59,-147,-50.99,0,325.2,19.4,1,8,214.8,"NAN",1.03,0,0,0,97.8,0,0.001,6.773,1.103,1.086,1.001
"2015-09-15 14:25:55",132,12.99,11.56,40.51,7.886,87.8,"$GPRMC,192551,A,6451.5933,N,14750.9865,W,000.0,325.2,150915,019.4,E","$GPGGA,192551,6451.5933,N,14750.9865,W,1,07,1.1,214.6,M,7.9,M,,",64,51.59,-147,-50.99,0,325.2,19.4,1,7,214.6,"NAN",0.02,0,0,0,97.8,0,0.001,6.797,1.104,1.086,1
"2015-09-15 14:26:00",133,12.99,11.56,40.18,7.886,87.7,"$GPRMC,192556,A,6451.5933,N,14750.9869,W,000.0,325.2,150915,019.4,E","$GPGGA,192556,6451.5933,N,14750.9869,W,1,07,1.1,214.6,M,7.9,M,,",64,51.59,-147,-50.99,0,325.2,19.4,1,7,214.6,"NAN",0.03,0,0,0,97.8,0,0,6.812,1.109,1.086,1
"2015-09-15 14:26:05",134,12.99,11.54,40.18,7.92,87.7,"$GPRMC,192601,A,6451.5931,N,14750.9865,W,000.0,325.2,150915,019.4,E","$GPGGA,192601,6451.5931,N,14750.9865,W,1,07,1.1,214.6,M,7.9,M,,",64,51.59,-147,-50.99,0,325.2,19.4,1,6,214.6,"NAN",0.01,0,0,0,97.9,0,0.001,6.806,1.108,1.086,1
"2015-09-15 14:26:10",135,12.99,11.54,39.84,7.887,87.6,"$GPRMC,192606,A,6451.5931,N,14750.9865,W,000.0,325.2,150915,019.4,E","$GPGGA,192606,6451.5931,N,14750.9865,W,1,06,1.1,214.6,M,7.9,M,,",64,51.59,-147,-50.99,0,325.2,19.4,1,6,214.6,"NAN",0.03,0,0,0,97.9,0,0.001,6.797,1.107,1.086,1
"2015-09-15 14:26:15",136,12.99,11.54,39.84,7.921,87.5,"$GPRMC,192611,A,6451.5931,N,14750.9865,W,000.0,325.2,150915,019.4,E","$GPGGA,192611,6451.5931,N,14750.9865,W,1,07,1.3,214.6,M,7.9,M,,",64,51.59,-147,-50.99,0,325.2,19.4,1,7,214.6,"NAN",0.02,0,0,0,97.8,0,0.001,6.829,1.106,1.086,1
"2015-09-15 14:26:20",137,12.99,11.54,39.5,7.921,87.5,"$GPRMC,192616,A,6451.5931,N,14750.9864,W,000.0,325.2,150915,019.4,E","$GPGGA,192616,6451.5931,N,14750.9864,W,1,08,1.2,214.6,M,7.9,M,,",64,51.59,-147,-50.99,0,325.2,19.4,1,8,214.6,"NAN",0.01,0,0,0,97.9,0,0,6.838,1.111,1.086,1
"2015-09-15 14:26:25",138,12.99,11.54,39.16,7.921,87.4,"$GPRMC,192621,A,6451.5930,N,14750.9864,W,000.0,325.2,150915,019.4,E","$GPGGA,192621,6451.5930,N,14750.9864,W,1,08,1.0,214.6,M,7.9,M,,",64,51.59,-147,-50.99,0,325.2,19.4,1,7,214.6,"NAN",0.01,0,0,0,97.9,0,0.001,6.826,1.104,1.086,1
"2015-09-15 14:26:30",139,12.99,11.54,39.16,7.921,87.3,"$GPRMC,192626,A,6451.5930,N,14750.9864,W,000.0,325.2,150915,019.4,E","$GPGGA,192626,6451.5930,N,14750.9864,W,1,07,2.3,214.6,M,7.9,M,,",64,51.59,-147,-50.99,0,325.2,19.4,1,8,214.6,"NAN",1.03,0,0,0,97.9,0,0.001,6.826,1.105,1.086,1
"2015-09-15 14:26:35",140,12.99,11.54,38.82,7.921,87.1,"$GPRMC,192631,A,6451.5930,N,14750.9862,W,000.0,325.2,150915,019.4,E","$GPGGA,192631,6451.5930,N,14750.9862,W,1,08,1.2,214.9,M,7.9,M,,",64,51.59,-147,-50.99,0,325.2,19.4,1,8,214.8,"NAN",0,0,0,0,97.9,0,0.001,6.844,1.106,1.086,1
"2015-09-15 14:26:40",141,12.99,11.54,38.82,8.02,87.1,"$GPRMC,192636,A,6451.5931,N,14750.9859,W,000.0,325.2,150915,019.4,E","$GPGGA,192636,6451.5931,N,14750.9859,W,1,07,1.1,215.9,M,7.9,M,,",64,51.59,-147,-50.99,0,325.2,19.4,1,7,215.7,"NAN",0.01,0,0,0,97.9,0,0.001,6.844,1.108,1.086,1
"2015-09-15 14:26:45",142,12.99,11.52,38.82,7.988,86.9,"$GPRMC,192641,A,6451.5927,N,14750.9847,W,000.0,325.2,150915,019.4,E","$GPGGA,192641,6451.5927,N,14750.9847,W,1,07,1.1,216.6,M,7.9,M,,",64,51.59,-147,-50.98,0,325.2,19.4,1,7,216.5,"NAN",0,0,0,0,97.8,0,0,6.853,1.111,1.086,1
"2015-09-15 14:26:50",143,12.99,11.52,38.49,8.02,86.8,"$GPRMC,192646,A,6451.5930,N,14750.9843,W,000.0,325.2,150915,019.4,E","$GPGGA,192646,6451.5930,N,14750.9843,W,1,08,1.0,217.4,M,7.9,M,,",64,51.59,-147,-50.98,0,325.2,19.4,1,8,217.2,"NAN",1,0,0,0,97.9,0,0.001,6.856,1.108,1.086,1
"2015-09-15 14:26:55",144,12.99,11.52,38.49,8.06,86.7,"$GPRMC,192651,A,6451.5931,N,14750.9834,W,000.0,325.2,150915,019.4,E","$GPGGA,192651,6451.5931,N,14750.9834,W,1,07,2.3,218.3,M,7.9,M,,",64,51.59,-147,-50.98,0,325.2,19.4,1,7,218.1,"NAN",0.01,0,0,0,97.8,0,0.001,6.85,1.099,1.086,1.001
"2015-09-15 14:27:00",145,12.99,11.52,38.49,8.12,86.7,"$GPRMC,192656,A,6451.5932,N,14750.9832,W,000.0,325.2,150915,019.4,E","$GPGGA,192656,6451.5932,N,14750.9832,W,1,07,1.2,219.2,M,7.9,M,,",64,51.59,-147,-50.98,0,325.2,19.4,1,7,218.9,"NAN",0,0,0,0,97.8,0,0.001,6.874,1.105,1.086,1
"2015-09-15 14:27:05",146,12.99,11.52,38.49,8.09,86.6,"$GPRMC,192701,A,6451.5932,N,14750.9823,W,000.0,325.2,150915,019.4,E","$GPGGA,192701,6451.5932,N,14750.9823,W,1,07,1.2,220.0,M,7.9,M,,",64,51.59,-147,-50.98,0,325.2,19.4,1,7,219.8,"NAN",0,0,0,0,97.9,0,0.001,6.874,1.105,1.086,1
"2015-09-15 14:27:10",147,12.99,11.52,38.49,8.16,86.7,"$GPRMC,192706,A,6451.5932,N,14750.9807,W,000.0,325.2,150915,019.4,E","$GPGGA,192706,6451.5932,N,14750.9807,W,1,06,1.3,220.9,M,7.9,M,,",64,51.59,-147,-50.98,0,325.2,19.4,1,6,220.9,"NAN",0.03,0,0,0,97.8,0,0.001,6.88,1.102,1.086,1.001
"2015-09-15 14:27:15",148,12.99,11.49,38.49,8.16,86.7,"$GPRMC,192711,A,6451.5931,N,14750.9801,W,000.0,325.2,150915,019.4,E","$GPGGA,192711,6451.5931,N,14750.9801,W,1,08,1.0,221.3,M,7.9,M,,",64,51.59,-147,-50.98,0,325.2,19.4,1,8,221.2,"NAN",1,0,0,0,97.9,0,0.001,6.904,1.107,1.086,1
"2015-09-15 14:27:20",149,12.99,11.49,39.84,8.19,86.8,"$GPRMC,192716,A,6451.5930,N,14750.9799,W,000.0,325.2,150915,019.4,E","$GPGGA,192716,6451.5930,N,14750.9799,W,1,08,1.2,221.3,M,7.9,M,,",64,51.59,-147,-50.98,0,325.2,19.4,1,8,221.3,"NAN",0.01,0,0,0,97.9,0,0,6.918,1.114,1.086,0.999
"2015-09-15 14:27:25",150,12.99,11.49,45.58,8.19,86.8,"$GPRMC,192721,A,6451.5928,N,14750.9818,W,000.7,237.3,150915,019.4,E","$GPGGA,192721,6451.5928,N,14750.9818,W,1,07,1.2,221.5,M,7.9,M,,",64,51.59,-147,-50.98,0.6,223.3,19.4,1,7,221.3,"NAN",1.02,0,0,0,97.8,0,0.001,6.909,1.107,1.086,1
"2015-09-15 14:27:30",151,12.99,11.49,52.67,8.26,87.1,"$GPRMC,192726,A,6451.5943,N,14750.9888,W,002.1,314.0,150915,019.4,E","$GPGGA,192726,6451.5943,N,14750.9888,W,1,08,1.0,221.7,M,7.9,M,,",64,51.59,-147,-50.99,2.5,302.8,19.4,1,8,221.6,"NAN",1,0,0,0,97.9,0,0.001,6.892,1.105,1.086,1
"2015-09-15 14:27:35",152,12.99,11.49,58.07,8.29,87.2,"$GPRMC,192731,A,6451.5953,N,14750.9987,W,002.3,352.4,150915,019.4,E","$GPGGA,192731,6451.5953,N,14750.9987,W,1,08,1.2,221.7,M,7.9,M,,",64,51.6,-147,-51,2.3,352.4,19.4,1,7,221.8,"NAN",0.01,0,0,0,97.9,0,0.001,6.921,1.1,1.086,1.001
"2015-09-15 14:27:40",153,12.99,11.49,59.76,8.33,87.4,"$GPRMC,192736,A,6451.5974,N,14750.9999,W,000.0,023.0,150915,019.4,E","$GPGGA,192736,6451.5974,N,14750.9999,W,1,08,1.0,222.1,M,7.9,M,,",64,51.6,-147,-51,0,23,19.4,1,7,222,"NAN",1.03,0,0,0,97.8,0,0.001,6.948,1.105,1.086,1
"2015-09-15 14:27:45",154,12.99,11.49,63.13,8.33,87.6,"$GPRMC,192741,A,6451.5956,N,14751.0134,W,009.1,239.2,150915,019.4,E","$GPGGA,192741,6451.5956,N,14751.0134,W,1,08,1.0,222.9,M,7.9,M,,",64,51.6,-147,-51.01,6.9,235.4,19.4,1,8,222.7,"NAN",1,0,0,0,97.9,0,0.001,6.963,1.107,1.086,1
"2015-09-15 14:27:50",155,12.99,11.47,66.17,8.36,87.8,"$GPRMC,192746,A,6451.5960,N,14751.0531,W,011.9,253.5,150915,019.4,E","$GPGGA,192746,6451.5960,N,14751.0531,W,1,08,1.0,225.0,M,7.9,M,,",64,51.6,-147,-51.05,11.9,253.5,19.4,1,8,225,"NAN",0.01,0,0,0,97.8,0,0.001,6.936,1.109,1.086,1
"2015-09-15 14:27:55",156,12.99,11.47,66.17,8.4,88,"$GPRMC,192751,A,6451.5951,N,14751.0919,W,010.5,262.3,150915,019.4,E","$GPGGA,192751,6451.5951,N,14751.0919,W,1,08,1.2,222.0,M,7.9,M,,",64,51.6,-147,-51.08,11.8,260.9,19.4,1,8,222.9,"NAN",1,0,0,0,97.8,0,0.001,6.963,1.108,1.086,1
"2015-09-15 14:28:00",157,12.99,11.47,62.46,8.46,88,"$GPRMC,192756,A,6451.5884,N,14751.1129,W,008.6,196.4,150915,019.4,E","$GPGGA,192756,6451.5884,N,14751.1129,W,1,08,1.2,218.8,M,7.9,M,,",64,51.59,-147,-51.11,8.1,208.9,19.4,1,8,219.3,"NAN",1.01,0,0,0,97.8,0,0.001,6.977,1.103,1.086,1
"2015-09-15 14:28:05",158,12.99,11.47,61.44,8.5,88.1,"$GPRMC,192801,A,6451.5708,N,14751.1134,W,014.7,179.6,150915,019.4,E","$GPGGA,192801,6451.5708,N,14751.1134,W,1,08,1.2,217.3,M,7.9,M,,",64,51.57,-147,-51.11,14.1,178.8,19.4,1,8,217.1,"NAN",1.01,0,0,0,97.8,0,0.001,6.957,1.107,1.086,1
"2015-09-15 14:28:10",159,12.99,11.47,64.82,8.53,88,"$GPRMC,192806,A,6451.5506,N,14751.1131,W,011.8,192.1,150915,019.4,E","$GPGGA,192806,6451.5506,N,14751.1131,W,1,08,1.0,217.4,M,7.9,M,,",64,51.55,-147,-51.11,12.8,182.9,19.4,1,8,217.4,"NAN",1,0,0,0,97.8,0,0.001,6.995,1.105,1.086,1
"2015-09-15 14:28:15",160,12.99,11.47,64.82,8.57,87.9,"$GPRMC,192811,A,6451.5378,N,14751.1370,W,013.3,235.5,150915,019.4,E","$GPGGA,192811,6451.5378,N,14751.1370,W,1,07,1.1,215.8,M,7.9,M,,",64,51.54,-147,-51.14,13.3,235.5,19.4,1,8,216.4,"NAN",0.01,0,0,0,97.8,0,0.001,7.031,1.107,1.086,1
"2015-09-15 14:28:20",161,12.99,11.45,57.73,8.57,88,"$GPRMC,192816,A,6451.5215,N,14751.1683,W,016.5,228.3,150915,019.4,E","$GPGGA,192816,6451.5215,N,14751.1683,W,1,07,1.1,212.7,M,7.9,M,,",64,51.52,-147,-51.17,16.5,228.3,19.4,1,7,212.7,"NAN",0.02,0,0,0,97.8,0,0.001,7.034,1.106,1.086,1
"2015-09-15 14:28:25",162,12.99,11.45,61.11,8.63,88,"$GPRMC,192821,A,6451.5047,N,14751.2095,W,016.8,226.5,150915,019.4,E","$GPGGA,192821,6451.5047,N,14751.2095,W,1,07,1.1,208.7,M,7.9,M,,",64,51.5,-147,-51.21,16.8,226.5,19.4,1,7,208.7,"NAN",0.02,0,0,0,97.8,0,0,7.025,1.11,1.086,1
"2015-09-15 14:28:30",163,12.99,11.45,68.87,8.7,87.9,"$GPRMC,192826,A,6451.4879,N,14751.2314,W,011.0,191.2,150915,019.4,E","$GPGGA,192826,6451.4879,N,14751.2314,W,1,07,1.1,205.5,M,7.9,M,,",64,51.49,-147,-51.23,11,191.2,19.4,1,7,205.9,"NAN",0,0,0,0,97.9,0,0.001,7.037,1.105,1.086,1
"2015-09-15 14:28:35",164,12.99,11.45,77.31,8.74,87.9,"$GPRMC,192831,A,6451.4677,N,14751.2187,W,018.0,146.3,150915,019.4,E","$GPGGA,192831,6451.4677,N,14751.2187,W,1,08,1.2,201.8,M,7.9,M,,",64,51.47,-147,-51.22,18,146.3,19.4,1,8,202.8,"NAN",0.01,0,0,0,97.9,0,0.001,7.081,1.107,1.086,1
"2015-09-15 14:28:40",165,12.99,11.45,77.99,8.8,87.8,"$GPRMC,192836,A,6451.4519,N,14751.1580,W,024.2,110.5,150915,019.4,E","$GPGGA,192836,6451.4519,N,14751.1580,W,1,09,1.0,194.8,M,7.9,M,,",64,51.45,-147,-51.16,24.2,110.5,19.4,1,9,196.2,"NAN",0.01,0,0,0,98,0,0,7.057,1.113,1.086,0.999
"2015-09-15 14:28:45",166,12.99,11.45,77.31,8.8,87.6,"$GPRMC,192841,A,6451.4377,N,14751.0732,W,029.8,111.6,150915,019.4,E","$GPGGA,192841,6451.4377,N,14751.0732,W,1,09,1.0,188.2,M,7.9,M,,",64,51.44,-147,-51.09,29.2,111.8,19.4,1,9,189.4,"NAN",1.01,0,0,0,98,0,0,7.063,1.111,1.086,1
"2015-09-15 14:28:50",167,12.99,11.45,75.96,8.87,87.4,"$GPRMC,192846,A,6451.4210,N,14750.9784,W,031.6,111.5,150915,019.4,E","$GPGGA,192846,6451.4210,N,14750.9784,W,1,09,1.0,182.9,M,7.9,M,,",64,51.42,-147,-50.98,31.6,111.5,19.4,1,9,184,"NAN",0.01,0,0,0,98,0,0.001,7.105,1.105,1.086,1
"2015-09-15 14:28:55",168,12.99,11.45,75.29,8.94,87.4,"$GPRMC,192851,A,6451.4040,N,14750.8830,W,029.9,112.1,150915,019.4,E","$GPGGA,192851,6451.4040,N,14750.8830,W,1,09,1.0,177.4,M,7.9,M,,",64,51.41,-147,-50.9,30.7,112.6,19.4,1,9,178.5,"NAN",0.99,0,0,0,98.1,0,0.001,7.108,1.106,1.086,1
"2015-09-15 14:29:00",169,12.99,11.43,74.27,8.87,87.4,"$GPRMC,192856,A,6451.3890,N,14750.7947,W,029.0,112.3,150915,019.4,E","$GPGGA,192856,6451.3890,N,14750.7947,W,1,09,1.0,172.6,M,7.9,M,,",64,51.39,-147,-50.81,29,111.8,19.4,1,9,173.5,"NAN",1.01,0,0,0,98.2,0,0.001,7.111,1.087,1.085,1
"2015-09-15 14:29:05",170,12.99,11.43,73.94,8.97,87.4,"$GPRMC,192901,A,6451.3735,N,14750.7059,W,030.1,111.7,150915,019.4,E","$GPGGA,192901,6451.3735,N,14750.7059,W,1,09,1.0,167.2,M,7.9,M,,",64,51.38,-147,-50.72,29.9,112.1,19.4,1,9,168.2,"NAN",1.01,0,0,0,98.2,0,0.001,7.119,1.108,1.086,1
"2015-09-15 14:29:10",171,12.98,11.43,75.62,9.01,87.3,"$GPRMC,192906,A,6451.3584,N,14750.6117,W,030.8,109.4,150915,019.4,E","$GPGGA,192906,6451.3584,N,14750.6117,W,1,09,1.0,161.9,M,7.9,M,,",64,51.36,-147,-50.63,31.1,109.7,19.4,1,9,163,"NAN",0.99,0,0,0,98.2,0,0.001,7.149,1.105,1.086,1
"2015-09-15 14:29:15",172,12.98,11.43,78.32,9.04,87.3,"$GPRMC,192911,A,6451.3455,N,14750.5263,W,023.9,110.0,150915,019.4,E","$GPGGA,192911,6451.3455,N,14750.5263,W,1,09,1.0,157.2,M,7.9,M,,",64,51.35,-147,-50.54,25.7,110,19.4,1,9,158,"NAN",1.01,0,0,0,98.3,0,0.001,7.158,1.107,1.086,1
"2015-09-15 14:29:20",173,12.99,11.43,80.4,9.07,87.2,"$GPRMC,192916,A,6451.3335,N,14750.4784,W,013.1,140.3,150915,019.4,E","$GPGGA,192916,6451.3335,N,14750.4784,W,1,09,1.0,155.9,M,7.9,M,,",64,51.34,-147,-50.48,13.8,130.7,19.4,1,9,156,"NAN",1,0,0,0,98.3,0,0.001,7.17,1.086,1.085,1
"2015-09-15 14:29:25",174,12.98,11.43,81.7,9.14,87.2,"$GPRMC,192921,A,6451.3185,N,14750.4566,W,015.5,145.6,150915,019.4,E","$GPGGA,192921,6451.3185,N,14750.4566,W,1,09,1.0,155.4,M,7.9,M,,",64,51.32,-147,-50.46,14.1,148.6,19.4,1,9,155.4,"NAN",1.01,0,0,0,98.3,0,0.001,7.17,1.089,1.085,1
"2015-09-15 14:29:30",175,12.98,11.43,83.4,9.21,87.6,"$GPRMC,192926,A,6451.2940,N,14750.4378,W,021.3,151.0,150915,019.4,E","$GPGGA,192926,6451.2940,N,14750.4378,W,1,09,1.0,155.6,M,7.9,M,,",64,51.3,-147,-50.44,20.4,148.8,19.4,1,9,155.3,"NAN",0.99,0,0,0,98.3,0,0.001,7.229,1.084,1.085,1.001
"2015-09-15 14:29:35",176,12.98,11.4,87.4,9.28,87.9,"$GPRMC,192931,A,6451.2610,N,14750.4450,W,025.4,188.6,150915,019.4,E","$GPGGA,192931,6451.2610,N,14750.4450,W,1,09,1.0,156.0,M,7.9,M,,",64,51.27,-147,-50.44,25.1,161.2,19.4,1,9,156,"NAN",0.99,0,0,0,98.3,0,0,7.175,1.094,1.085,1
"2015-09-15 14:29:40",177,12.98,11.4,91.8,9.31,88.3,"$GPRMC,192936,A,6451.2270,N,14750.4692,W,026.4,206.1,150915,019.4,E","$GPGGA,192936,6451.2270,N,14750.4692,W,1,09,1.0,154.9,M,7.9,M,,",64,51.23,-147,-50.46,26,202.2,19.4,1,9,155.3,"NAN",0.99,0,0,0,98.3,0,0.001,7.223,1.091,1.085,1
"2015-09-15 14:29:45",178,12.98,11.4,96.2,9.41,88.5,"$GPRMC,192941,A,6451.1968,N,14750.5225,W,026.9,220.7,150915,019.4,E","$GPGGA,192941,6451.1968,N,14750.5225,W,1,09,1.0,151.8,M,7.9,M,,",64,51.2,-147,-50.51,27.1,221.2,19.4,1,9,152.5,"NAN",1,0,0,0,98.3,0,0.001,7.232,1.091,1.085,1
"2015-09-15 14:29:50",179,12.98,11.4,97.9,9.48,88.5,"$GPRMC,192946,A,6451.1662,N,14750.5717,W,027.1,202.8,150915,019.4,E","$GPGGA,192946,6451.1662,N,14750.5717,W,1,09,1.0,148.6,M,7.9,M,,",64,51.17,-147,-50.56,26.5,207.6,19.4,1,9,149.2,"NAN",1,0,0,0,98.3,0,0.001,7.246,1.09,1.085,1
"2015-09-15 14:29:55",180,12.98,11.4,98.6,9.52,88.3,"$GPRMC,192951,A,6451.1279,N,14750.5900,W,028.8,181.6,150915,019.4,E","$GPGGA,192951,6451.1279,N,14750.5900,W,1,09,1.0,146.2,M,7.9,M,,",64,51.14,-147,-50.59,28.6,185,19.4,1,9,146.5,"NAN",1,0,0,0,98.4,0,0.001,7.246,1.088,1.085,1
"2015-09-15 14:30:00",181,12.98,11.4,98.2,9.65,87.7,"$GPRMC,192956,A,6451.0884,N,14750.5896,W,027.8,179.4,150915,019.4,E","$GPGGA,192956,6451.0884,N,14750.5896,W,1,09,1.0,145.1,M,7.9,M,,",64,51.1,-147,-50.59,28.9,179.5,19.4,1,9,145.3,"NAN",0.99,0,0,0,98.4,0,0.001,7.273,1.089,1.085,1
"2015-09-15 14:30:05",182,12.98,11.4,99.3,9.69,87.3,"$GPRMC,193001,A,6451.0506,N,14750.5893,W,026.9,180.5,150915,019.4,E","$GPGGA,193001,6451.0506,N,14750.5893,W,1,09,1.0,144.3,M,7.9,M,,",64,51.05,-147,-50.59,26.9,180.5,19.4,1,9,144.4,"NAN",0.01,0,0,0,98.4,0,0.001,7.299,1.086,1.085,1
"2015-09-15 14:30:10",183,12.98,11.4,98.9,9.75,86.7,"$GPRMC,193006,A,6451.0176,N,14750.5897,W,022.0,180.3,150915,019.4,E","$GPGGA,193006,6451.0176,N,14750.5897,W,1,09,1.0,143.3,M,7.9,M,,",64,51.02,-147,-50.59,22,180.3,19.4,1,9,143.6,"NAN",0.01,0,0,0,98.4,0,0.001,7.326,1.086,1.085,1
"2015-09-15 14:30:15",184,12.98,11.38,100.6,9.75,86.3,"$GPRMC,193011,A,6450.9891,N,14750.5951,W,019.1,186.5,150915,019.4,E","$GPGGA,193011,6450.9891,N,14750.5951,W,1,09,1.0,142.1,M,7.9,M,,",64,50.99,-147,-50.6,19.1,186.5,19.4,1,9,142.4,"NAN",0,0,0,0,98.4,0,0.001,7.323,1.091,1.085,1
"2015-09-15 14:30:20",185,12.98,11.38,103,9.86,85.8,"$GPRMC,193016,A,6450.9684,N,14750.6021,W,009.8,190.3,150915,019.4,E","$GPGGA,193016,6450.9684,N,14750.6021,W,1,09,1.0,141.6,M,7.9,M,,",64,50.97,-147,-50.6,13.1,190,19.4,1,9,141.6,"NAN",1,0,0,0,98.4,0,0.001,7.341,1.088,1.085,1
"2015-09-15 14:30:25",186,12.98,11.38,103.6,9.89,85.3,"$GPRMC,193021,A,6450.9571,N,14750.6051,W,010.8,171.0,150915,019.4,E","$GPGGA,193021,6450.9571,N,14750.6051,W,1,09,1.0,141.7,M,7.9,M,,",64,50.96,-147,-50.61,10.3,188.7,19.4,1,9,141.7,"NAN",0.99,0,0,0,98.4,0,0.001,7.367,1.089,1.085,1
"2015-09-15 14:30:30",187,12.98,11.38,103.3,9.89,84.8,"$GPRMC,193026,A,6450.9494,N,14750.5678,W,017.6,090.6,150915,019.4,E","$GPGGA,193026,6450.9494,N,14750.5678,W,1,09,1.0,141.6,M,7.9,M,,",64,50.95,-147,-50.58,16.1,93.4,19.4,1,9,141.8,"NAN",1.01,0,0,0,98.4,0,0.001,7.37,1.086,1.085,1
"2015-09-15 14:30:35",188,12.98,11.38,101.6,9.96,84.7,"$GPRMC,193031,A,6450.9498,N,14750.4990,W,023.6,089.9,150915,019.4,E","$GPGGA,193031,6450.9498,N,14750.4990,W,1,09,1.0,141.0,M,7.9,M,,",64,50.95,-147,-50.51,22.5,89.5,19.4,1,9,141.1,"NAN",1,0,0,0,98.4,0,0.001,7.393,1.088,1.085,1
"2015-09-15 14:30:40",189,12.98,11.38,98.9,10.06,84.5,"$GPRMC,193036,A,6450.9496,N,14750.4139,W,027.5,088.9,150915,019.4,E","$GPGGA,193036,6450.9496,N,14750.4139,W,1,09,1.0,140.2,M,7.9,M,,",64,50.95,-147,-50.43,26.8,89.3,19.4,1,9,140.4,"NAN",0.99,0,0,0,98.4,0,0,7.429,1.092,1.085,1
"2015-09-15 14:30:45",190,12.98,11.36,100.6,10.09,84,"$GPRMC,193041,A,6450.9497,N,14750.3196,W,029.4,089.5,150915,019.4,E","$GPGGA,193041,6450.9497,N,14750.3196,W,1,09,1.0,139.5,M,7.9,M,,",64,50.95,-147,-50.34,29.2,89.9,19.4,1,9,139.6,"NAN",1.01,0,0,0,98.4,0,0.001,7.449,1.103,1.086,1
"2015-09-15 14:30:50",191,12.98,11.36,104.7,10.13,83.6,"$GPRMC,193046,A,6450.9498,N,14750.2229,W,028.9,090.3,150915,019.4,E","$GPGGA,193046,6450.9498,N,14750.2229,W,1,09,1.0,138.7,M,7.9,M,,",64,50.95,-147,-50.24,29.2,90.5,19.4,1,9,138.9,"NAN",1,0,0,0,98.4,0,0,7.438,1.111,1.086,1
"2015-09-15 14:30:55",192,12.98,11.36,110.4,10.23,83,"$GPRMC,193051,A,6450.9499,N,14750.1258,W,030.8,089.7,150915,019.4,E","$GPGGA,193051,6450.9499,N,14750.1258,W,2,09,1.0,137.8,M,7.9,M,,",64,50.95,-147,-50.15,30.6,90.2,19.4,2,9,138,"NAN",1,0,0,0,98.4,0,0.001,7.446,1.087,1.085,1
"2015-09-15 14:31:00",193,12.98,11.36,116.5,10.26,82.5,"$GPRMC,193056,A,6450.9498,N,14750.0241,W,031.8,090.9,150915,019.4,E","$GPGGA,193056,6450.9498,N,14750.0241,W,2,09,1.0,137.0,M,7.9,M,,",64,50.95,-147,-50.04,31.8,90.6,19.4,2,9,137.1,"NAN",1,0,0,0,98.4,0,0,7.485,1.092,1.085,1
"2015-09-15 14:31:05",194,12.98,11.36,118.5,10.33,82,"$GPRMC,193101,A,6450.9490,N,14749.9271,W,029.5,090.7,150915,019.4,E","$GPGGA,193101,6450.9490,N,14749.9271,W,2,09,1.0,136.4,M,7.9,M,,",64,50.95,-147,-49.95,29.5,90.9,19.4,2,9,136.5,"NAN",1,0,0,0,98.5,0,0.001,7.52,1.104,1.086,1
"2015-09-15 14:31:10",195,12.98,11.36,119.5,10.33,81.5,"$GPRMC,193106,A,6450.9484,N,14749.8356,W,022.7,090.7,150915,019.4,E","$GPGGA,193106,6450.9484,N,14749.8356,W,2,09,1.0,135.5,M,7.9,M,,",64,50.95,-147,-49.85,26.1,90.7,19.4,2,9,135.7,"NAN",0.99,0,0,0,98.5,0,0,7.517,1.112,1.086,1
"2015-09-15 14:31:15",196,12.98,11.36,119.8,10.4,80.9,"$GPRMC,193111,A,6450.9483,N,14749.7980,W,000.0,090.6,150915,019.4,E","$GPGGA,193111,6450.9483,N,14749.7980,W,2,09,1.0,135.1,M,7.9,M,,",64,50.95,-147,-49.8,5.8,90.6,19.4,2,9,135.1,"NAN",1.01,0,0,0,98.4,0,0,7.523,1.111,1.086,1
"2015-09-15 14:31:20",197,12.98,11.36,120.2,10.47,80.5,"$GPRMC,193116,A,6450.9482,N,14749.7999,W,000.0,090.6,150915,019.4,E","$GPGGA,193116,6450.9482,N,14749.7999,W,2,09,0.9,134.8,M,7.9,M,,",64,50.95,-147,-49.8,0,90.6,19.4,2,9,134.9,"NAN",0.99,0,0,0,98.5,0,0.001,7.582,1.09,1.085,1
"2015-09-15 14:31:25",198,12.98,11.36,120.5,10.53,80.1,"$GPRMC,193121,A,6450.9484,N,14749.8001,W,000.0,090.6,150915,019.4,E","$GPGGA,193121,6450.9484,N,14749.8001,W,2,09,0.9,134.4,M,7.9,M,,",64,50.95,-147,-49.8,0,90.6,19.4,2,9,134.4,"NAN",0.01,0,0,0,98.5,0,0.001,7.582,1.102,1.086,1.001
"2015-09-15 14:31:30",199,12.98,11.33,120.9,10.53,79.76,"$GPRMC,193126,A,6450.9487,N,14749.7999,W,000.0,090.6,150915,019.4,E","$GPGGA,193126,6450.9487,N,14749.7999,W,2,09,0.9,134.6,M,7.9,M,,",64,50.95,-147,-49.8,0,90.6,19.4,2,9,134.5,"NAN",1.02,0,0,0,98.4,0,0.001,7.596,1.109,1.086,1
"2015-09-15 14:31:35",200,12.98,11.33,121.2,10.6,79.69,"$GPRMC,193131,A,6450.9486,N,14749.7998,W,000.0,090.6,150915,019.4,E","$GPGGA,193131,6450.9486,N,14749.7998,W,2,09,0.9,134.4,M,7.9,M,,",64,50.95,-147,-49.8,0,90.6,19.4,2,9,134.4,"NAN",0.01,0,0,0,98.4,0,0,7.611,1.111,1.086,1
"2015-09-15 14:31:40",201,12.98,11.33,121.9,10.67,79.62,"$GPRMC,193136,A,6450.9486,N,14749.7999,W,000.0,090.6,150915,019.4,E","$GPGGA,193136,6450.9486,N,14749.7999,W,2,09,1.0,134.4,M,7.9,M,,",64,50.95,-147,-49.8,0,90.6,19.4,2,9,134.4,"NAN",0.01,0,0,0,98.5,0,0.001,7.661,1.103,1.086,1
"2015-09-15 14:31:45",202,12.98,11.33,122.2,10.77,79.28,"$GPRMC,193141,A,6450.9484,N,14749.7844,W,011.0,091.0,150915,019.4,E","$GPGGA,193141,6450.9484,N,14749.7844,W,2,09,1.0,134.0,M,7.9,M,,",64,50.95,-147,-49.79,8.7,91.2,19.4,2,9,134.1,"NAN",0.99,0,0,0,98.4,0,0.001,7.646,1.085,1.085,1.001
"2015-09-15 14:31:50",203,12.98,11.33,122.6,10.77,78.81,"$GPRMC,193146,A,6450.9477,N,14749.7307,W,020.5,090.2,150915,019.4,E","$GPGGA,193146,6450.9477,N,14749.7307,W,2,09,1.0,133.6,M,7.9,M,,",64,50.95,-147,-49.74,19,90.4,19.4,2,9,133.6,"NAN",0.99,0,0,0,98.5,0,0,7.69,1.11,1.086,1
"2015-09-15 14:31:55",204,12.98,11.33,120.5,10.87,78.43,"$GPRMC,193151,A,6450.9470,N,14749.6562,W,023.3,091.7,150915,019.4,E","$GPGGA,193151,6450.9470,N,14749.6562,W,2,09,1.0,133.4,M,7.9,M,,",64,50.95,-147,-49.67,23.8,90.7,19.4,2,9,133.6,"NAN",1.01,0,0,0,98.5,0,0,7.684,1.112,1.086,1
"2015-09-15 14:32:00",205,12.98,11.33,117.5,10.91,78.19,"$GPRMC,193156,A,6450.9435,N,14749.5978,W,010.6,095.4,150915,019.4,E","$GPGGA,193156,6450.9435,N,14749.5978,W,2,09,1.0,132.8,M,7.9,M,,",64,50.94,-147,-49.61,14.5,98.7,19.4,2,9,132.8,"NAN",1,0,0,0,98.5,0,0.001,7.687,1.104,1.086,1
"2015-09-15 14:32:05",206,12.98,11.31,116.8,11.01,77.99,"$GPRMC,193201,A,6450.9434,N,14749.5892,W,000.0,090.7,150915,019.4,E","$GPGGA,193201,6450.9434,N,14749.5892,W,2,09,0.9,132.8,M,7.9,M,,",64,50.94,-147,-49.59,0,90.7,19.4,2,9,132.9,"NAN",0.99,0,0,0,98.5,0,0,7.684,1.111,1.086,1
"2015-09-15 14:32:10",207,12.98,11.31,116.5,10.98,77.79,"$GPRMC,193206,A,6450.9433,N,14749.5895,W,000.0,090.7,150915,019.4,E","$GPGGA,193206,6450.9433,N,14749.5895,W,2,09,0.9,132.7,M,7.9,M,,",64,50.94,-147,-49.59,0,90.7,19.4,2,9,132.7,"NAN",0.97,0,0,0,98.4,0,0.001,7.722,1.105,1.086,1
"2015-09-15 14:32:15",208,12.98,11.31,115.8,11.01,77.62,"$GPRMC,193211,A,6450.9433,N,14749.5895,W,000.0,090.7,150915,019.4,E","$GPGGA,193211,6450.9433,N,14749.5895,W,2,09,1.0,132.6,M,7.9,M,,",64,50.94,-147,-49.59,0,90.7,19.4,2,9,132.6,"NAN",0.98,0,0,0,98.4,0,0.001,7.714,1.104,1.086,1
