"TOA5","CR800Series","CR800","35658","CR800.Std.28","CPU:Ultralytics.CR8","37305","Five_Sec"
"TIMESTAMP","RECORD","BattV","PTemp_C","SlrW","AirTC","RH","NMEASent(1)","NMEASent(2)","Latitude_A","Latitude_B","Longitude_A","Longitude_B","Speed","Course","MagVar","FixQual","NumSats","Altitude","PPS","SecSinceGPRMC","GPSReady","MaxClockChange","NumClockChange","BP_kPa","VWC","EC","T","P","PA","VR"
"TS","RN","Volts","Deg C","W/m^2","Deg C","%","","","degrees","minutes","degrees","minutes","knots","degrees","degrees","code","count","meters","microseconds","seconds","count","milliseconds","count","kPa","m^3/m^3","dS/m","Deg C","unitless","nSec","unitless"
"","","Smp","Smp","Smp","Smp","Smp","Smp","Smp","Smp","Smp","Smp","Smp","Smp","Smp","Smp","Smp","Smp","Smp","Smp","Smp","Smp","Smp","Smp","Smp","Smp","Smp","Smp","Smp","Smp","Smp"
"2015-09-13 13:54:25",0,12.94,12.02,8.44,8.53,63.63,"$GPRMC,185422,A,6451.5847,N,14751.0350,W,000.0,121.8,130915,019.4,E","$GPGGA,185422,6451.5847,N,14751.0350,W,1,06,1.3,222.5,M,7.9,M,,",64,51.58,-147,-51.03,0,121.8,19.4,1,6,222.5,"NAN",0.22,0,0,0,99.4,"NAN",0,0,0,0,0
"2015-09-13 13:54:30",1,12.94,12,8.44,8.5,63.53,"$GPRMC,185427,A,6451.5852,N,14751.0372,W,000.0,121.8,130915,019.4,E","$GPGGA,185427,6451.5852,N,14751.0372,W,1,06,1.3,222.4,M,7.9,M,,",64,51.59,-147,-51.04,0,121.8,19.4,1,6,222.4,"NAN",0.18,0,0,0,99.5,"NAN",0,0,0,0,0
"2015-09-13 13:54:35",2,12.94,12,8.44,8.5,63.5,"$GPRMC,185432,A,6451.5845,N,14751.0424,W,000.0,121.8,130915,019.4,E","$GPGGA,185432,6451.5845,N,14751.0424,W,1,06,1.3,222.3,M,7.9,M,,",64,51.58,-147,-51.04,0,121.8,19.4,1,6,222.3,"NAN",0.2,0,0,0,99.4,"NAN",0,0,0,0,0
"2015-09-13 13:54:40",3,12.94,12,8.44,8.46,63.53,"$GPRMC,185437,A,6451.5848,N,14751.0432,W,000.0,121.8,130915,019.4,E","$GPGGA,185437,6451.5848,N,14751.0432,W,1,06,1.3,222.3,M,7.9,M,,",64,51.58,-147,-51.04,0,121.8,19.4,1,6,222.3,"NAN",0.18,0,0,0,99.4,"NAN",0,0,0,0,0
"2015-09-13 13:54:45",4,12.94,11.98,8.44,8.5,63.5,"$GPRMC,185442,A,6451.5849,N,14751.0434,W,000.0,121.8,130915,019.4,E","$GPGGA,185442,6451.5849,N,14751.0434,W,1,06,1.3,222.3,M,7.9,M,,",64,51.58,-147,-51.04,0,121.8,19.4,1,6,222.3,"NAN",0.17,0,0,0,99.5,"NAN",0,0,0,0,0
"2015-09-13 13:54:50",5,12.94,11.98,8.44,8.53,63.5,"$GPRMC,185447,A,6451.5850,N,14751.0442,W,000.0,121.8,130915,019.4,E","$GPGGA,185447,6451.5850,N,14751.0442,W,1,06,1.3,222.3,M,7.9,M,,",64,51.58,-147,-51.04,0,121.8,19.4,1,6,222.3,"NAN",0.18,0,0,0,99.4,"NAN",0,0,0,0,0
"2015-09-13 13:54:55",6,12.94,11.96,8.44,8.5,63.46,"$GPRMC,185452,A,6451.5851,N,14751.0449,W,000.0,121.8,130915,019.4,E","$GPGGA,185452,6451.5851,N,14751.0449,W,1,06,1.5,222.3,M,7.9,M,,",64,51.59,-147,-51.04,0,121.8,19.4,1,6,222.3,"NAN",0.18,0,0,0,99.4,"NAN",0,0,0,0,0
"2015-09-13 13:55:00",7,12.94,11.96,8.44,8.5,63.43,"$GPRMC,185457,A,6451.5850,N,14751.0441,W,000.0,121.8,130915,019.4,E","$GPGGA,185457,6451.5850,N,14751.0441,W,1,06,1.3,222.3,M,7.9,M,,",64,51.59,-147,-51.04,0,121.8,19.4,1,6,222.3,"NAN",0.18,0,0,0,99.4,"NAN",0,0,0,0,0
"2015-09-13 13:55:05",8,12.94,11.96,8.44,8.53,63.36,"$GPRMC,185502,A,6451.5852,N,14751.0418,W,000.0,121.8,130915,019.4,E","$GPGGA,185502,6451.5852,N,14751.0418,W,1,06,1.3,222.2,M,7.9,M,,",64,51.59,-147,-51.04,0,121.8,19.4,1,6,222.2,"NAN",0.17,0,0,0,99.4,"NAN",0,0,0,0,0
"2015-09-13 13:55:10",9,12.94,11.93,8.44,8.53,63.39,"$GPRMC,185507,A,6451.5853,N,14751.0401,W,000.0,121.8,130915,019.4,E","$GPGGA,185507,6451.5853,N,14751.0401,W,1,06,1.3,222.2,M,7.9,M,,",64,51.59,-147,-51.04,0,121.8,19.4,1,6,222.2,"NAN",0.19,0,0,0,99.4,"NAN",0,0,0,0,0
"2015-09-13 13:55:15",10,12.94,11.93,8.44,8.53,63.29,"$GPRMC,185512,A,6451.5854,N,14751.0400,W,000.0,121.8,130915,019.4,E","$GPGGA,185512,6451.5854,N,14751.0400,W,1,06,1.3,222.2,M,7.9,M,,",64,51.59,-147,-51.04,0,121.8,19.4,1,6,222.2,"NAN",0.18,0,0,0,99.4,"NAN",0,0,0,0,0
"2015-09-13 13:55:20",11,12.94,11.93,8.44,8.53,63.36,"$GPRMC,185517,A,6451.5855,N,14751.0405,W,000.0,121.8,130915,019.4,E","$GPGGA,185517,6451.5855,N,14751.0405,W,1,06,1.3,222.1,M,7.9,M,,",64,51.59,-147,-51.04,0,121.8,19.4,1,6,222.1,"NAN",0.21,0,0,0,99.4,"NAN",0,0,0,0,0
"2015-09-13 13:55:25",12,12.94,11.91,8.44,8.53,63.26,"$GPRMC,185522,A,6451.5856,N,14751.0412,W,000.0,121.8,130915,019.4,E","$GPGGA,185522,6451.5856,N,14751.0412,W,1,06,1.3,222.1,M,7.9,M,,",64,51.59,-147,-51.04,0,121.8,19.4,1,6,222.1,"NAN",0.18,0,0,0,99.4,"NAN",0,0,0,0,0
"2015-09-13 13:55:30",13,12.94,11.91,8.1,8.56,63.33,"$GPRMC,185527,A,6451.5854,N,14751.0414,W,000.0,121.8,130915,019.4,E","$GPGGA,185527,6451.5854,N,14751.0414,W,1,05,1.4,222.1,M,7.9,M,,",64,51.59,-147,-51.04,0,121.8,19.4,1,5,222.1,"NAN",0.2,0,0,0,99.4,"NAN",0,0,0,0,0
"2015-09-13 13:55:35",14,12.94,11.91,8.1,8.56,63.36,"$GPRMC,185532,A,6451.5854,N,14751.0413,W,000.0,121.8,130915,019.4,E","$GPGGA,185532,6451.5854,N,14751.0413,W,1,06,1.5,222.1,M,7.9,M,,",64,51.59,-147,-51.04,0,121.8,19.4,1,6,222.1,"NAN",0.19,0,0,0,99.4,"NAN",0,0,0,0,0
"2015-09-13 13:55:40",15,12.94,11.89,8.1,8.53,63.33,"$GPRMC,185537,A,6451.5855,N,14751.0418,W,000.0,121.8,130915,019.4,E","$GPGGA,185537,6451.5855,N,14751.0418,W,1,06,1.3,222.1,M,7.9,M,,",64,51.59,-147,-51.04,0,121.8,19.4,1,6,222.1,"NAN",0.2,0,0,0,99.4,"NAN",0,0,0,0,0
"2015-09-13 13:55:45",16,12.94,11.89,8.1,8.53,63.36,"$GPRMC,185542,A,6451.5853,N,14751.0421,W,000.0,121.8,130915,019.4,E","$GPGGA,185542,6451.5853,N,14751.0421,W,1,06,1.3,222.0,M,7.9,M,,",64,51.59,-147,-51.04,0,121.8,19.4,1,6,222,"NAN",0.18,0,0,0,99.4,"NAN",0,0,0,0,0
"2015-09-13 13:55:50",17,12.94,11.89,8.1,8.53,63.33,"$GPRMC,185547,A,6451.5850,N,14751.0425,W,000.0,121.8,130915,019.4,E","$GPGGA,185547,6451.5850,N,14751.0425,W,1,06,1.3,222.0,M,7.9,M,,",64,51.59,-147,-51.04,0,121.8,19.4,1,6,222,"NAN",0.18,0,0,0,99.4,"NAN",0,0,0,0,0
"2015-09-13 13:55:55",18,12.94,11.86,8.1,8.5,63.26,"$GPRMC,185552,A,6451.5845,N,14751.0418,W,000.0,121.8,130915,019.4,E","$GPGGA,185552,6451.5845,N,14751.0418,W,1,06,1.3,222.0,M,7.9,M,,",64,51.58,-147,-51.04,0,121.8,19.4,1,6,222,"NAN",0.19,0,0,0,99.4,"NAN",0,0,0,0,0
"2015-09-13 13:56:00",19,12.93,11.86,8.1,8.53,63.26,"$GPRMC,185557,A,6451.5845,N,14751.0412,W,000.0,121.8,130915,019.4,E","$GPGGA,185557,6451.5845,N,14751.0412,W,1,06,1.5,222.0,M,7.9,M,,",64,51.58,-147,-51.04,0,121.8,19.4,1,6,222,"NAN",0.19,0,0,0,99.4,"NAN",0,0,0,0,0
"2015-09-13 13:56:05",20,12.94,11.86,8.1,8.53,63.22,"$GPRMC,185602,A,6451.5841,N,14751.0435,W,000.0,289.4,130915,019.4,E","$GPGGA,185602,6451.5841,N,14751.0435,W,1,06,1.3,221.9,M,7.9,M,,",64,51.58,-147,-51.04,0,289.4,19.4,1,6,221.9,"NAN",0.19,0,0,0,99.4,"NAN",0,0,0,0,0
"2015-09-13 13:56:10",21,12.94,11.84,8.1,8.53,63.16,"$GPRMC,185607,A,6451.5837,N,14751.0450,W,000.0,289.4,130915,019.4,E","$GPGGA,185607,6451.5837,N,14751.0450,W,1,06,1.3,221.9,M,7.9,M,,",64,51.58,-147,-51.04,0,289.4,19.4,1,6,221.9,"NAN",0.2,0,0,0,99.4,"NAN",0,0,0,0,0
"2015-09-13 13:56:15",22,12.94,11.84,8.1,8.53,63.16,"$GPRMC,185612,A,6451.5834,N,14751.0469,W,000.8,134.0,130915,019.4,E","$GPGGA,185612,6451.5834,N,14751.0469,W,1,06,1.3,221.9,M,7.9,M,,",64,51.58,-147,-51.05,0,289.6,19.4,1,6,221.9,"NAN",0.16,0,0,0,99.4,"NAN",0,0,0,0,0
"2015-09-13 13:56:20",23,12.94,11.82,8.1,8.53,63.12,"$GPRMC,185617,A,6451.5826,N,14751.0444,W,000.0,131.3,130915,019.4,E","$GPGGA,185617,6451.5826,N,14751.0444,W,1,06,1.3,221.5,M,7.9,M,,",64,51.58,-147,-51.04,0,131.3,19.4,1,6,221.6,"NAN",0.2,0,0,0,99.4,"NAN",0,0,0,0,0
"2015-09-13 13:56:25",24,12.94,11.82,8.1,8.56,63.12,"$GPRMC,185622,A,6451.5822,N,14751.0441,W,000.0,131.3,130915,019.4,E","$GPGGA,185622,6451.5822,N,14751.0441,W,1,06,1.3,221.5,M,7.9,M,,",64,51.58,-147,-51.04,0,131.3,19.4,1,6,221.5,"NAN",0.19,0,0,0,99.4,"NAN",0,0,0,0,0
"2015-09-13 13:56:30",25,12.95,11.82,8.1,8.53,63.12,"$GPRMC,185627,A,6451.5818,N,14751.0422,W,000.0,131.3,130915,019.4,E","$GPGGA,185627,6451.5818,N,14751.0422,W,1,06,1.3,221.3,M,7.9,M,,",64,51.58,-147,-51.04,0,131.3,19.4,1,6,221.4,"NAN",0.19,0,0,0,99.4,"NAN",0,0,0,0,0
"2015-09-13 13:56:35",26,12.94,11.82,8.1,8.56,62.95,"$GPRMC,185632,A,6451.5814,N,14751.0405,W,000.0,131.3,130915,019.4,E","$GPGGA,185632,6451.5814,N,14751.0405,W,1,06,1.3,221.2,M,7.9,M,,",64,51.58,-147,-51.04,0,131.3,19.4,1,6,221.2,"NAN",0.18,0,0,0,99.4,"NAN",0,0,0,0,0
"2015-09-13 13:56:40",27,12.94,11.79,8.1,8.56,62.61,"$GPRMC,185637,A,6451.5808,N,14751.0367,W,000.0,131.3,130915,019.4,E","$GPGGA,185637,6451.5808,N,14751.0367,W,1,06,1.3,221.0,M,7.9,M,,",64,51.58,-147,-51.04,0,131.3,19.4,1,6,221.1,"NAN",0.2,0,0,0,99.4,"NAN",0,0,0,0,0
"2015-09-13 13:56:45",28,12.94,11.79,8.1,8.53,62.48,"$GPRMC,185642,A,6451.5802,N,14751.0336,W,000.0,131.3,130915,019.4,E","$GPGGA,185642,6451.5802,N,14751.0336,W,1,06,1.3,220.5,M,7.9,M,,",64,51.58,-147,-51.03,0,131.3,19.4,1,6,220.6,"NAN",0.19,0,0,0,99.4,"NAN",0,0,0,0,0
"2015-09-13 13:56:50",29,12.95,11.79,8.44,8.49,62.58,"$GPRMC,185647,A,6451.5802,N,14751.0330,W,000.0,093.9,130915,019.4,E","$GPGGA,185647,6451.5802,N,14751.0330,W,1,06,1.3,220.4,M,7.9,M,,",64,51.58,-147,-51.03,0,93.9,19.4,1,6,220.4,"NAN",0.2,0,0,0,99.4,"NAN",0,0,0,0,0
"2015-09-13 13:56:55",30,12.95,11.79,8.44,8.53,62.98,"$GPRMC,185652,A,6451.5800,N,14751.0328,W,001.0,111.5,130915,019.4,E","$GPGGA,185652,6451.5800,N,14751.0328,W,1,06,1.3,220.2,M,7.9,M,,",64,51.58,-147,-51.03,1,114.8,19.4,1,6,220.3,"NAN",0.17,0,0,0,99.4,"NAN",0,0,0,0,0
"2015-09-13 13:57:00",31,12.94,11.77,8.44,8.56,63.39,"$GPRMC,185657,A,6451.5804,N,14751.0345,W,000.0,111.5,130915,019.4,E","$GPGGA,185657,6451.5804,N,14751.0345,W,1,06,1.3,220.0,M,7.9,M,,",64,51.58,-147,-51.03,0,111.5,19.4,1,6,220,"NAN",0.16,0,0,0,99.4,"NAN",0,0,0,0,0
"2015-09-13 13:57:05",32,12.95,11.77,8.44,8.49,63.56,"$GPRMC,185702,A,6451.5806,N,14751.0351,W,000.0,111.5,130915,019.4,E","$GPGGA,185702,6451.5806,N,14751.0351,W,1,07,1.1,220.0,M,7.9,M,,",64,51.58,-147,-51.04,0,111.5,19.4,1,7,220,"NAN",0.19,0,0,0,99.4,"NAN",0,0,0,0,0
"2015-09-13 13:57:10",33,12.95,11.77,8.44,8.56,63.73,"$GPRMC,185707,A,6451.5804,N,14751.0338,W,000.0,111.5,130915,019.4,E","$GPGGA,185707,6451.5804,N,14751.0338,W,1,07,1.1,220.0,M,7.9,M,,",64,51.58,-147,-51.03,0,111.5,19.4,1,7,220,"NAN",0.16,0,0,0,99.4,"NAN",0,0,0,0,0
"2015-09-13 13:57:15",34,12.95,11.77,8.44,8.53,63.8,"$GPRMC,185712,A,6451.5804,N,14751.0321,W,000.0,111.5,130915,019.4,E","$GPGGA,185712,6451.5804,N,14751.0321,W,1,07,1.1,220.0,M,7.9,M,,",64,51.58,-147,-51.03,0,111.5,19.4,1,7,220,"NAN",0.18,0,0,0,99.4,"NAN",0,0,0,0,0
"2015-09-13 13:57:20",35,12.95,11.77,8.44,8.53,63.87,"$GPRMC,185717,A,6451.5800,N,14751.0312,W,000.0,111.5,130915,019.4,E","$GPGGA,185717,6451.5800,N,14751.0312,W,1,06,1.3,220.0,M,7.9,M,,",64,51.58,-147,-51.03,0,111.5,19.4,1,7,220,"NAN",0.19,0,0,0,99.4,"NAN",0,0,0,0,0
"2015-09-13 13:57:25",36,12.95,11.77,8.44,8.6,63.94,"$GPRMC,185722,A,6451.5798,N,14751.0308,W,000.0,115.7,130915,019.4,E","$GPGGA,185722,6451.5798,N,14751.0308,W,1,06,1.3,220.0,M,7.9,M,,",64,51.58,-147,-51.03,0,115.7,19.4,1,6,220,"NAN",0.2,0,0,0,99.4,"NAN",0,0,0,0,0
"2015-09-13 13:57:30",37,12.95,11.77,8.44,8.6,63.9,"$GPRMC,185727,A,6451.5798,N,14751.0312,W,000.0,115.7,130915,019.4,E","$GPGGA,185727,6451.5798,N,14751.0312,W,1,06,1.3,220.0,M,7.9,M,,",64,51.58,-147,-51.03,0,115.7,19.4,1,6,220,"NAN",0.22,0,0,0,99.4,"NAN",0,0,0,0,0
"2015-09-13 13:57:35",38,12.95,11.77,8.44,8.6,63.87,"$GPRMC,185732,A,6451.5800,N,14751.0311,W,000.0,115.7,130915,019.4,E","$GPGGA,185732,6451.5800,N,14751.0311,W,1,06,1.3,219.9,M,7.9,M,,",64,51.58,-147,-51.03,0,115.7,19.4,1,6,219.9,"NAN",0.23,0,0,0,99.4,"NAN",0,0,0,0,0
"2015-09-13 13:57:40",39,12.95,11.77,8.44,8.56,63.83,"$GPRMC,185737,A,6451.5800,N,14751.0297,W,000.0,115.7,130915,019.4,E","$GPGGA,185737,6451.5800,N,14751.0297,W,1,06,1.3,219.9,M,7.9,M,,",64,51.58,-147,-51.03,0,115.7,19.4,1,6,219.9,"NAN",0.22,0,0,0,99.4,"NAN",0,0,0,0,0
"2015-09-13 13:57:45",40,12.95,11.75,8.44,8.56,63.8,"$GPRMC,185742,A,6451.5800,N,14751.0295,W,000.0,115.7,130915,019.4,E","$GPGGA,185742,6451.5800,N,14751.0295,W,1,05,1.7,219.9,M,7.9,M,,",64,51.58,-147,-51.03,0,115.7,19.4,1,6,219.9,"NAN",0.22,0,0,0,99.4,"NAN",0,0,0,0,0
"2015-09-13 13:57:50",41,12.95,11.75,8.44,8.53,63.73,"$GPRMC,185747,A,6451.5801,N,14751.0297,W,000.0,115.7,130915,019.4,E","$GPGGA,185747,6451.5801,N,14751.0297,W,1,05,1.7,219.8,M,7.9,M,,",64,51.58,-147,-51.03,0,115.7,19.4,1,6,219.8,"NAN",0.22,0,0,0,99.4,"NAN",0,0,0,0,0
"2015-09-13 13:57:55",42,12.95,11.75,8.44,8.6,63.7,"$GPRMC,185752,A,6451.5802,N,14751.0298,W,000.0,115.7,130915,019.4,E","$GPGGA,185752,6451.5802,N,14751.0298,W,1,05,1.7,219.8,M,7.9,M,,",64,51.58,-147,-51.03,0,115.7,19.4,1,5,219.8,"NAN",0.22,0,0,0,99.4,"NAN",0,0,0,0,0
"2015-09-13 13:58:00",43,12.95,11.75,8.44,8.56,63.63,"$GPRMC,185757,A,6451.5806,N,14751.0301,W,000.0,115.7,130915,019.4,E","$GPGGA,185757,6451.5806,N,14751.0301,W,1,06,1.3,219.8,M,7.9,M,,",64,51.58,-147,-51.03,0,115.7,19.4,1,6,219.8,"NAN",0.23,0,0,0,99.4,"NAN",0,0,0,0,0
"2015-09-13 13:58:05",44,12.95,11.75,8.1,8.56,63.6,"$GPRMC,185802,A,6451.5811,N,14751.0258,W,001.0,087.9,130915,019.4,E","$GPGGA,185802,6451.5811,N,14751.0258,W,1,06,1.3,219.2,M,7.9,M,,",64,51.58,-147,-51.03,0,106.1,19.4,1,6,219.3,"NAN",0.23,0,0,0,99.4,"NAN",0,0,0,0,0
"2015-09-13 13:58:10",45,12.95,11.75,8.1,8.56,63.49,"$GPRMC,185807,A,6451.5820,N,14751.0258,W,000.0,338.4,130915,019.4,E","$GPGGA,185807,6451.5820,N,14751.0258,W,1,06,1.3,218.8,M,7.9,M,,",64,51.58,-147,-51.03,0,338.4,19.4,1,6,218.9,"NAN",0.22,0,0,0,99.4,"NAN",0,0,0,0,0
"2015-09-13 13:58:15",46,12.96,11.75,8.1,8.56,63.53,"$GPRMC,185812,A,6451.5827,N,14751.0226,W,000.0,095.4,130915,019.4,E","$GPGGA,185812,6451.5827,N,14751.0226,W,1,05,1.7,218.4,M,7.9,M,,",64,51.58,-147,-51.02,0,95.4,19.4,1,6,218.5,"NAN",0.2,0,0,0,99.4,"NAN",0,0,0,0,0
"2015-09-13 13:58:20",47,12.95,11.75,8.1,8.6,63.53,"$GPRMC,185817,A,6451.5852,N,14751.0165,W,000.0,095.4,130915,019.4,E","$GPGGA,185817,6451.5852,N,14751.0165,W,1,06,1.3,218.0,M,7.9,M,,",64,51.58,-147,-51.02,0,95.4,19.4,1,6,218.1,"NAN",0.23,0,0,0,99.4,"NAN",0,0,0,0,0
"2015-09-13 13:58:25",48,12.96,11.75,8.44,8.6,63.56,"$GPRMC,185822,A,6451.5880,N,14751.0104,W,001.3,083.4,130915,019.4,E","$GPGGA,185822,6451.5880,N,14751.0104,W,1,06,1.3,217.7,M,7.9,M,,",64,51.59,-147,-51.01,1.7,84.5,19.4,1,6,217.8,"NAN",0.22,0,0,0,99.4,"NAN",0,0,0,0,0
"2015-09-13 13:58:30",49,12.95,11.75,8.44,8.53,63.6,"$GPRMC,185827,A,6451.5887,N,14751.0096,W,000.0,008.1,130915,019.4,E","$GPGGA,185827,6451.5887,N,14751.0096,W,1,06,1.3,217.4,M,7.9,M,,",64,51.59,-147,-51.01,0,8.1,19.4,1,6,217.4,"NAN",0.23,0,0,0,99.4,"NAN",0,0,0,0,0
"2015-09-13 13:58:35",50,12.96,11.73,8.44,8.56,63.6,"$GPRMC,185832,A,6451.5899,N,14751.0067,W,000.0,008.1,130915,019.4,E","$GPGGA,185832,6451.5899,N,14751.0067,W,1,06,1.3,217.3,M,7.9,M,,",64,51.59,-147,-51.01,0,8.1,19.4,1,6,217.3,"NAN",0.23,0,0,0,99.4,"NAN",0,0,0,0,0
"2015-09-13 13:58:40",51,12.96,11.73,8.44,8.53,63.56,"$GPRMC,185837,A,6451.5907,N,14751.0054,W,000.0,008.1,130915,019.4,E","$GPGGA,185837,6451.5907,N,14751.0054,W,1,07,1.1,217.4,M,7.9,M,,",64,51.59,-147,-51.01,0,8.1,19.4,1,6,217.4,"NAN",0.19,0,0,0,99.4,"NAN",0,0,0,0,0
"2015-09-13 13:58:45",52,12.96,11.73,8.44,8.56,63.56,"$GPRMC,185842,A,6451.5911,N,14751.0049,W,000.0,008.1,130915,019.4,E","$GPGGA,185842,6451.5911,N,14751.0049,W,1,06,1.3,217.4,M,7.9,M,,",64,51.59,-147,-51.01,0,8.1,19.4,1,6,217.4,"NAN",0.2,0,0,0,99.4,"NAN",0,0,0,0,0
"2015-09-13 13:58:50",53,12.96,11.73,8.44,8.56,63.56,"$GPRMC,185847,A,6451.5911,N,14751.0041,W,000.0,008.1,130915,019.4,E","$GPGGA,185847,6451.5911,N,14751.0041,W,1,06,1.3,217.4,M,7.9,M,,",64,51.59,-147,-51,0,8.1,19.4,1,6,217.4,"NAN",0.19,0,0,0,99.4,"NAN",0,0,0,0,0
"2015-09-13 13:58:55",54,12.95,11.73,8.44,8.6,63.6,"$GPRMC,185852,A,6451.5911,N,14751.0036,W,000.0,008.1,130915,019.4,E","$GPGGA,185852,6451.5911,N,14751.0036,W,1,06,1.5,217.5,M,7.9,M,,",64,51.59,-147,-51,0,8.1,19.4,1,6,217.4,"NAN",0.23,0,0,0,99.4,"NAN",0,0,0,0,0
"2015-09-13 13:59:00",55,12.96,11.73,8.78,8.56,63.53,"$GPRMC,185857,A,6451.5911,N,14751.0038,W,000.0,008.1,130915,019.4,E","$GPGGA,185857,6451.5911,N,14751.0038,W,1,07,1.1,217.5,M,7.9,M,,",64,51.59,-147,-51,0,8.1,19.4,1,6,217.5,"NAN",0.19,0,0,0,99.4,"NAN",0,0,0,0,0
"2015-09-13 13:59:05",56,12.96,11.73,8.78,8.56,63.53,"$GPRMC,185902,A,6451.5926,N,14751.0008,W,000.0,008.1,130915,019.4,E","$GPGGA,185902,6451.5926,N,14751.0008,W,1,07,1.2,218.8,M,7.9,M,,",64,51.59,-147,-51,0,8.1,19.4,1,6,218.4,"NAN",0.17,0,0,0,99.4,"NAN",0,0,0,0,0
"2015-09-13 13:59:10",57,12.96,11.73,8.78,8.53,63.39,"$GPRMC,185907,A,6451.5927,N,14751.0005,W,000.0,008.1,130915,019.4,E","$GPGGA,185907,6451.5927,N,14751.0005,W,1,07,1.1,219.2,M,7.9,M,,",64,51.59,-147,-51,0,8.1,19.4,1,7,219.1,"NAN",0.18,0,0,0,99.4,"NAN",0,0,0,0,0
"2015-09-13 13:59:15",58,12.96,11.73,8.78,8.56,63.46,"$GPRMC,185912,A,6451.5916,N,14750.9994,W,000.0,008.1,130915,019.4,E","$GPGGA,185912,6451.5916,N,14750.9994,W,1,06,1.3,219.5,M,7.9,M,,",64,51.59,-147,-51,0,8.1,19.4,1,6,219.5,"NAN",0.19,0,0,0,99.4,"NAN",0,0,0,0,0
"2015-09-13 13:59:20",59,12.95,11.73,8.78,8.56,63.46,"$GPRMC,185917,A,6451.5915,N,14750.9996,W,000.0,008.1,130915,019.4,E","$GPGGA,185917,6451.5915,N,14750.9996,W,1,06,1.3,219.6,M,7.9,M,,",64,51.59,-147,-51,0,8.1,19.4,1,6,219.6,"NAN",0.23,0,0,0,99.4,"NAN",0,0,0,0,0
"2015-09-13 13:59:25",60,12.96,11.73,8.78,8.56,63.49,"$GPRMC,185922,A,6451.5901,N,14750.9973,W,000.0,008.1,130915,019.4,E","$GPGGA,185922,6451.5901,N,14750.9973,W,1,06,1.3,219.6,M,7.9,M,,",64,51.59,-147,-51,0,8.1,19.4,1,6,219.5,"NAN",0.2,0,0,0,99.4,"NAN",0,0,0,0,0
"2015-09-13 13:59:30",61,12.96,11.73,9.12,8.53,63.56,"$GPRMC,185927,A,6451.5897,N,14750.9974,W,000.0,008.1,130915,019.4,E","$GPGGA,185927,6451.5897,N,14750.9974,W,1,06,1.3,219.6,M,7.9,M,,",64,51.59,-147,-51,0,8.1,19.4,1,6,219.6,"NAN",0.21,0,0,0,99.4,"NAN",0,0,0,0,0
"2015-09-13 13:59:35",62,12.96,11.73,9.12,8.56,63.6,"$GPRMC,185932,A,6451.5887,N,14750.9980,W,000.0,140.2,130915,019.4,E","$GPGGA,185932,6451.5887,N,14750.9980,W,1,06,1.3,219.7,M,7.9,M,,",64,51.59,-147,-51,0,140.2,19.4,1,6,219.6,"NAN",0.18,0,0,0,99.4,"NAN",0,0,0,0,0
"2015-09-13 13:59:40",63,12.96,11.73,9.12,8.53,63.56,"$GPRMC,185937,A,6451.5881,N,14750.9984,W,000.0,140.2,130915,019.4,E","$GPGGA,185937,6451.5881,N,14750.9984,W,1,06,1.3,220.0,M,7.9,M,,",64,51.59,-147,-51,0,140.2,19.4,1,6,219.9,"NAN",0.2,0,0,0,99.4,"NAN",0,0,0,0,0
"2015-09-13 13:59:45",64,12.96,11.73,9.12,8.53,63.56,"$GPRMC,185942,A,6451.5877,N,14751.0000,W,000.0,140.2,130915,019.4,E","$GPGGA,185942,6451.5877,N,14751.0000,W,1,06,1.3,220.1,M,7.9,M,,",64,51.59,-147,-51,0,140.2,19.4,1,6,220,"NAN",0.19,0,0,0,99.4,"NAN",0,0,0,0,0
"2015-09-13 13:59:50",65,12.96,11.73,9.12,8.53,63.46,"$GPRMC,185947,A,6451.5873,N,14750.9996,W,000.0,140.2,130915,019.4,E","$GPGGA,185947,6451.5873,N,14750.9996,W,1,07,1.1,220.1,M,7.9,M,,",64,51.59,-147,-51,0,140.2,19.4,1,6,220.1,"NAN",0.17,0,0,0,99.4,"NAN",0,0,0,0,0
"2015-09-13 13:59:55",66,12.96,11.73,9.12,8.53,63.43,"$GPRMC,185952,A,6451.5874,N,14750.9999,W,000.0,140.2,130915,019.4,E","$GPGGA,185952,6451.5874,N,14750.9999,W,1,08,1.0,220.1,M,7.9,M,,",64,51.59,-147,-51,0,140.2,19.4,1,8,220.1,"NAN",0.19,0,0,0,99.4,"NAN",0,0,0,0,0
"2015-09-13 14:00:00",67,12.96,11.73,9.12,8.56,63.36,"$GPRMC,185957,A,6451.5876,N,14751.0000,W,000.0,140.2,130915,019.4,E","$GPGGA,185957,6451.5876,N,14751.0000,W,1,08,1.0,220.1,M,7.9,M,,",64,51.59,-147,-51,0,140.2,19.4,1,8,220.1,"NAN",0.17,0,0,0,99.4,"NAN",0,0,0,0,0
"2015-09-13 14:00:05",68,12.95,11.73,9.12,8.5,63.29,"$GPRMC,190002,A,6451.5879,N,14751.0070,W,001.8,294.8,130915,019.4,E","$GPGGA,190002,6451.5879,N,14751.0070,W,1,08,1.0,220.5,M,7.9,M,,",64,51.59,-147,-51.01,1.2,294.1,19.4,1,8,220.5,"NAN",0.2,0,0,0,99.4,"NAN",0,0,0,0,0
"2015-09-13 14:00:10",69,12.96,11.73,9.12,8.53,63.22,"$GPRMC,190007,A,6451.5886,N,14751.0119,W,001.4,299.3,130915,019.4,E","$GPGGA,190007,6451.5886,N,14751.0119,W,1,08,1.0,220.8,M,7.9,M,,",64,51.59,-147,-51.01,1.1,297.9,19.4,1,7,220.8,"NAN",0.21,0,0,0,99.4,"NAN",0,0,0,0,0
"2015-09-13 14:00:15",70,12.96,11.73,9.12,8.56,63.12,"$GPRMC,190012,A,6451.5887,N,14751.0146,W,000.0,299.3,130915,019.4,E","$GPGGA,190012,6451.5887,N,14751.0146,W,1,08,1.0,220.9,M,7.9,M,,",64,51.59,-147,-51.01,0,299.3,19.4,1,8,220.9,"NAN",0.17,0,0,0,99.4,"NAN",0,0,0,0,0
"2015-09-13 14:00:20",71,12.95,11.73,9.12,8.53,63.02,"$GPRMC,190017,A,6451.5888,N,14751.0154,W,000.0,299.3,130915,019.4,E","$GPGGA,190017,6451.5888,N,14751.0154,W,1,08,1.0,220.9,M,7.9,M,,",64,51.59,-147,-51.02,0,299.3,19.4,1,8,220.9,"NAN",0.17,0,0,0,99.4,"NAN",0,0,0,0,0
"2015-09-13 14:00:25",72,12.96,11.73,9.12,8.56,62.88,"$GPRMC,190022,A,6451.5886,N,14751.0176,W,000.0,299.3,130915,019.4,E","$GPGGA,190022,6451.5886,N,14751.0176,W,1,07,1.3,221.4,M,7.9,M,,",64,51.59,-147,-51.02,0,299.3,19.4,1,7,221.3,"NAN",0.17,0,0,0,99.4,"NAN",0,0,0,0,0
"2015-09-13 14:00:30",73,12.96,11.73,9.12,8.53,62.85,"$GPRMC,190027,A,6451.5886,N,14751.0182,W,001.2,095.8,130915,019.4,E","$GPGGA,190027,6451.5886,N,14751.0182,W,1,07,1.3,221.8,M,7.9,M,,",64,51.59,-147,-51.02,1.2,94.4,19.4,1,7,221.7,"NAN",0.17,0,0,0,99.4,"NAN",0,0,0,0,0
"2015-09-13 14:00:35",74,12.96,11.73,9.12,8.6,62.78,"$GPRMC,190032,A,6451.5889,N,14751.0177,W,000.0,095.8,130915,019.4,E","$GPGGA,190032,6451.5889,N,14751.0177,W,1,07,1.3,221.7,M,7.9,M,,",64,51.59,-147,-51.02,0,95.8,19.4,1,7,221.8,"NAN",0.18,0,0,0,99.4,"NAN",0,0,0,0,0
"2015-09-13 14:00:40",75,12.96,11.73,9.12,8.53,62.72,"$GPRMC,190037,A,6451.5889,N,14751.0166,W,000.0,095.8,130915,019.4,E","$GPGGA,190037,6451.5889,N,14751.0166,W,1,07,1.3,221.8,M,7.9,M,,",64,51.59,-147,-51.02,0,95.8,19.4,1,7,221.8,"NAN",0.17,0,0,0,99.4,"NAN",0,0,0,0,0
"2015-09-13 14:00:45",76,12.96,11.73,9.12,8.53,62.68,"$GPRMC,190042,A,6451.5887,N,14751.0152,W,000.0,313.6,130915,019.4,E","$GPGGA,190042,6451.5887,N,14751.0152,W,1,07,1.3,221.9,M,7.9,M,,",64,51.59,-147,-51.02,0,313.6,19.4,1,7,221.9,"NAN",0.19,0,0,0,99.4,"NAN",0,0,0,0,0
"2015-09-13 14:00:50",77,12.96,11.73,9.12,8.53,62.58,"$GPRMC,190047,A,6451.5888,N,14751.0156,W,000.0,307.1,130915,019.4,E","$GPGGA,190047,6451.5888,N,14751.0156,W,1,07,1.3,222.2,M,7.9,M,,",64,51.59,-147,-51.02,1.4,307.1,19.4,1,7,222.1,"NAN",0.2,0,0,0,99.4,"NAN",0,0,0,0,0
"2015-09-13 14:00:55",78,12.96,11.73,8.78,8.56,62.58,"$GPRMC,190052,A,6451.5879,N,14751.0134,W,001.0,125.5,130915,019.4,E","$GPGGA,190052,6451.5879,N,14751.0134,W,1,07,1.3,222.5,M,7.9,M,,",64,51.59,-147,-51.01,0.9,125.3,19.4,1,7,222.4,"NAN",0.18,0,0,0,99.4,"NAN",0,0,0,0,0
"2015-09-13 14:01:00",79,12.96,11.73,8.78,8.5,62.55,"$GPRMC,190057,A,6451.5875,N,14751.0099,W,000.0,125.5,130915,019.4,E","$GPGGA,190057,6451.5875,N,14751.0099,W,1,07,1.3,222.8,M,7.9,M,,",64,51.59,-147,-51.01,0,125.5,19.4,1,7,222.7,"NAN",0.18,0,0,0,99.4,"NAN",0,0,0,0,0
"2015-09-13 14:01:05",80,12.94,11.73,8.78,8.53,62.51,"$GPRMC,190102,A,6451.5885,N,14751.0068,W,000.0,125.5,130915,019.4,E","$GPGGA,190102,6451.5885,N,14751.0068,W,1,07,1.3,223.4,M,7.9,M,,",64,51.59,-147,-51.01,0,125.5,19.4,1,7,223.3,"NAN",0.18,0,0,0,99.4,"NAN",0,0,0,0,0
"2015-09-13 14:01:10",81,12.94,11.73,8.44,8.53,62.44,"$GPRMC,190107,A,6451.5912,N,14751.0113,W,001.3,111.2,130915,019.4,E","$GPGGA,190107,6451.5912,N,14751.0113,W,1,07,1.3,224.0,M,7.9,M,,",64,51.59,-147,-51.01,1.6,309.1,19.4,1,7,223.9,"NAN",0.18,0,0,0,99.4,"NAN",0,0,0,0,0
"2015-09-13 14:01:15",82,12.94,11.73,8.44,8.53,62.48,"$GPRMC,190112,A,6451.5924,N,14751.0101,W,000.0,114.2,130915,019.4,E","$GPGGA,190112,6451.5924,N,14751.0101,W,1,07,1.3,224.6,M,7.9,M,,",64,51.59,-147,-51.01,0,114.2,19.4,1,7,224.4,"NAN",0.19,0,0,0,99.4,"NAN",0,0,0,0,0
"2015-09-13 14:01:20",83,12.94,11.73,8.1,8.53,62.44,"$GPRMC,190117,A,6451.5924,N,14751.0100,W,000.0,114.2,130915,019.4,E","$GPGGA,190117,6451.5924,N,14751.0100,W,1,07,1.3,224.7,M,7.9,M,,",64,51.59,-147,-51.01,0,114.2,19.4,1,7,224.7,"NAN",0.22,0,0,0,99.4,"NAN",0,0,0,0,0
"2015-09-13 14:01:25",84,12.94,11.73,8.1,8.53,62.44,"$GPRMC,190122,A,6451.5921,N,14751.0095,W,000.0,114.2,130915,019.4,E","$GPGGA,190122,6451.5921,N,14751.0095,W,1,07,1.3,224.7,M,7.9,M,,",64,51.59,-147,-51.01,0,114.2,19.4,1,7,224.7,"NAN",0.22,0,0,0,99.4,"NAN",0,0,0,0,0
"2015-09-13 14:01:30",85,12.94,11.73,7.765,8.53,62.44,"$GPRMC,190127,A,6451.5919,N,14751.0096,W,000.0,114.2,130915,019.4,E","$GPGGA,190127,6451.5919,N,14751.0096,W,1,07,1.3,224.8,M,7.9,M,,",64,51.59,-147,-51.01,0,114.2,19.4,1,7,224.7,"NAN",0.19,0,0,0,99.4,"NAN",0,0,0,0,0
"2015-09-13 14:01:35",86,12.94,11.73,7.765,8.53,62.44,"$GPRMC,190132,A,6451.5906,N,14751.0088,W,000.0,121.1,130915,019.4,E","$GPGGA,190132,6451.5906,N,14751.0088,W,1,07,1.3,224.9,M,7.9,M,,",64,51.59,-147,-51.01,0,121.1,19.4,1,7,224.8,"NAN",0.23,0,0,0,99.4,"NAN",0,0,0,0,0
"2015-09-13 14:01:40",87,12.93,11.73,7.765,8.5,62.48,"$GPRMC,190137,A,6451.5895,N,14751.0087,W,000.0,121.1,130915,019.4,E","$GPGGA,190137,6451.5895,N,14751.0087,W,1,07,1.3,224.9,M,7.9,M,,",64,51.59,-147,-51.01,0,121.1,19.4,1,7,224.9,"NAN",0.17,0,0,0,99.4,"NAN",0,0,0,0,0
"2015-09-13 14:01:45",88,12.93,11.73,7.765,8.5,62.55,"$GPRMC,190142,A,6451.5886,N,14751.0114,W,001.4,288.2,130915,019.4,E","$GPGGA,190142,6451.5886,N,14751.0114,W,1,07,1.3,224.7,M,7.9,M,,",64,51.59,-147,-51.01,1.5,288.8,19.4,1,6,224.8,"NAN",0.19,0,0,0,99.4,"NAN",0,0,0,0,0
"2015-09-13 14:01:50",89,12.93,11.7,7.765,8.53,62.65,"$GPRMC,190147,A,6451.5870,N,14751.0119,W,001.2,134.7,130915,019.4,E","$GPGGA,190147,6451.5870,N,14751.0119,W,1,07,1.3,224.3,M,7.9,M,,",64,51.59,-147,-51.01,1.1,134,19.4,1,7,224.4,"NAN",0.19,0,0,0,99.4,"NAN",0,0,0,0,0
"2015-09-13 14:01:55",90,12.93,11.7,8.1,8.53,62.85,"$GPRMC,190152,A,6451.5863,N,14751.0111,W,000.0,134.7,130915,019.4,E","$GPGGA,190152,6451.5863,N,14751.0111,W,1,07,1.3,224.0,M,7.9,M,,",64,51.59,-147,-51.01,0,134.7,19.4,1,7,224,"NAN",0.2,0,0,0,99.4,"NAN",0,0,0,0,0
"2015-09-13 14:02:00",91,12.93,11.7,8.1,8.53,62.99,"$GPRMC,190157,A,6451.5863,N,14751.0116,W,000.0,308.7,130915,019.4,E","$GPGGA,190157,6451.5863,N,14751.0116,W,1,07,1.3,224.1,M,7.9,M,,",64,51.59,-147,-51.01,0,308.7,19.4,1,7,224,"NAN",0.17,0,0,0,99.4,"NAN",0,0,0,0,0
"2015-09-13 14:02:05",92,12.93,11.7,8.1,8.5,63.16,"$GPRMC,190202,A,6451.5852,N,14751.0206,W,000.0,287.3,130915,019.4,E","$GPGGA,190202,6451.5852,N,14751.0206,W,1,07,1.3,224.7,M,7.9,M,,",64,51.59,-147,-51.02,1.5,287.3,19.4,1,7,224.5,"NAN",0.19,0,0,0,99.4,"NAN",0,0,0,0,0
"2015-09-13 14:02:10",93,12.94,11.7,8.44,8.5,63.26,"$GPRMC,190207,A,6451.5845,N,14751.0254,W,000.0,287.3,130915,019.4,E","$GPGGA,190207,6451.5845,N,14751.0254,W,1,07,1.3,224.9,M,7.9,M,,",64,51.58,-147,-51.03,0,287.3,19.4,1,7,224.9,"NAN",0.19,0,0,0,99.4,"NAN",0,0,0,0,0
"2015-09-13 14:02:15",94,12.94,11.7,8.44,8.5,63.33,"$GPRMC,190212,A,6451.5847,N,14751.0308,W,001.2,281.8,130915,019.4,E","$GPGGA,190212,6451.5847,N,14751.0308,W,1,07,1.3,225.3,M,7.9,M,,",64,51.58,-147,-51.03,1.2,283.5,19.4,1,7,225.2,"NAN",0.19,0,0,0,99.4,"NAN",0,0,0,0,0
"2015-09-13 14:02:20",95,12.94,11.7,8.44,8.46,63.22,"$GPRMC,190217,A,6451.5846,N,14751.0351,W,001.0,284.7,130915,019.4,E","$GPGGA,190217,6451.5846,N,14751.0351,W,1,07,1.3,225.6,M,7.9,M,,",64,51.58,-147,-51.03,0,288.7,19.4,1,7,225.6,"NAN",0.22,0,0,0,99.4,"NAN",0,0,0,0,0
"2015-09-13 14:02:25",96,12.94,11.7,8.44,8.46,63.12,"$GPRMC,190222,A,6451.5846,N,14751.0393,W,001.0,275.9,130915,019.4,E","$GPGGA,190222,6451.5846,N,14751.0393,W,1,07,1.3,226.0,M,7.9,M,,",64,51.58,-147,-51.04,1,283.3,19.4,1,7,225.9,"NAN",0.2,0,0,0,99.4,"NAN",0,0,0,0,0
"2015-09-13 14:02:30",97,12.94,11.7,8.78,8.46,63.02,"$GPRMC,190227,A,6451.5858,N,14751.0421,W,000.0,275.9,130915,019.4,E","$GPGGA,190227,6451.5858,N,14751.0421,W,1,07,1.3,226.6,M,7.9,M,,",64,51.59,-147,-51.04,0,275.9,19.4,1,7,226.5,"NAN",0.17,0,0,0,99.4,"NAN",0,0,0,0,0
"2015-09-13 14:02:35",98,12.94,11.7,8.78,8.53,63.05,"$GPRMC,190232,A,6451.5875,N,14751.0427,W,000.0,275.9,130915,019.4,E","$GPGGA,190232,6451.5875,N,14751.0427,W,1,07,1.3,227.2,M,7.9,M,,",64,51.59,-147,-51.04,0,275.9,19.4,1,7,227.1,"NAN",0.19,0,0,0,99.4,"NAN",0,0,0,0,0
"2015-09-13 14:02:40",99,12.94,11.7,8.78,8.46,63.12,"$GPRMC,190237,A,6451.5876,N,14751.0423,W,000.9,311.8,130915,019.4,E","$GPGGA,190237,6451.5876,N,14751.0423,W,1,07,1.3,227.5,M,7.9,M,,",64,51.59,-147,-51.04,0,275.9,19.4,1,7,227.4,"NAN",0.19,0,0,0,99.4,"NAN",0,0,0,0,0
"2015-09-13 14:02:45",100,12.94,11.7,8.78,8.5,63.12,"$GPRMC,190242,A,6451.5873,N,14751.0408,W,000.0,308.0,130915,019.4,E","$GPGGA,190242,6451.5873,N,14751.0408,W,1,07,1.3,227.6,M,7.9,M,,",64,51.59,-147,-51.04,0,308,19.4,1,7,227.6,"NAN",0.18,0,0,0,99.4,"NAN",0,0,0,0,0
"2015-09-13 14:02:50",101,12.94,11.7,9.12,8.46,63.12,"$GPRMC,190247,A,6451.5864,N,14751.0387,W,000.0,311.7,130915,019.4,E","$GPGGA,190247,6451.5864,N,14751.0387,W,1,07,1.3,227.6,M,7.9,M,,",64,51.59,-147,-51.04,0,311.7,19.4,1,7,227.6,"NAN",0.18,0,0,0,99.4,"NAN",0,0,0,0,0
"2015-09-13 14:02:55",102,12.94,11.7,9.12,8.5,63.09,"$GPRMC,190252,A,6451.5856,N,14751.0357,W,000.0,311.7,130915,019.4,E","$GPGGA,190252,6451.5856,N,14751.0357,W,1,07,1.3,227.6,M,7.9,M,,",64,51.59,-147,-51.04,0,311.7,19.4,1,7,227.5,"NAN",0.16,0,0,0,99.4,"NAN",0,0,0,0,0
"2015-09-13 14:03:00",103,12.94,11.7,9.12,8.46,63.23,"$GPRMC,190257,A,6451.5854,N,14751.0363,W,000.0,299.6,130915,019.4,E","$GPGGA,190257,6451.5854,N,14751.0363,W,1,07,1.3,227.6,M,7.9,M,,",64,51.59,-147,-51.04,1.1,299.6,19.4,1,7,227.6,"NAN",0.18,0,0,0,99.4,"NAN",0,0,0,0,0
"2015-09-13 14:03:05",104,12.94,11.7,9.12,8.43,63.39,"$GPRMC,190302,A,6451.5843,N,14751.0361,W,001.6,297.8,130915,019.4,E","$GPGGA,190302,6451.5843,N,14751.0361,W,1,07,1.3,227.7,M,7.9,M,,",64,51.58,-147,-51.04,1.1,297.8,19.4,1,7,227.7,"NAN",0.22,0,0,0,99.4,"NAN",0,0,0,0,0
"2015-09-13 14:03:10",105,12.94,11.7,9.12,8.46,63.46,"$GPRMC,190307,A,6451.5814,N,14751.0392,W,000.0,282.9,130915,019.4,E","$GPGGA,190307,6451.5814,N,14751.0392,W,1,06,1.4,228.0,M,7.9,M,,",64,51.58,-147,-51.04,0,282.9,19.4,1,6,228,"NAN",0.2,0,0,0,99.4,"NAN",0,0,0,0,0
"2015-09-13 14:03:15",106,12.94,11.7,9.45,8.43,63.46,"$GPRMC,190312,A,6451.5804,N,14751.0393,W,000.0,145.0,130915,019.4,E","$GPGGA,190312,6451.5804,N,14751.0393,W,1,06,1.4,228.2,M,7.9,M,,",64,51.58,-147,-51.04,1,145,19.4,1,6,228.2,"NAN",0.22,0,0,0,99.4,"NAN",0,0,0,0,0
"2015-09-13 14:03:20",107,12.94,11.7,9.45,8.43,63.46,"$GPRMC,190317,A,6451.5811,N,14751.0381,W,000.0,145.0,130915,019.4,E","$GPGGA,190317,6451.5811,N,14751.0381,W,1,06,1.4,228.4,M,7.9,M,,",64,51.58,-147,-51.04,0,145,19.4,1,6,228.4,"NAN",0.23,0,0,0,99.4,"NAN",0,0,0,0,0
"2015-09-13 14:03:25",108,12.94,11.7,9.45,8.39,63.39,"$GPRMC,190322,A,6451.5816,N,14751.0376,W,000.9,341.9,130915,019.4,E","$GPGGA,190322,6451.5816,N,14751.0376,W,1,06,1.4,228.4,M,7.9,M,,",64,51.58,-147,-51.04,0,145,19.4,1,6,228.4,"NAN",0.19,0,0,0,99.4,"NAN",0,0,0,0,0
"2015-09-13 14:03:30",109,12.94,11.68,9.45,8.39,63.39,"$GPRMC,190327,A,6451.5861,N,14751.0390,W,000.0,330.7,130915,019.4,E","$GPGGA,190327,6451.5861,N,14751.0390,W,1,06,1.4,229.1,M,7.9,M,,",64,51.59,-147,-51.04,0,330.7,19.4,1,6,229,"NAN",0.19,0,0,0,99.4,"NAN",0,0,0,0,0
"2015-09-13 14:03:35",110,12.94,11.68,9.45,8.46,63.26,"$GPRMC,190332,A,6451.5878,N,14751.0377,W,001.1,348.7,130915,019.4,E","$GPGGA,190332,6451.5878,N,14751.0377,W,1,06,1.4,229.5,M,7.9,M,,",64,51.59,-147,-51.04,0.9,22.5,19.4,1,6,229.4,"NAN",0.23,0,0,0,99.4,"NAN",0,0,0,0,0
"2015-09-13 14:03:40",111,12.94,11.68,9.45,8.43,63.26,"$GPRMC,190337,A,6451.5882,N,14751.0409,W,002.0,313.0,130915,019.4,E","$GPGGA,190337,6451.5882,N,14751.0409,W,1,06,1.4,229.9,M,7.9,M,,",64,51.59,-147,-51.04,2.1,314.3,19.4,1,6,229.8,"NAN",0.23,0,0,0,99.4,"NAN",0,0,0,0,0
"2015-09-13 14:03:45",112,12.94,11.68,9.45,8.39,63.19,"$GPRMC,190342,A,6451.5889,N,14751.0375,W,000.0,313.7,130915,019.4,E","$GPGGA,190342,6451.5889,N,14751.0375,W,1,06,1.6,230.0,M,7.9,M,,",64,51.59,-147,-51.04,0,313.7,19.4,1,6,230,"NAN",0.23,0,0,0,99.4,"NAN",0,0,0,0,0
"2015-09-13 14:03:50",113,12.94,11.68,9.45,8.43,63.19,"$GPRMC,190347,A,6451.5877,N,14751.0342,W,000.0,313.7,130915,019.4,E","$GPGGA,190347,6451.5877,N,14751.0342,W,1,06,1.4,230.0,M,7.9,M,,",64,51.59,-147,-51.04,0,313.7,19.4,1,6,230,"NAN",0.19,0,0,0,99.4,"NAN",0,0,0,0,0
"2015-09-13 14:03:55",114,12.94,11.68,9.45,8.43,63.19,"$GPRMC,190352,A,6451.5891,N,14751.0319,W,000.0,313.7,130915,019.4,E","$GPGGA,190352,6451.5891,N,14751.0319,W,1,06,1.4,230.0,M,7.9,M,,",64,51.59,-147,-51.03,0,313.7,19.4,1,6,230,"NAN",0.2,0,0,0,99.4,"NAN",0,0,0,0,0
"2015-09-13 14:04:00",115,12.94,11.68,9.45,8.43,63.16,"$GPRMC,190357,A,6451.5896,N,14751.0308,W,000.0,313.7,130915,019.4,E","$GPGGA,190357,6451.5896,N,14751.0308,W,1,06,1.6,230.0,M,7.9,M,,",64,51.59,-147,-51.03,0,313.7,19.4,1,6,230,"NAN",0.23,0,0,0,99.4,"NAN",0,0,0,0,0
"2015-09-13 14:04:05",116,12.94,11.68,9.45,8.39,63.16,"$GPRMC,190402,A,6451.5904,N,14751.0288,W,000.9,322.9,130915,019.4,E","$GPGGA,190402,6451.5904,N,14751.0288,W,1,06,1.4,230.0,M,7.9,M,,",64,51.59,-147,-51.03,1.1,322.3,19.4,1,6,230,"NAN",0.23,0,0,0,99.4,"NAN",0,0,0,0,0
"2015-09-13 14:04:10",117,12.94,11.68,9.45,8.43,63.26,"$GPRMC,190407,A,6451.5904,N,14751.0253,W,000.0,322.9,130915,019.4,E","$GPGGA,190407,6451.5904,N,14751.0253,W,1,06,1.4,230.1,M,7.9,M,,",64,51.59,-147,-51.03,0,322.9,19.4,1,6,230,"NAN",0.23,0,0,0,99.4,"NAN",0,0,0,0,0
"2015-09-13 14:04:15",118,12.94,11.68,9.12,8.39,63.33,"$GPRMC,190412,A,6451.5903,N,14751.0250,W,000.0,302.5,130915,019.4,E","$GPGGA,190412,6451.5903,N,14751.0250,W,1,06,1.4,230.2,M,7.9,M,,",64,51.59,-147,-51.03,0,302.5,19.4,1,6,230.1,"NAN",0.23,0,0,0,99.4,"NAN",0,0,0,0,0
"2015-09-13 14:04:20",119,12.94,11.68,9.12,8.36,63.46,"$GPRMC,190417,A,6451.5903,N,14751.0245,W,000.0,305.4,130915,019.4,E","$GPGGA,190417,6451.5903,N,14751.0245,W,1,06,1.4,230.3,M,7.9,M,,",64,51.59,-147,-51.03,1,305.4,19.4,1,6,230.2,"NAN",0.24,0,0,0,99.4,"NAN",0,0,0,0,0
"2015-09-13 14:04:25",120,12.94,11.68,9.12,8.39,63.46,"$GPRMC,190422,A,6451.5894,N,14751.0201,W,000.0,112.3,130915,019.4,E","$GPGGA,190422,6451.5894,N,14751.0201,W,1,06,1.4,230.3,M,7.9,M,,",64,51.59,-147,-51.02,1.1,112.3,19.4,1,6,230.3,"NAN",0.2,0,0,0,99.4,"NAN",0,0,0,0,0
"2015-09-13 14:04:30",121,12.94,11.68,9.12,8.43,63.5,"$GPRMC,190427,A,6451.5896,N,14751.0218,W,000.0,111.5,130915,019.4,E","$GPGGA,190427,6451.5896,N,14751.0218,W,1,06,1.4,230.5,M,7.9,M,,",64,51.59,-147,-51.02,1,111.5,19.4,1,6,230.5,"NAN",0.24,0,0,0,99.4,"NAN",0,0,0,0,0
"2015-09-13 14:04:35",122,12.94,11.68,9.12,8.39,63.46,"$GPRMC,190432,A,6451.5902,N,14751.0220,W,001.9,107.8,130915,019.4,E","$GPGGA,190432,6451.5902,N,14751.0220,W,1,06,1.4,230.8,M,7.9,M,,",64,51.59,-147,-51.02,1,106.6,19.4,1,6,230.7,"NAN",0.23,0,0,0,99.4,"NAN",0,0,0,0,0
"2015-09-13 14:04:40",123,12.94,11.68,9.12,8.39,63.53,"$GPRMC,190437,A,6451.5906,N,14751.0197,W,001.0,107.5,130915,019.4,E","$GPGGA,190437,6451.5906,N,14751.0197,W,1,06,1.4,231.0,M,7.9,M,,",64,51.59,-147,-51.02,0,108.9,19.4,1,6,230.9,"NAN",0.23,0,0,0,99.4,"NAN",0,0,0,0,0
"2015-09-13 14:04:45",124,12.94,11.68,9.12,8.4,63.67,"$GPRMC,190442,A,6451.5906,N,14751.0197,W,001.4,116.6,130915,019.4,E","$GPGGA,190442,6451.5906,N,14751.0197,W,1,06,1.4,231.1,M,7.9,M,,",64,51.59,-147,-51.02,0,306.9,19.4,1,6,231,"NAN",0.24,0,0,0,99.4,"NAN",0,0,0,0,0
"2015-09-13 14:04:50",125,12.94,11.68,9.12,8.36,63.67,"$GPRMC,190447,A,6451.5901,N,14751.0197,W,000.0,302.4,130915,019.4,E","$GPGGA,190447,6451.5901,N,14751.0197,W,1,06,1.4,231.2,M,7.9,M,,",64,51.59,-147,-51.02,1.6,302.4,19.4,1,6,231.2,"NAN",0.23,0,0,0,99.4,"NAN",0,0,0,0,0
"2015-09-13 14:04:55",126,12.94,11.68,9.12,8.4,63.7,"$GPRMC,190452,A,6451.5903,N,14751.0177,W,000.0,107.9,130915,019.4,E","$GPGGA,190452,6451.5903,N,14751.0177,W,1,06,1.4,231.6,M,7.9,M,,",64,51.59,-147,-51.02,1,107.9,19.4,1,6,231.5,"NAN",0.22,0,0,0,99.4,"NAN",0,0,0,0,0
"2015-09-13 14:05:00",127,12.95,11.68,9.12,8.4,63.84,"$GPRMC,190457,A,6451.5906,N,14751.0206,W,000.0,327.5,130915,019.4,E","$GPGGA,190457,6451.5906,N,14751.0206,W,1,06,1.4,232.1,M,7.9,M,,",64,51.59,-147,-51.02,0.9,327.5,19.4,1,6,232,"NAN",0.23,0,0,0,99.4,"NAN",0,0,0,0,0
"2015-09-13 14:05:05",128,12.95,11.66,9.12,8.36,64.21,"$GPRMC,190502,A,6451.5912,N,14751.0241,W,000.0,327.5,130915,019.4,E","$GPGGA,190502,6451.5912,N,14751.0241,W,1,05,1.8,232.6,M,7.9,M,,",64,51.59,-147,-51.02,0,327.5,19.4,1,5,232.5,"NAN",0.2,0,0,0,99.4,"NAN",0,0,0,0,0
"2015-09-13 14:05:10",129,12.95,11.66,9.45,8.36,64.55,"$GPRMC,190507,A,6451.5916,N,14751.0252,W,002.0,303.7,130915,019.4,E","$GPGGA,190507,6451.5916,N,14751.0252,W,1,05,1.5,232.7,M,7.9,M,,",64,51.59,-147,-51.02,1.7,304.3,19.4,1,5,232.6,"NAN",0.18,0,0,0,99.4,"NAN",0,0,0,0,0
"2015-09-13 14:05:15",130,12.94,11.66,9.45,8.33,64.99,"$GPRMC,190512,A,6451.5917,N,14751.0236,W,000.0,112.4,130915,019.4,E","$GPGGA,190512,6451.5917,N,14751.0236,W,1,05,1.5,233.0,M,7.9,M,,",64,51.59,-147,-51.02,0.9,112.4,19.4,1,5,232.9,"NAN",0.2,0,0,0,99.4,"NAN",0,0,0,0,0
"2015-09-13 14:05:20",131,12.95,11.66,9.45,8.36,65.02,"$GPRMC,190517,A,6451.5921,N,14751.0244,W,000.0,112.4,130915,019.4,E","$GPGGA,190517,6451.5921,N,14751.0244,W,1,05,1.5,233.2,M,7.9,M,,",64,51.59,-147,-51.02,0,112.4,19.4,1,5,233.2,"NAN",0.17,0,0,0,99.4,"NAN",0,0,0,0,0
"2015-09-13 14:05:25",132,12.94,11.66,9.45,8.36,65.16,"$GPRMC,190522,A,6451.5922,N,14751.0249,W,000.0,302.1,130915,019.4,E","$GPGGA,190522,6451.5922,N,14751.0249,W,1,05,1.5,233.5,M,7.9,M,,",64,51.59,-147,-51.03,0,302.1,19.4,1,5,233.4,"NAN",0.18,0,0,0,99.4,"NAN",0,0,0,0,0
"2015-09-13 14:05:30",133,12.94,11.66,9.45,8.33,65.16,"$GPRMC,190527,A,6451.5924,N,14751.0241,W,000.0,302.1,130915,019.4,E","$GPGGA,190527,6451.5924,N,14751.0241,W,1,05,1.5,233.5,M,7.9,M,,",64,51.59,-147,-51.02,0,302.1,19.4,1,5,233.5,"NAN",0.2,0,0,0,99.4,"NAN",0,0,0,0,0
"2015-09-13 14:05:35",134,12.95,11.66,9.12,8.33,65.16,"$GPRMC,190532,A,6451.5929,N,14751.0263,W,001.3,299.0,130915,019.4,E","$GPGGA,190532,6451.5929,N,14751.0263,W,1,05,1.5,233.8,M,7.9,M,,",64,51.59,-147,-51.03,1.8,300.8,19.4,1,5,233.7,"NAN",0.22,0,0,0,99.4,"NAN",0,0,0,0,0
"2015-09-13 14:05:40",135,12.95,11.66,9.12,8.36,65.06,"$GPRMC,190537,A,6451.5928,N,14751.0235,W,000.0,299.0,130915,019.4,E","$GPGGA,190537,6451.5928,N,14751.0235,W,1,05,1.5,234.3,M,7.9,M,,",64,51.59,-147,-51.02,0,299,19.4,1,5,234.2,"NAN",0.19,0,0,0,99.4,"NAN",0,0,0,0,0
"2015-09-13 14:05:45",136,12.95,11.66,9.12,8.33,64.99,"$GPRMC,190542,A,6451.5934,N,14751.0166,W,000.0,097.2,130915,019.4,E","$GPGGA,190542,6451.5934,N,14751.0166,W,1,05,1.5,234.5,M,7.9,M,,",64,51.59,-147,-51.02,0,97.2,19.4,1,5,234.5,"NAN",0.2,0,0,0,99.4,"NAN",0,0,0,0,0
"2015-09-13 14:05:50",137,12.95,11.66,9.12,8.33,64.89,"$GPRMC,190547,A,6451.5936,N,14751.0117,W,000.9,351.7,130915,019.4,E","$GPGGA,190547,6451.5936,N,14751.0117,W,1,05,1.8,234.8,M,7.9,M,,",64,51.59,-147,-51.01,0,97.2,19.4,1,5,234.8,"NAN",0.19,0,0,0,99.4,"NAN",0,0,0,0,0
"2015-09-13 14:05:55",138,12.94,11.66,9.12,8.33,64.75,"$GPRMC,190552,A,6451.5928,N,14751.0105,W,000.0,348.7,130915,019.4,E","$GPGGA,190552,6451.5928,N,14751.0105,W,1,05,1.5,235.2,M,7.9,M,,",64,51.59,-147,-51.01,0,348.7,19.4,1,5,235.1,"NAN",0.19,0,0,0,99.4,"NAN",0,0,0,0,0
"2015-09-13 14:06:00",139,12.95,11.66,9.12,8.36,64.72,"$GPRMC,190557,A,6451.5915,N,14751.0091,W,000.0,348.7,130915,019.4,E","$GPGGA,190557,6451.5915,N,14751.0091,W,1,05,1.5,235.3,M,7.9,M,,",64,51.59,-147,-51.01,0,348.7,19.4,1,5,235.3,"NAN",0.21,0,0,0,99.4,"NAN",0,0,0,0,0
"2015-09-13 14:06:05",140,12.94,11.66,9.12,8.33,64.62,"$GPRMC,190602,A,6451.5907,N,14751.0111,W,000.0,348.7,130915,019.4,E","$GPGGA,190602,6451.5907,N,14751.0111,W,1,05,1.5,235.5,M,7.9,M,,",64,51.59,-147,-51.01,0,348.7,19.4,1,5,235.5,"NAN",0.19,0,0,0,99.4,"NAN",0,0,0,0,0
"2015-09-13 14:06:10",141,12.95,11.63,11.48,8.33,64.52,"$GPRMC,190607,A,6451.5904,N,14751.0120,W,000.0,348.7,130915,019.4,E","$GPGGA,190607,6451.5904,N,14751.0120,W,1,05,1.5,235.6,M,7.9,M,,",64,51.59,-147,-51.01,0,348.7,19.4,1,5,235.6,"NAN",0.23,0,0,0,99.4,"NAN",0,0,0,0,0
"2015-09-13 14:06:15",142,12.95,11.63,35.45,8.33,64.45,"$GPRMC,190612,A,6451.5906,N,14751.0127,W,000.0,348.7,130915,019.4,E","$GPGGA,190612,6451.5906,N,14751.0127,W,1,05,1.5,235.6,M,7.9,M,,",64,51.59,-147,-51.01,0,348.7,19.4,1,5,235.6,"NAN",0.2,0,0,0,99.4,"NAN",0,0,0,0,0
"2015-09-13 14:06:20",143,12.95,11.63,48.62,8.33,64.38,"$GPRMC,190617,A,6451.5908,N,14751.0129,W,000.0,309.2,130915,019.4,E","$GPGGA,190617,6451.5908,N,14751.0129,W,1,05,1.5,235.0,M,7.9,M,,",64,51.59,-147,-51.01,0.6,309.2,19.4,1,5,235.4,"NAN",0.18,0,0,0,99.4,"NAN",0,0,0,0,0
"2015-09-13 14:06:25",144,12.95,11.63,49.63,8.33,64.35,"$GPRMC,190622,A,6451.5915,N,14751.0111,W,000.0,309.2,130915,019.4,E","$GPGGA,190622,6451.5915,N,14751.0111,W,1,05,1.5,234.6,M,7.9,M,,",64,51.59,-147,-51.01,0,309.2,19.4,1,5,234.6,"NAN",0.2,0,0,0,99.4,"NAN",0,0,0,0,0
"2015-09-13 14:06:30",145,12.95,11.63,49.63,8.36,64.38,"$GPRMC,190627,A,6451.5916,N,14751.0108,W,000.0,309.2,130915,019.4,E","$GPGGA,190627,6451.5916,N,14751.0108,W,1,05,1.5,234.6,M,7.9,M,,",64,51.59,-147,-51.01,0,309.2,19.4,1,5,234.6,"NAN",0.19,0,0,0,99.4,"NAN",0,0,0,0,0
"2015-09-13 14:06:35",146,12.95,11.63,49.63,8.33,64.55,"$GPRMC,190632,A,6451.5916,N,14751.0111,W,000.0,309.2,130915,019.4,E","$GPGGA,190632,6451.5916,N,14751.0111,W,1,06,1.2,234.6,M,7.9,M,,",64,51.59,-147,-51.01,0,309.2,19.4,1,6,234.6,"NAN",0.18,0,0,0,99.4,"NAN",0,0,0,0,0
"2015-09-13 14:06:40",147,12.95,11.63,49.63,8.36,64.72,"$GPRMC,190637,A,6451.5920,N,14751.0114,W,000.0,054.5,130915,019.4,E","$GPGGA,190637,6451.5920,N,14751.0114,W,1,06,1.2,234.0,M,7.9,M,,",64,51.59,-147,-51.01,0,54.5,19.4,1,6,234.2,"NAN",0.17,0,0,0,99.4,"NAN",0,0,0,0,0
"2015-09-13 14:06:45",148,12.95,11.63,49.97,8.33,64.79,"$GPRMC,190642,A,6451.5933,N,14751.0135,W,000.0,054.5,130915,019.4,E","$GPGGA,190642,6451.5933,N,14751.0135,W,1,06,1.2,232.6,M,7.9,M,,",64,51.59,-147,-51.01,0,54.5,19.4,1,6,232.8,"NAN",0.18,0,0,0,99.4,"NAN",0,0,0,0,0
"2015-09-13 14:06:50",149,12.94,11.63,49.97,8.33,64.96,"$GPRMC,190647,A,6451.5939,N,14751.0125,W,000.0,320.8,130915,019.4,E","$GPGGA,190647,6451.5939,N,14751.0125,W,1,06,1.2,231.7,M,7.9,M,,",64,51.59,-147,-51.01,1,320.8,19.4,1,6,232.5,"NAN",0.16,0,0,0,99.5,"NAN",0,0,0,0,0
"2015-09-13 14:06:55",150,12.95,11.63,50.64,8.29,64.99,"$GPRMC,190652,A,6451.5946,N,14751.0113,W,000.0,320.8,130915,019.4,E","$GPGGA,190652,6451.5946,N,14751.0113,W,1,05,1.5,229.6,M,7.9,M,,",64,51.59,-147,-51.01,0,320.8,19.4,1,5,229.6,"NAN",0.19,0,0,0,99.4,"NAN",0,0,0,0,0
"2015-09-13 14:07:00",151,12.95,11.63,50.98,8.33,65.06,"$GPRMC,190657,A,6451.5945,N,14751.0104,W,000.0,320.8,130915,019.4,E","$GPGGA,190657,6451.5945,N,14751.0104,W,1,05,1.5,229.4,M,7.9,M,,",64,51.59,-147,-51.01,0,320.8,19.4,1,5,229.4,"NAN",0.19,0,0,0,99.4,"NAN",0,0,0,0,0
"2015-09-13 14:07:05",152,12.95,11.63,51.32,8.29,65.26,"$GPRMC,190702,A,6451.5943,N,14751.0091,W,000.0,320.8,130915,019.4,E","$GPGGA,190702,6451.5943,N,14751.0091,W,1,05,1.5,227.9,M,7.9,M,,",64,51.59,-147,-51.01,0,320.8,19.4,1,5,228.6,"NAN",0.19,0,0,0,99.4,"NAN",0,0,0,0,0
"2015-09-13 14:07:10",153,12.95,11.63,51.32,8.33,65.6,"$GPRMC,190707,A,6451.5938,N,14751.0071,W,000.0,112.4,130915,019.4,E","$GPGGA,190707,6451.5938,N,14751.0071,W,1,05,1.5,224.8,M,7.9,M,,",64,51.59,-147,-51.01,0,112.4,19.4,1,5,225.1,"NAN",0.19,0,0,0,99.4,"NAN",0,0,0,0,0
"2015-09-13 14:07:15",154,12.95,11.63,51.32,8.33,65.81,"$GPRMC,190712,A,6451.5936,N,14751.0061,W,000.0,112.4,130915,019.4,E","$GPGGA,190712,6451.5936,N,14751.0061,W,1,05,1.5,224.0,M,7.9,M,,",64,51.59,-147,-51.01,0,112.4,19.4,1,5,224.1,"NAN",0.19,0,0,0,99.4,"NAN",0,0,0,0,0
"2015-09-13 14:07:20",155,12.95,11.63,51.32,8.4,65.91,"$GPRMC,190717,A,6451.5936,N,14751.0059,W,000.0,112.4,130915,019.4,E","$GPGGA,190717,6451.5936,N,14751.0059,W,1,05,1.5,223.9,M,7.9,M,,",64,51.59,-147,-51.01,0,112.4,19.4,1,5,223.9,"NAN",0.18,0,0,0,99.4,"NAN",0,0,0,0,0
"2015-09-13 14:07:25",156,12.95,11.61,51.32,8.36,66.04,"$GPRMC,190722,A,6451.5937,N,14751.0051,W,000.0,112.4,130915,019.4,E","$GPGGA,190722,6451.5937,N,14751.0051,W,1,05,1.5,223.8,M,7.9,M,,",64,51.59,-147,-51.01,0,112.4,19.4,1,6,223.8,"NAN",0.18,0,0,0,99.4,"NAN",0,0,0,0,0
"2015-09-13 14:07:30",157,12.95,11.61,50.98,8.33,66.04,"$GPRMC,190727,A,6451.5938,N,14751.0047,W,000.0,112.4,130915,019.4,E","$GPGGA,190727,6451.5938,N,14751.0047,W,1,05,1.5,223.7,M,7.9,M,,",64,51.59,-147,-51,0,112.4,19.4,1,5,223.7,"NAN",0.2,0,0,0,99.5,"NAN",0,0,0,0,0
"2015-09-13 14:07:35",158,12.95,11.61,50.98,8.33,65.94,"$GPRMC,190732,A,6451.5937,N,14751.0052,W,000.0,112.4,130915,019.4,E","$GPGGA,190732,6451.5937,N,14751.0052,W,1,06,1.2,223.7,M,7.9,M,,",64,51.59,-147,-51.01,0,112.4,19.4,1,6,223.7,"NAN",0.18,0,0,0,99.5,"NAN",0,0,0,0,0
"2015-09-13 14:07:40",159,12.95,11.61,50.3,8.36,66.04,"$GPRMC,190737,A,6451.5939,N,14751.0055,W,000.0,112.4,130915,019.4,E","$GPGGA,190737,6451.5939,N,14751.0055,W,1,06,1.2,223.7,M,7.9,M,,",64,51.59,-147,-51.01,0,112.4,19.4,1,6,223.7,"NAN",0.18,0,0,0,99.4,"NAN",0,0,0,0,0
"2015-09-13 14:07:45",160,12.95,11.61,49.97,8.4,66.08,"$GPRMC,190742,A,6451.5952,N,14751.0151,W,001.7,292.2,130915,019.4,E","$GPGGA,190742,6451.5952,N,14751.0151,W,1,06,1.2,223.1,M,7.9,M,,",64,51.59,-147,-51.01,2.1,287.6,19.4,1,6,223.2,"NAN",0.18,0,0,0,99.4,"NAN",0,0,0,0,0
"2015-09-13 14:07:50",161,12.95,11.61,49.63,8.43,66.25,"$GPRMC,190747,A,6451.5954,N,14751.0205,W,000.7,268.8,130915,019.4,E","$GPGGA,190747,6451.5954,N,14751.0205,W,1,06,1.2,222.2,M,7.9,M,,",64,51.6,-147,-51.02,1.1,267.6,19.4,1,6,222.4,"NAN",0.17,0,0,0,99.4,"NAN",0,0,0,0,0
"2015-09-13 14:07:55",162,12.95,11.61,48.95,8.4,66.25,"$GPRMC,190752,A,6451.5948,N,14751.0180,W,000.9,316.1,130915,019.4,E","$GPGGA,190752,6451.5948,N,14751.0180,W,1,06,1.2,220.5,M,7.9,M,,",64,51.59,-147,-51.02,0,76.2,19.4,1,6,220.9,"NAN",0.18,0,0,0,99.4,"NAN",0,0,0,0,0
"2015-09-13 14:08:00",163,12.95,11.61,47.94,8.43,66.32,"$GPRMC,190757,A,6451.5940,N,14751.0125,W,000.0,316.1,130915,019.4,E","$GPGGA,190757,6451.5940,N,14751.0125,W,1,05,1.5,219.0,M,7.9,M,,",64,51.59,-147,-51.01,0,316.1,19.4,1,5,219.1,"NAN",0.19,0,0,0,99.4,"NAN",0,0,0,0,0
"2015-09-13 14:08:05",164,12.95,11.61,47.26,8.4,66.28,"$GPRMC,190802,A,6451.5940,N,14751.0122,W,000.0,316.1,130915,019.4,E","$GPGGA,190802,6451.5940,N,14751.0122,W,1,06,1.7,218.9,M,7.9,M,,",64,51.59,-147,-51.01,0,316.1,19.4,1,6,218.9,"NAN",0.18,0,0,0,99.5,"NAN",0,0,0,0,0
"2015-09-13 14:08:10",165,12.95,11.61,46.25,8.46,66.38,"$GPRMC,190807,A,6451.5940,N,14751.0119,W,000.0,316.1,130915,019.4,E","$GPGGA,190807,6451.5940,N,14751.0119,W,1,05,1.9,218.7,M,7.9,M,,",64,51.59,-147,-51.01,0,316.1,19.4,1,6,218.8,"NAN",0.16,0,0,0,99.4,"NAN",0,0,0,0,0
"2015-09-13 14:08:15",166,12.95,11.61,45.58,8.46,66.52,"$GPRMC,190812,A,6451.5941,N,14751.0115,W,000.0,316.1,130915,019.4,E","$GPGGA,190812,6451.5941,N,14751.0115,W,1,06,1.2,218.6,M,7.9,M,,",64,51.59,-147,-51.01,0,316.1,19.4,1,6,218.6,"NAN",0.16,0,0,0,99.5,"NAN",0,0,0,0,0
"2015-09-13 14:08:20",167,12.95,11.61,44.9,8.43,66.72,"$GPRMC,190817,A,6451.5941,N,14751.0111,W,000.0,316.1,130915,019.4,E","$GPGGA,190817,6451.5941,N,14751.0111,W,1,06,1.2,218.4,M,7.9,M,,",64,51.59,-147,-51.01,0,316.1,19.4,1,6,218.4,"NAN",0.17,0,0,0,99.5,"NAN",0,0,0,0,0
"2015-09-13 14:08:25",168,12.95,11.59,44.23,8.43,67.03,"$GPRMC,190822,A,6451.5941,N,14751.0112,W,000.0,316.1,130915,019.4,E","$GPGGA,190822,6451.5941,N,14751.0112,W,1,06,1.2,218.2,M,7.9,M,,",64,51.59,-147,-51.01,0,316.1,19.4,1,6,218.3,"NAN",0.17,0,0,0,99.4,"NAN",0,0,0,0,0
"2015-09-13 14:08:30",169,12.95,11.59,43.89,8.5,67.4,"$GPRMC,190827,A,6451.5940,N,14751.0109,W,000.0,316.1,130915,019.4,E","$GPGGA,190827,6451.5940,N,14751.0109,W,1,05,1.5,218.1,M,7.9,M,,",64,51.59,-147,-51.01,0,316.1,19.4,1,6,218.1,"NAN",0.17,0,0,0,99.5,"NAN",0,0,0,0,0
"2015-09-13 14:08:35",170,12.95,11.59,43.55,8.46,67.54,"$GPRMC,190832,A,6451.5939,N,14751.0103,W,000.0,316.1,130915,019.4,E","$GPGGA,190832,6451.5939,N,14751.0103,W,1,05,1.5,217.9,M,7.9,M,,",64,51.59,-147,-51.01,0,316.1,19.4,1,5,217.9,"NAN",0.19,0,0,0,99.4,"NAN",0,0,0,0,0
"2015-09-13 14:08:40",171,12.95,11.59,43.21,8.5,67.6,"$GPRMC,190837,A,6451.5939,N,14751.0093,W,000.0,316.1,130915,019.4,E","$GPGGA,190837,6451.5939,N,14751.0093,W,1,05,1.5,217.7,M,7.9,M,,",64,51.59,-147,-51.01,0,316.1,19.4,1,5,217.7,"NAN",0.19,0,0,0,99.4,"NAN",0,0,0,0,0
"2015-09-13 14:08:45",172,12.95,11.59,42.88,8.53,67.67,"$GPRMC,190842,A,6451.5939,N,14751.0088,W,000.0,316.1,130915,019.4,E","$GPGGA,190842,6451.5939,N,14751.0088,W,1,05,1.5,217.5,M,7.9,M,,",64,51.59,-147,-51.01,0,316.1,19.4,1,5,217.6,"NAN",0.17,0,0,0,99.5,"NAN",0,0,0,0,0
"2015-09-13 14:08:50",173,12.95,11.59,42.54,8.6,67.77,"$GPRMC,190847,A,6451.5941,N,14751.0080,W,000.0,316.1,130915,019.4,E","$GPGGA,190847,6451.5941,N,14751.0080,W,1,05,1.5,217.3,M,7.9,M,,",64,51.59,-147,-51.01,0,316.1,19.4,1,5,217.4,"NAN",0.19,0,0,0,99.4,"NAN",0,0,0,0,0
"2015-09-13 14:08:55",174,12.95,11.59,42.54,8.6,67.88,"$GPRMC,190852,A,6451.5939,N,14751.0069,W,000.0,316.1,130915,019.4,E","$GPGGA,190852,6451.5939,N,14751.0069,W,1,05,1.5,216.9,M,7.9,M,,",64,51.59,-147,-51.01,0,316.1,19.4,1,5,216.9,"NAN",0.19,0,0,0,99.4,"NAN",0,0,0,0,0
"2015-09-13 14:09:00",175,12.95,11.59,42.2,8.67,68.04,"$GPRMC,190857,A,6451.5937,N,14751.0069,W,000.0,316.1,130915,019.4,E","$GPGGA,190857,6451.5937,N,14751.0069,W,1,05,1.5,216.7,M,7.9,M,,",64,51.59,-147,-51.01,0,316.1,19.4,1,6,216.7,"NAN",0.17,0,0,0,99.5,"NAN",0,0,0,0,0
"2015-09-13 14:09:05",176,12.95,11.59,41.86,8.7,68.21,"$GPRMC,190902,A,6451.5935,N,14751.0070,W,000.0,316.1,130915,019.4,E","$GPGGA,190902,6451.5935,N,14751.0070,W,1,05,1.5,216.5,M,7.9,M,,",64,51.59,-147,-51.01,0,316.1,19.4,1,5,216.6,"NAN",0.2,0,0,0,99.4,"NAN",0,0,0,0,0
"2015-09-13 14:09:10",177,12.95,11.59,41.19,8.73,68.35,"$GPRMC,190907,A,6451.5934,N,14751.0074,W,000.0,316.1,130915,019.4,E","$GPGGA,190907,6451.5934,N,14751.0074,W,1,06,1.2,216.4,M,7.9,M,,",64,51.59,-147,-51.01,0,316.1,19.4,1,5,216.4,"NAN",0.19,0,0,0,99.4,"NAN",0,0,0,0,0
"2015-09-13 14:09:15",178,12.95,11.59,40.85,8.8,68.49,"$GPRMC,190912,A,6451.5932,N,14751.0076,W,000.0,316.1,130915,019.4,E","$GPGGA,190912,6451.5932,N,14751.0076,W,1,05,1.5,216.2,M,7.9,M,,",64,51.59,-147,-51.01,0,316.1,19.4,1,5,216.2,"NAN",0.19,0,0,0,99.5,"NAN",0,0,0,0,0
"2015-09-13 14:09:20",179,12.95,11.59,40.51,8.87,68.49,"$GPRMC,190917,A,6451.5932,N,14751.0075,W,000.0,316.1,130915,019.4,E","$GPGGA,190917,6451.5932,N,14751.0075,W,1,05,1.5,216.1,M,7.9,M,,",64,51.59,-147,-51.01,0,316.1,19.4,1,5,216.1,"NAN",0.2,0,0,0,99.4,"NAN",0,0,0,0,0
"2015-09-13 14:09:25",180,12.95,11.59,39.84,8.94,68.28,"$GPRMC,190922,A,6451.5933,N,14751.0074,W,000.0,316.1,130915,019.4,E","$GPGGA,190922,6451.5933,N,14751.0074,W,1,05,1.5,215.9,M,7.9,M,,",64,51.59,-147,-51.01,0,316.1,19.4,1,5,216,"NAN",0.19,0,0,0,99.5,"NAN",0,0,0,0,0
"2015-09-13 14:09:30",181,12.95,11.56,39.5,8.97,68.08,"$GPRMC,190927,A,6451.5934,N,14751.0065,W,000.0,316.1,130915,019.4,E","$GPGGA,190927,6451.5934,N,14751.0065,W,1,05,1.5,215.8,M,7.9,M,,",64,51.59,-147,-51.01,0,316.1,19.4,1,5,215.8,"NAN",0.19,0,0,0,99.4,"NAN",0,0,0,0,0
"2015-09-13 14:09:35",182,12.95,11.56,39.5,8.97,67.91,"$GPRMC,190932,A,6451.5935,N,14751.0059,W,000.0,316.1,130915,019.4,E","$GPGGA,190932,6451.5935,N,14751.0059,W,1,06,1.5,215.6,M,7.9,M,,",64,51.59,-147,-51.01,0,316.1,19.4,1,5,215.6,"NAN",0.19,0,0,0,99.4,"NAN",0,0,0,0,0
"2015-09-13 14:09:40",183,12.95,11.56,38.82,9.07,67.84,"$GPRMC,190937,A,6451.5934,N,14751.0059,W,000.0,316.1,130915,019.4,E","$GPGGA,190937,6451.5934,N,14751.0059,W,1,06,1.5,215.5,M,7.9,M,,",64,51.59,-147,-51.01,0,316.1,19.4,1,6,215.5,"NAN",0.19,0,0,0,99.4,"NAN",0,0,0,0,0
"2015-09-13 14:09:45",184,12.94,11.56,38.49,9.07,67.87,"$GPRMC,190942,A,6451.5935,N,14751.0059,W,000.0,316.1,130915,019.4,E","$GPGGA,190942,6451.5935,N,14751.0059,W,1,06,1.5,215.6,M,7.9,M,,",64,51.59,-147,-51.01,0,316.1,19.4,1,6,215.6,"NAN",0.19,0,0,0,99.5,"NAN",0,0,0,0,0
"2015-09-13 14:09:50",185,12.95,11.56,38.15,9.14,68.08,"$GPRMC,190947,A,6451.5935,N,14751.0059,W,000.0,316.1,130915,019.4,E","$GPGGA,190947,6451.5935,N,14751.0059,W,1,06,1.7,215.6,M,7.9,M,,",64,51.59,-147,-51.01,0,316.1,19.4,1,5,215.6,"NAN",0.2,0,0,0,99.4,"NAN",0,0,0,0,0
"2015-09-13 14:09:55",186,12.95,11.56,43.55,9.14,68.35,"$GPRMC,190952,A,6451.5934,N,14751.0059,W,001.1,276.5,130915,019.4,E","$GPGGA,190952,6451.5934,N,14751.0059,W,1,07,1.1,215.5,M,7.9,M,,",64,51.59,-147,-51.01,0,316.1,19.4,1,7,215.6,"NAN",0.15,0,0,0,99.5,"NAN",0,0,0,0,0
"2015-09-13 14:10:00",187,12.95,11.56,44.23,9.24,68.79,"$GPRMC,190957,A,6451.5919,N,14751.0044,W,000.0,276.5,130915,019.4,E","$GPGGA,190957,6451.5919,N,14751.0044,W,1,07,1.1,212.2,M,7.9,M,,",64,51.59,-147,-51,0,276.5,19.4,1,7,212.3,"NAN",0.15,0,0,0,99.4,"NAN",0,0,0,0,0
"2015-09-13 14:10:05",188,12.95,11.54,44.56,9.24,68.99,"$GPRMC,191002,A,6451.5918,N,14751.0041,W,000.0,276.5,130915,019.4,E","$GPGGA,191002,6451.5918,N,14751.0041,W,1,07,1.1,211.9,M,7.9,M,,",64,51.59,-147,-51,0,276.5,19.4,1,7,211.9,"NAN",0.18,0,0,0,99.4,"NAN",0,0,0,0,0
"2015-09-13 14:10:10",189,12.95,11.54,44.9,9.34,69.5,"$GPRMC,191007,A,6451.5916,N,14751.0037,W,000.0,276.5,130915,019.4,E","$GPGGA,191007,6451.5916,N,14751.0037,W,1,07,1.1,211.6,M,7.9,M,,",64,51.59,-147,-51,0,276.5,19.4,1,7,211.7,"NAN",0.16,0,0,0,99.4,"NAN",0,0,0,0,0
"2015-09-13 14:10:15",190,12.95,11.54,44.9,9.34,69.71,"$GPRMC,191012,A,6451.5916,N,14751.0037,W,000.0,276.5,130915,019.4,E","$GPGGA,191012,6451.5916,N,14751.0037,W,1,07,1.4,211.5,M,7.9,M,,",64,51.59,-147,-51,0,276.5,19.4,1,7,211.5,"NAN",0.17,0,0,0,99.4,"NAN",0,0,0,0,0
"2015-09-13 14:10:20",191,12.94,11.54,45.24,9.41,69.91,"$GPRMC,191017,A,6451.5916,N,14751.0037,W,000.0,276.5,130915,019.4,E","$GPGGA,191017,6451.5916,N,14751.0037,W,1,07,1.4,211.5,M,7.9,M,,",64,51.59,-147,-51,0,276.5,19.4,1,7,211.5,"NAN",0.18,0,0,0,99.4,"NAN",0,0,0,0,0
"2015-09-13 14:10:25",192,12.95,11.54,45.58,9.41,70.11,"$GPRMC,191022,A,6451.5915,N,14751.0036,W,000.0,276.5,130915,019.4,E","$GPGGA,191022,6451.5915,N,14751.0036,W,1,07,1.4,211.4,M,7.9,M,,",64,51.59,-147,-51,0,276.5,19.4,1,7,211.4,"NAN",0.17,0,0,0,99.5,"NAN",0,0,0,0,0
"2015-09-13 14:10:30",193,12.95,11.54,45.91,9.48,70.32,"$GPRMC,191027,A,6451.5915,N,14751.0036,W,000.0,276.5,130915,019.4,E","$GPGGA,191027,6451.5915,N,14751.0036,W,1,07,1.4,211.4,M,7.9,M,,",64,51.59,-147,-51,0,276.5,19.4,1,7,211.4,"NAN",0.14,0,0,0,99.4,"NAN",0,0,0,0,0
"2015-09-13 14:10:35",194,12.95,11.54,51.99,9.55,70.56,"$GPRMC,191032,A,6451.5913,N,14751.0071,W,004.5,288.6,130915,019.4,E","$GPGGA,191032,6451.5913,N,14751.0071,W,1,07,1.1,210.9,M,7.9,M,,",64,51.59,-147,-51.01,3.5,286.3,19.4,1,7,210.9,"NAN",0.19,0,0,0,99.4,"NAN",0,0,0,0,0
"2015-09-13 14:10:40",195,12.95,11.54,61.44,9.62,70.83,"$GPRMC,191037,A,6451.5932,N,14751.0224,W,007.6,285.8,130915,019.4,E","$GPGGA,191037,6451.5932,N,14751.0224,W,1,07,1.1,210.1,M,7.9,M,,",64,51.59,-147,-51.02,6.8,288,19.4,1,7,210.3,"NAN",0.16,0,0,0,99.5,"NAN",0,0,0,0,0
"2015-09-13 14:10:45",196,12.95,11.54,65.16,9.58,71.1,"$GPRMC,191042,A,6451.5921,N,14751.0500,W,010.0,280.7,130915,019.4,E","$GPGGA,191042,6451.5921,N,14751.0500,W,1,07,1.4,210.5,M,7.9,M,,",64,51.59,-147,-51.04,10,281.7,19.4,1,7,210.6,"NAN",0.14,0,0,0,99.4,"NAN",0,0,0,0,0
"2015-09-13 14:10:50",197,12.95,11.54,65.83,9.68,71.51,"$GPRMC,191047,A,6451.5915,N,14751.0846,W,011.0,276.0,130915,019.4,E","$GPGGA,191047,6451.5915,N,14751.0846,W,1,07,1.4,209.1,M,7.9,M,,",64,51.59,-147,-51.08,11.7,276.8,19.4,1,7,209.6,"NAN",0.15,0,0,0,99.4,"NAN",0,0,0,0,0
"2015-09-13 14:10:55",198,12.94,11.54,64.48,9.72,71.81,"$GPRMC,191052,A,6451.5892,N,14751.1120,W,008.2,227.9,130915,019.4,E","$GPGGA,191052,6451.5892,N,14751.1120,W,1,07,1.4,207.0,M,7.9,M,,",64,51.59,-147,-51.11,8.4,245.4,19.4,1,7,207.4,"NAN",0.15,0,0,0,99.5,"NAN",0,0,0,0,0
"2015-09-13 14:11:00",199,12.94,11.54,59.08,9.75,72.19,"$GPRMC,191057,A,6451.5761,N,14751.1196,W,012.2,183.8,130915,019.4,E","$GPGGA,191057,6451.5761,N,14751.1196,W,1,07,1.1,205.1,M,7.9,M,,",64,51.58,-147,-51.12,11.4,186.7,19.4,1,7,205.4,"NAN",0.17,0,0,0,99.4,"NAN",0,0,0,0,0
"2015-09-13 14:11:05",200,12.95,11.52,60.77,9.82,72.76,"$GPRMC,191102,A,6451.5577,N,14751.1194,W,012.4,179.4,130915,019.4,E","$GPGGA,191102,6451.5577,N,14751.1194,W,1,07,1.1,205.1,M,7.9,M,,",64,51.56,-147,-51.12,13.4,179.7,19.4,1,7,205.1,"NAN",0.17,0,0,0,99.4,"NAN",0,0,0,0,0
"2015-09-13 14:11:10",201,12.94,11.54,63.47,9.96,73.61,"$GPRMC,191107,A,6451.5455,N,14751.1186,W,006.4,199.5,130915,019.4,E","$GPGGA,191107,6451.5455,N,14751.1186,W,1,07,1.4,204.8,M,7.9,M,,",64,51.55,-147,-51.12,7.2,188.4,19.4,1,7,205,"NAN",0.16,0,0,0,99.4,"NAN",0,0,0,0,0
"2015-09-13 14:11:15",202,12.94,11.52,63.47,9.99,73.98,"$GPRMC,191112,A,6451.5376,N,14751.1373,W,010.7,238.3,130915,019.4,E","$GPGGA,191112,6451.5376,N,14751.1373,W,1,07,1.4,203.1,M,7.9,M,,",64,51.54,-147,-51.13,9.6,238.5,19.4,1,7,203.6,"NAN",0.17,0,0,0,99.4,"NAN",0,0,0,0,0
"2015-09-13 14:11:20",203,12.94,11.52,57.73,10.02,74.32,"$GPRMC,191117,A,6451.5242,N,14751.1640,W,013.2,230.6,130915,019.4,E","$GPGGA,191117,6451.5242,N,14751.1640,W,1,07,1.1,200.4,M,7.9,M,,",64,51.53,-147,-51.16,13.2,232.1,19.4,1,7,201,"NAN",0.17,0,0,0,99.4,"NAN",0,0,0,0,0
"2015-09-13 14:11:25",204,12.95,11.52,54.35,10.09,74.63,"$GPRMC,191122,A,6451.5103,N,14751.1932,W,013.2,232.2,130915,019.4,E","$GPGGA,191122,6451.5103,N,14751.1932,W,1,07,1.4,197.3,M,7.9,M,,",64,51.51,-147,-51.19,13.2,230.1,19.4,1,7,197.9,"NAN",0.16,0,0,0,99.4,"NAN",0,0,0,0,0
"2015-09-13 14:11:30",205,12.94,11.52,55.37,10.16,74.83,"$GPRMC,191127,A,6451.4973,N,14751.2243,W,012.4,213.5,130915,019.4,E","$GPGGA,191127,6451.4973,N,14751.2243,W,1,07,1.4,194.2,M,7.9,M,,",64,51.5,-147,-51.22,12.8,220.1,19.4,1,7,194.8,"NAN",0.17,0,0,0,99.4,"NAN",0,0,0,0,0
"2015-09-13 14:11:35",206,12.95,11.52,62.46,10.23,74.7,"$GPRMC,191132,A,6451.4809,N,14751.2337,W,013.1,176.9,130915,019.4,E","$GPGGA,191132,6451.4809,N,14751.2337,W,1,07,1.1,191.7,M,7.9,M,,",64,51.48,-147,-51.23,12.4,184.5,19.4,1,7,192.2,"NAN",0.17,0,0,0,99.5,"NAN",0,0,0,0,0
"2015-09-13 14:11:40",207,12.95,11.52,65.5,10.3,74.7,"$GPRMC,191137,A,6451.4622,N,14751.2135,W,017.2,133.5,130915,019.4,E","$GPGGA,191137,6451.4622,N,14751.2135,W,1,07,1.4,188.2,M,7.9,M,,",64,51.47,-147,-51.22,16.1,144.3,19.4,1,7,189,"NAN",0.16,0,0,0,99.5,"NAN",0,0,0,0,0
"2015-09-13 14:11:45",208,12.94,11.52,66.51,10.33,74.73,"$GPRMC,191142,A,6451.4497,N,14751.1566,W,021.2,112.5,130915,019.4,E","$GPGGA,191142,6451.4497,N,14751.1566,W,1,07,1.4,183.7,M,7.9,M,,",64,51.45,-147,-51.17,20.9,113,19.4,1,7,184.5,"NAN",0.16,0,0,0,99.5,"NAN",0,0,0,0,0
"2015-09-13 14:11:50",209,12.94,11.52,65.5,10.43,74.76,"$GPRMC,191147,A,6451.4385,N,14751.0903,W,021.7,111.8,130915,019.4,E","$GPGGA,191147,6451.4385,N,14751.0903,W,1,07,1.4,179.4,M,7.9,M,,",64,51.44,-147,-51.1,21.7,111.6,19.4,1,7,180.1,"NAN",0.17,0,0,0,99.6,"NAN",0,0,0,0,0
"2015-09-13 14:11:55",210,12.94,11.49,65.16,10.47,74.6,"$GPRMC,191152,A,6451.4268,N,14751.0234,W,021.7,112.3,130915,019.4,E","$GPGGA,191152,6451.4268,N,14751.0234,W,1,07,1.4,175.9,M,7.9,M,,",64,51.43,-147,-51.04,21.8,112.5,19.4,1,7,176.6,"NAN",0.16,0,0,0,99.6,"NAN",0,0,0,0,0
"2015-09-13 14:12:00",211,12.94,11.49,64.48,10.57,74.43,"$GPRMC,191157,A,6451.4155,N,14750.9582,W,021.2,111.6,130915,019.4,E","$GPGGA,191157,6451.4155,N,14750.9582,W,1,07,1.5,172.8,M,7.9,M,,",64,51.42,-147,-50.97,21.2,111.7,19.4,1,7,173.4,"NAN",0.17,0,0,0,99.6,"NAN",0,0,0,0,0
"2015-09-13 14:12:05",212,12.94,11.49,63.47,10.6,74.32,"$GPRMC,191202,A,6451.4042,N,14750.8931,W,022.1,112.0,130915,019.4,E","$GPGGA,191202,6451.4042,N,14750.8931,W,1,07,1.5,169.3,M,7.9,M,,",64,51.41,-147,-50.91,21.8,112,19.4,1,7,170,"NAN",0.16,0,0,0,99.7,"NAN",0,0,0,0,0
"2015-09-13 14:12:10",213,12.94,11.49,62.46,10.7,74.26,"$GPRMC,191207,A,6451.3928,N,14750.8259,W,022.2,112.0,130915,019.4,E","$GPGGA,191207,6451.3928,N,14750.8259,W,1,07,1.5,165.7,M,7.9,M,,",64,51.4,-147,-50.84,22.2,112,19.4,1,7,166.4,"NAN",0.17,0,0,0,99.7,"NAN",0,0,0,0,0
"2015-09-13 14:12:15",214,12.94,11.49,61.11,10.7,74.15,"$GPRMC,191212,A,6451.3810,N,14750.7573,W,023.3,112.1,130915,019.4,E","$GPGGA,191212,6451.3810,N,14750.7573,W,1,07,1.5,161.8,M,7.9,M,,",64,51.38,-147,-50.77,23,112.1,19.4,1,7,162.6,"NAN",0.17,0,0,0,99.7,"NAN",0,0,0,0,0
"2015-09-13 14:12:20",215,12.94,11.49,60.43,10.84,73.85,"$GPRMC,191217,A,6451.3687,N,14750.6850,W,024.3,111.7,130915,019.4,E","$GPGGA,191217,6451.3687,N,14750.6850,W,1,07,1.5,157.7,M,7.9,M,,",64,51.37,-147,-50.7,24.2,111.8,19.4,1,7,158.5,"NAN",0.17,0,0,0,99.8,"NAN",0,0,0,0,0
"2015-09-13 14:12:25",216,12.94,11.49,60.43,10.84,73.44,"$GPRMC,191222,A,6451.3568,N,14750.6101,W,024.0,109.6,130915,019.4,E","$GPGGA,191222,6451.3568,N,14750.6101,W,1,07,1.5,153.6,M,7.9,M,,",64,51.36,-147,-50.63,24.3,110.1,19.4,1,7,154.4,"NAN",0.16,0,0,0,99.8,"NAN",0,0,0,0,0
