"TOA5","CR800Series","CR800","35658","CR800.Std.28","CPU:Ultralytics1.CR8","18129","Five_Sec"
"TIMESTAMP","RECORD","BattV","PTemp_C","SlrW","AirTC","RH","NMEASent(1)","NMEASent(2)","Latitude_A","Latitude_B","Longitude_A","Longitude_B","Speed","Course","MagVar","FixQual","NumSats","Altitude","PPS","SecSinceGPRMC","GPSReady","MaxClockChange","NumClockChange","BP_kPa","VWC","EC","T","P","PA","VR"
"TS","RN","Volts","Deg C","W/m^2","Deg C","%","","","degrees","minutes","degrees","minutes","knots","degrees","degrees","code","count","meters","microseconds","seconds","count","milliseconds","count","kPa","m^3/m^3","dS/m","Deg C","unitless","nSec","unitless"
"","","Smp","Smp","Smp","Smp","Smp","Smp","Smp","Smp","Smp","Smp","Smp","Smp","Smp","Smp","Smp","Smp","Smp","Smp","Smp","Smp","Smp","Smp","Smp","Smp","Smp","Smp","Smp","Smp","Smp"
"2015-09-16 12:53:00",0,12.87,18.58,66.82,8.98,54.85,"$GPRMC,175256,A,6715.0553,N,15010.5703,W,000.0,000.0,160915,019.2,E","$GPGGA,175256,6715.0553,N,15010.5703,W,2,11,0.7,331.1,M,3.9,M,,",67,15.06,-150,-10.57,0,0,19.2,2,11,331.1,"NAN",0.93,0,0,0,96.6,0,0.001,12.72,1.017,1.081,1
"2015-09-16 12:53:05",1,12.87,18.58,66.49,8.98,55.43,"$GPRMC,175301,A,6715.0553,N,15010.5703,W,000.0,000.0,160915,019.2,E","$GPGGA,175301,6715.0553,N,15010.5703,W,2,11,0.7,331.1,M,3.9,M,,",67,15.06,-150,-10.57,0,0,19.2,2,11,331.1,"NAN",0.93,0,0,0,96.6,0,0.001,12.72,1.019,1.081,1
"2015-09-16 12:53:10",2,12.87,18.56,66.49,9.05,55.53,"$GPRMC,175306,A,6715.0553,N,15010.5703,W,000.0,000.0,160915,019.2,E","$GPGGA,175306,6715.0553,N,15010.5703,W,2,11,0.7,331.1,M,3.9,M,,",67,15.06,-150,-10.57,0,0,19.2,2,11,331.1,"NAN",0.93,0,0,0,96.5,0,0.001,12.73,1.019,1.081,1
"2015-09-16 12:53:15",3,12.87,18.56,66.49,9.05,55.46,"$GPRMC,175311,A,6715.0553,N,15010.5703,W,000.0,000.0,160915,019.2,E","$GPGGA,175311,6715.0553,N,15010.5703,W,2,11,0.7,331.1,M,3.9,M,,",67,15.06,-150,-10.57,0,0,19.2,2,11,331.1,"NAN",0.93,0,0,0,96.6,0,0.001,12.7,1.019,1.081,1
"2015-09-16 12:53:20",4,12.87,18.56,66.49,9.05,55.46,"$GPRMC,175316,A,6715.0553,N,15010.5703,W,000.0,000.0,160915,019.2,E","$GPGGA,175316,6715.0553,N,15010.5703,W,2,11,0.7,331.1,M,3.9,M,,",67,15.06,-150,-10.57,0,0,19.2,2,11,331.1,"NAN",0.94,0,0,0,96.6,0,0.001,12.66,1.019,1.081,1
"2015-09-16 12:53:25",5,12.87,18.56,66.49,9.05,55.46,"$GPRMC,175321,A,6715.0553,N,15010.5703,W,000.0,000.0,160915,019.2,E","$GPGGA,175321,6715.0553,N,15010.5703,W,2,11,0.7,331.1,M,3.9,M,,",67,15.06,-150,-10.57,0,0,19.2,2,11,331.1,"NAN",0.92,0,0,0,96.5,0,0.001,12.68,1.019,1.081,1
"2015-09-16 12:53:30",6,12.87,18.53,66.49,9.05,55.26,"$GPRMC,175326,A,6715.0553,N,15010.5703,W,000.0,000.0,160915,019.2,E","$GPGGA,175326,6715.0553,N,15010.5703,W,2,11,0.7,331.1,M,3.9,M,,",67,15.06,-150,-10.57,0,0,19.2,2,11,331.1,"NAN",0.93,0,0,0,96.5,0,0.001,12.68,1.017,1.081,1
"2015-09-16 12:53:35",7,12.87,18.53,66.49,9.09,54.95,"$GPRMC,175331,A,6715.0553,N,15010.5703,W,000.0,000.0,160915,019.2,E","$GPGGA,175331,6715.0553,N,15010.5703,W,2,11,0.7,331.1,M,3.9,M,,",67,15.06,-150,-10.57,0,0,19.2,2,11,331.1,"NAN",0.94,0,0,0,96.6,0,0.001,12.68,1.021,1.081,1
"2015-09-16 12:53:40",8,12.87,18.51,66.49,9.15,54.65,"$GPRMC,175336,A,6715.0553,N,15010.5703,W,000.0,000.0,160915,019.2,E","$GPGGA,175336,6715.0553,N,15010.5703,W,2,11,0.7,331.1,M,3.9,M,,",67,15.06,-150,-10.57,0,0,19.2,2,11,331.1,"NAN",0.93,0,0,0,96.5,0,0.001,12.66,1.019,1.081,1
"2015-09-16 12:53:45",9,12.87,18.51,66.49,9.12,54.48,"$GPRMC,175341,A,6715.0553,N,15010.5703,W,000.0,000.0,160915,019.2,E","$GPGGA,175341,6715.0553,N,15010.5703,W,2,11,0.7,331.1,M,3.9,M,,",67,15.06,-150,-10.57,0,0,19.2,2,11,331.1,"NAN",0.94,0,0,0,96.6,0,0.001,12.66,1.021,1.081,1
"2015-09-16 12:53:50",10,12.87,18.51,66.49,9.12,54.38,"$GPRMC,175346,A,6715.0553,N,15010.5703,W,000.0,000.0,160915,019.2,E","$GPGGA,175346,6715.0553,N,15010.5703,W,2,11,0.7,331.1,M,3.9,M,,",67,15.06,-150,-10.57,0,0,19.2,2,11,331.1,"NAN",0.94,0,0,0,96.6,0,0.001,12.61,1.017,1.081,1
"2015-09-16 12:53:55",11,12.86,18.51,66.49,9.12,54.34,"$GPRMC,175351,A,6715.0553,N,15010.5703,W,000.0,000.0,160915,019.2,E","$GPGGA,175351,6715.0553,N,15010.5703,W,2,11,0.7,331.1,M,3.9,M,,",67,15.06,-150,-10.57,0,0,19.2,2,11,331.1,"NAN",0.9,0,0,0,96.6,0,0,12.63,1.022,1.081,1
"2015-09-16 12:54:00",12,12.86,18.51,66.49,9.19,54,"$GPRMC,175356,A,6715.0553,N,15010.5703,W,000.0,000.0,160915,019.2,E","$GPGGA,175356,6715.0553,N,15010.5703,W,2,11,0.7,331.1,M,3.9,M,,",67,15.06,-150,-10.57,0,0,19.2,2,11,331.1,"NAN",0.92,0,0,0,96.5,0,0,12.62,1.023,1.081,1
"2015-09-16 12:54:05",13,12.86,18.48,66.49,9.19,53.5,"$GPRMC,175401,A,6715.0553,N,15010.5703,W,000.0,000.0,160915,019.2,E","$GPGGA,175401,6715.0553,N,15010.5703,W,2,11,0.7,331.1,M,3.9,M,,",67,15.06,-150,-10.57,0,0,19.2,2,11,331.1,"NAN",0.94,0,0,0,96.5,0,0.001,12.61,1.02,1.081,1
"2015-09-16 12:54:10",14,12.86,18.48,66.49,9.15,53.33,"$GPRMC,175406,A,6715.0553,N,15010.5703,W,000.0,000.0,160915,019.2,E","$GPGGA,175406,6715.0553,N,15010.5703,W,2,11,0.7,331.2,M,3.9,M,,",67,15.06,-150,-10.57,0,0,19.2,2,11,331.2,"NAN",0.91,0,0,0,96.6,0,0.001,12.58,1.019,1.081,1
"2015-09-16 12:54:15",15,12.86,18.48,66.49,9.15,53.05,"$GPRMC,175411,A,6715.0553,N,15010.5703,W,000.0,000.0,160915,019.2,E","$GPGGA,175411,6715.0553,N,15010.5703,W,2,11,0.7,331.2,M,3.9,M,,",67,15.06,-150,-10.57,0,0,19.2,2,11,331.2,"NAN",0.92,0,0,0,96.6,0,0.001,12.58,1.02,1.081,1
"2015-09-16 12:54:20",16,12.86,18.46,66.49,9.15,52.72,"$GPRMC,175416,A,6715.0553,N,15010.5703,W,000.0,000.0,160915,019.2,E","$GPGGA,175416,6715.0553,N,15010.5703,W,2,11,0.7,331.2,M,3.9,M,,",67,15.06,-150,-10.57,0,0,19.2,2,11,331.2,"NAN",0.92,0,0,0,96.5,0,0.001,12.58,1.016,1.081,1
"2015-09-16 12:54:25",17,12.86,18.46,66.49,9.12,52.58,"$GPRMC,175421,A,6715.0553,N,15010.5703,W,000.0,000.0,160915,019.2,E","$GPGGA,175421,6715.0553,N,15010.5703,W,2,11,0.7,331.2,M,3.9,M,,",67,15.06,-150,-10.57,0,0,19.2,2,11,331.2,"NAN",0.92,0,0,0,96.6,0,0,12.56,1.022,1.081,1
"2015-09-16 12:54:30",18,12.86,18.46,66.49,9.09,52.48,"$GPRMC,175426,A,6715.0553,N,15010.5703,W,000.0,000.0,160915,019.2,E","$GPGGA,175426,6715.0553,N,15010.5703,W,2,11,0.7,331.2,M,3.9,M,,",67,15.06,-150,-10.57,0,0,19.2,2,11,331.2,"NAN",0.93,0,0,0,96.6,0,0.001,12.53,1.019,1.081,1
"2015-09-16 12:54:35",19,12.86,18.46,66.49,9.05,52.44,"$GPRMC,175431,A,6715.0553,N,15010.5703,W,000.0,000.0,160915,019.2,E","$GPGGA,175431,6715.0553,N,15010.5703,W,2,11,0.7,331.2,M,3.9,M,,",67,15.06,-150,-10.57,0,0,19.2,2,11,331.2,"NAN",0.92,0,0,0,96.5,0,0.001,12.53,1.018,1.081,1
"2015-09-16 12:54:40",20,12.86,18.43,66.49,9.05,52.65,"$GPRMC,175436,A,6715.0553,N,15010.5703,W,000.0,000.0,160915,019.2,E","$GPGGA,175436,6715.0553,N,15010.5703,W,2,11,0.7,331.2,M,3.9,M,,",67,15.06,-150,-10.57,0,0,19.2,2,11,331.2,"NAN",0.93,0,0,0,96.6,0,0.001,12.51,1,1.079,1
"2015-09-16 12:54:45",21,12.86,18.43,66.49,9.05,52.82,"$GPRMC,175441,A,6715.0553,N,15010.5703,W,000.0,000.0,160915,019.2,E","$GPGGA,175441,6715.0553,N,15010.5703,W,2,11,0.7,331.2,M,3.9,M,,",67,15.06,-150,-10.57,0,0,19.2,2,11,331.2,"NAN",0.92,0,0,0,96.6,0,0,12.5,1.021,1.081,1
"2015-09-16 12:54:50",22,12.85,18.4,66.49,9.02,52.88,"$GPRMC,175446,A,6715.0553,N,15010.5704,W,000.0,000.0,160915,019.2,E","$GPGGA,175446,6715.0553,N,15010.5704,W,2,11,0.7,331.2,M,3.9,M,,",67,15.06,-150,-10.57,0,0,19.2,2,11,331.2,"NAN",0.92,0,0,0,96.5,0,0.001,12.49,1.016,1.081,1
"2015-09-16 12:54:55",23,12.86,18.4,66.82,8.98,52.92,"$GPRMC,175451,A,6715.0553,N,15010.5704,W,000.0,000.0,160915,019.2,E","$GPGGA,175451,6715.0553,N,15010.5704,W,2,11,0.7,331.2,M,3.9,M,,",67,15.06,-150,-10.57,0,0,19.2,2,11,331.2,"NAN",0.93,0,0,0,96.6,0,0.001,12.47,1.021,1.081,1
"2015-09-16 12:55:00",24,12.86,18.4,66.82,8.98,52.92,"$GPRMC,175456,A,6715.0553,N,15010.5704,W,000.0,000.0,160915,019.2,E","$GPGGA,175456,6715.0553,N,15010.5704,W,2,11,0.7,331.2,M,3.9,M,,",67,15.06,-150,-10.57,0,0,19.2,2,11,331.2,"NAN",0.94,0,0,0,96.6,0,0.001,12.45,1.02,1.081,1
"2015-09-16 12:55:05",25,12.86,18.4,66.82,8.95,52.99,"$GPRMC,175501,A,6715.0553,N,15010.5704,W,000.0,000.0,160915,019.2,E","$GPGGA,175501,6715.0553,N,15010.5704,W,2,11,0.7,331.2,M,3.9,M,,",67,15.06,-150,-10.57,0,0,19.2,2,11,331.2,"NAN",0.92,0,0,0,96.6,0,0.001,12.45,1.015,1.081,1
"2015-09-16 12:55:10",26,12.86,18.38,67.16,8.95,52.85,"$GPRMC,175506,A,6715.0553,N,15010.5704,W,000.0,000.0,160915,019.2,E","$GPGGA,175506,6715.0553,N,15010.5704,W,2,11,0.7,331.3,M,3.9,M,,",67,15.06,-150,-10.57,0,0,19.2,2,11,331.3,"NAN",0.93,0,0,0,96.6,0,0.001,12.44,1.019,1.081,1
"2015-09-16 12:55:15",27,12.86,18.38,67.16,8.98,52.82,"$GPRMC,175511,A,6715.0553,N,15010.5704,W,000.0,000.0,160915,019.2,E","$GPGGA,175511,6715.0553,N,15010.5704,W,2,11,0.7,331.3,M,3.9,M,,",67,15.06,-150,-10.57,0,0,19.2,2,11,331.3,"NAN",0.93,0,0,0,96.5,0,0.001,12.4,1.016,1.081,1
"2015-09-16 12:55:20",28,12.86,18.38,67.5,8.98,52.78,"$GPRMC,175516,A,6715.0553,N,15010.5704,W,000.0,000.0,160915,019.2,E","$GPGGA,175516,6715.0553,N,15010.5704,W,2,11,0.7,331.3,M,3.9,M,,",67,15.06,-150,-10.57,0,0,19.2,2,11,331.3,"NAN",0.93,0,0,0,96.6,0,0.001,12.39,1.056,1.083,1
"2015-09-16 12:55:25",29,12.86,18.35,67.84,8.92,52.89,"$GPRMC,175521,A,6715.0553,N,15010.5704,W,000.0,000.0,160915,019.2,E","$GPGGA,175521,6715.0553,N,15010.5704,W,2,11,0.7,331.3,M,3.9,M,,",67,15.06,-150,-10.57,0,0,19.2,2,11,331.3,"NAN",0.92,0,0,0,96.6,0,0,12.42,1.025,1.081,0.999
"2015-09-16 12:55:30",30,12.86,18.35,67.84,8.98,52.85,"$GPRMC,175526,A,6715.0553,N,15010.5704,W,000.0,000.0,160915,019.2,E","$GPGGA,175526,6715.0553,N,15010.5704,W,2,11,0.7,331.3,M,3.9,M,,",67,15.06,-150,-10.57,0,0,19.2,2,11,331.3,"NAN",0.94,0,0,0,96.5,0,0.001,12.39,1.018,1.081,1
"2015-09-16 12:55:35",31,12.86,18.35,68.17,8.95,52.85,"$GPRMC,175531,A,6715.0553,N,15010.5704,W,000.0,000.0,160915,019.2,E","$GPGGA,175531,6715.0553,N,15010.5704,W,2,11,0.7,331.3,M,3.9,M,,",67,15.06,-150,-10.57,0,0,19.2,2,11,331.3,"NAN",0.93,0,0,0,96.6,0,0.001,12.4,1,1.079,1
"2015-09-16 12:55:40",32,12.86,18.33,68.51,8.92,52.92,"$GPRMC,175536,A,6715.0553,N,15010.5704,W,000.0,000.0,160915,019.2,E","$GPGGA,175536,6715.0553,N,15010.5704,W,2,11,0.7,331.3,M,3.9,M,,",67,15.06,-150,-10.57,0,0,19.2,2,11,331.3,"NAN",0.93,0,0,0,96.6,0,0.001,12.39,1.091,1.085,1
"2015-09-16 12:55:45",33,12.86,18.33,69.86,8.98,53.26,"$GPRMC,175541,A,6715.0553,N,15010.5704,W,000.0,000.0,160915,019.2,E","$GPGGA,175541,6715.0553,N,15010.5704,W,2,11,0.7,331.3,M,3.9,M,,",67,15.06,-150,-10.57,0,0,19.2,2,11,331.3,"NAN",0.93,0,0,0,96.5,0,0.001,12.4,1.003,1.079,1
"2015-09-16 12:55:50",34,12.86,18.3,70.54,8.98,53.63,"$GPRMC,175546,A,6715.0553,N,15010.5704,W,000.0,000.0,160915,019.2,E","$GPGGA,175546,6715.0553,N,15010.5704,W,2,11,0.7,331.3,M,3.9,M,,",67,15.06,-150,-10.57,0,0,19.2,2,11,331.3,"NAN",0.93,0,0,0,96.6,0,0.001,12.35,1.036,1.082,1
"2015-09-16 12:55:55",35,12.86,18.3,70.87,8.98,54.04,"$GPRMC,175551,A,6715.0553,N,15010.5704,W,000.0,000.0,160915,019.2,E","$GPGGA,175551,6715.0553,N,15010.5704,W,2,11,0.7,331.3,M,3.9,M,,",67,15.06,-150,-10.57,0,0,19.2,2,11,331.3,"NAN",0.92,0,0,0,96.6,0,0,12.32,1.057,1.083,1
"2015-09-16 12:56:00",36,12.86,18.3,70.87,9.05,54.17,"$GPRMC,175556,A,6715.0553,N,15010.5704,W,000.0,000.0,160915,019.2,E","$GPGGA,175556,6715.0553,N,15010.5704,W,2,11,0.7,331.3,M,3.9,M,,",67,15.06,-150,-10.57,0,0,19.2,2,11,331.3,"NAN",0.94,0,0,0,96.5,0,0.001,12.33,1,1.078,1
"2015-09-16 12:56:05",37,12.86,18.28,71.21,9.05,54.14,"$GPRMC,175601,A,6715.0553,N,15010.5704,W,000.0,000.0,160915,019.2,E","$GPGGA,175601,6715.0553,N,15010.5704,W,2,11,0.7,331.3,M,3.9,M,,",67,15.06,-150,-10.57,0,0,19.2,2,11,331.3,"NAN",0.93,0,0,0,96.6,0,0.001,12.32,1,1.078,1
"2015-09-16 12:56:10",38,12.86,18.28,71.21,9.05,54.14,"$GPRMC,175606,A,6715.0553,N,15010.5704,W,000.0,000.0,160915,019.2,E","$GPGGA,175606,6715.0553,N,15010.5704,W,2,11,0.7,331.4,M,3.9,M,,",67,15.06,-150,-10.57,0,0,19.2,2,11,331.4,"NAN",0.93,0,0,0,96.6,0,0.001,12.31,1,1.078,1
"2015-09-16 12:56:15",39,12.86,18.25,71.89,9.05,54,"$GPRMC,175611,A,6715.0553,N,15010.5704,W,000.0,000.0,160915,019.2,E","$GPGGA,175611,6715.0553,N,15010.5704,W,2,11,0.7,331.4,M,3.9,M,,",67,15.06,-150,-10.57,0,0,19.2,2,11,331.4,"NAN",0.94,0,0,0,96.5,0,0.001,12.29,1,1.078,1
"2015-09-16 12:56:20",40,12.86,18.25,71.89,9.05,53.97,"$GPRMC,175616,A,6715.0553,N,15010.5704,W,000.0,000.0,160915,019.2,E","$GPGGA,175616,6715.0553,N,15010.5704,W,2,11,0.7,331.4,M,3.9,M,,",67,15.06,-150,-10.57,0,0,19.2,2,11,331.4,"NAN",0.93,0,0,0,96.6,0,0.001,12.24,1,1.078,1
"2015-09-16 12:56:25",41,12.86,18.25,72.22,8.98,53.9,"$GPRMC,175621,A,6715.0553,N,15010.5704,W,000.0,000.0,160915,019.2,E","$GPGGA,175621,6715.0553,N,15010.5704,W,2,11,0.7,331.4,M,3.9,M,,",67,15.06,-150,-10.57,0,0,19.2,2,11,331.4,"NAN",0.9,0,0,0,96.6,0,0.001,12.2,1,1.078,1
"2015-09-16 12:56:30",42,12.86,18.23,72.22,9.05,53.83,"$GPRMC,175626,A,6715.0553,N,15010.5705,W,000.0,000.0,160915,019.2,E","$GPGGA,175626,6715.0553,N,15010.5705,W,2,11,0.7,331.4,M,3.9,M,,",67,15.06,-150,-10.57,0,0,19.2,2,11,331.4,"NAN",0.92,0,0,0,96.6,0,0,12.18,1,1.078,0.999
"2015-09-16 12:56:35",43,12.86,18.23,72.56,9.05,53.83,"$GPRMC,175631,A,6715.0553,N,15010.5705,W,000.0,000.0,160915,019.2,E","$GPGGA,175631,6715.0553,N,15010.5705,W,2,11,0.7,331.4,M,3.9,M,,",67,15.06,-150,-10.57,0,0,19.2,2,11,331.4,"NAN",0.93,0,0,0,96.6,0,0.001,12.19,1,1.078,1
"2015-09-16 12:56:40",44,12.86,18.23,72.56,9.09,53.87,"$GPRMC,175636,A,6715.0553,N,15010.5705,W,000.0,000.0,160915,019.2,E","$GPGGA,175636,6715.0553,N,15010.5705,W,2,11,0.7,331.4,M,3.9,M,,",67,15.06,-150,-10.57,0,0,19.2,2,11,331.4,"NAN",0.94,0,0,0,96.6,0,0.001,12.16,1,1.078,1
"2015-09-16 12:56:45",45,12.86,18.2,72.56,9.05,53.87,"$GPRMC,175641,A,6715.0553,N,15010.5705,W,000.0,000.0,160915,019.2,E","$GPGGA,175641,6715.0553,N,15010.5705,W,2,11,0.7,331.4,M,3.9,M,,",67,15.06,-150,-10.57,0,0,19.2,2,11,331.4,"NAN",0.93,0,0,0,96.6,0,0.001,12.14,1,1.078,1
"2015-09-16 12:56:50",46,12.86,18.2,72.9,9.02,53.83,"$GPRMC,175646,A,6715.0548,N,15010.5739,W,003.4,246.1,160915,019.2,E","$GPGGA,175646,6715.0548,N,15010.5739,W,2,11,0.7,331.7,M,3.9,M,,",67,15.06,-150,-10.57,2.3,244,19.2,2,11,331.6,"NAN",0.91,0,0,0,96.6,0,0.001,12.13,1,1.078,1
"2015-09-16 12:56:55",47,12.86,18.2,75.94,9.02,53.8,"$GPRMC,175651,A,6715.0532,N,15010.5964,W,007.3,265.8,160915,019.2,E","$GPGGA,175651,6715.0532,N,15010.5964,W,2,11,0.7,331.8,M,3.9,M,,",67,15.05,-150,-10.59,6.6,260.9,19.2,2,11,331.8,"NAN",0.93,0,0,0,96.6,0,0.001,12.13,1,1.078,1
"2015-09-16 12:57:00",48,12.86,18.2,75.94,9.02,54.34,"$GPRMC,175656,A,6715.0531,N,15010.6274,W,007.9,270.5,160915,019.2,E","$GPGGA,175656,6715.0531,N,15010.6274,W,2,11,0.7,331.9,M,3.9,M,,",67,15.05,-150,-10.62,8.3,270.3,19.2,2,11,331.9,"NAN",0.91,0,0,0,96.6,0,0.001,12.06,1,1.078,1
"2015-09-16 12:57:05",49,12.86,18.17,75.6,9.05,54.89,"$GPRMC,175701,A,6715.0533,N,15010.6549,W,007.5,270.0,160915,019.2,E","$GPGGA,175701,6715.0533,N,15010.6549,W,2,11,0.7,331.8,M,3.9,M,,",67,15.05,-150,-10.65,7.6,271.4,19.2,2,11,331.8,"NAN",0.92,0,0,0,96.6,0,0,12.07,1,1.078,1
"2015-09-16 12:57:10",50,12.86,18.17,70.87,9.12,55.56,"$GPRMC,175706,A,6715.0525,N,15010.6822,W,007.5,276.4,160915,019.2,E","$GPGGA,175706,6715.0525,N,15010.6822,W,2,11,0.7,331.4,M,3.9,M,,",67,15.05,-150,-10.68,7.7,267.5,19.2,2,11,331.5,"NAN",0.94,0,0,0,96.6,0,0,12.09,1,1.078,1
"2015-09-16 12:57:15",51,12.86,18.17,74.92,9.15,55.97,"$GPRMC,175711,A,6715.0558,N,15010.7039,W,005.6,309.3,160915,019.2,E","$GPGGA,175711,6715.0558,N,15010.7039,W,2,11,0.7,331.9,M,3.9,M,,",67,15.05,-150,-10.7,6.1,298.8,19.2,2,11,331.7,"NAN",0.92,0,0,0,96.6,0,0,12.03,1,1.078,1
"2015-09-16 12:57:20",52,12.86,18.15,76.61,9.19,55.94,"$GPRMC,175716,A,6715.0632,N,15010.7097,W,006.0,009.0,160915,019.2,E","$GPGGA,175716,6715.0632,N,15010.7097,W,2,11,0.7,331.1,M,3.9,M,,",67,15.06,-150,-10.71,6,357.9,19.2,2,11,331.2,"NAN",0.89,0,0,0,96.6,0,0.001,12.03,1,1.078,1
"2015-09-16 12:57:25",53,12.86,18.15,77.29,9.22,55.73,"$GPRMC,175721,A,6715.0707,N,15010.6995,W,006.9,023.6,160915,019.2,E","$GPGGA,175721,6715.0707,N,15010.6995,W,2,11,0.7,330.6,M,3.9,M,,",67,15.07,-150,-10.7,6.6,25.4,19.2,2,11,330.7,"NAN",0.88,0,0,0,96.6,0,0.001,12,1.001,1.079,1
"2015-09-16 12:57:30",54,12.86,18.15,77.29,9.29,55.36,"$GPRMC,175726,A,6715.0789,N,15010.6908,W,005.8,018.6,160915,019.2,E","$GPGGA,175726,6715.0789,N,15010.6908,W,2,11,0.7,330.2,M,3.9,M,,",67,15.08,-150,-10.69,5.9,19.2,19.2,2,11,330.3,"NAN",0.93,0,0,0,96.6,0,0,11.98,1.005,1.079,1
"2015-09-16 12:57:35",55,12.86,18.15,77.29,9.42,55.09,"$GPRMC,175731,A,6715.0850,N,15010.6849,W,004.1,021.1,160915,019.2,E","$GPGGA,175731,6715.0850,N,15010.6849,W,2,11,0.7,329.8,M,3.9,M,,",67,15.08,-150,-10.69,4.3,19.6,19.2,2,11,329.9,"NAN",0.93,0,0,0,96.6,0,0.001,11.98,1,1.079,1
"2015-09-16 12:57:40",56,12.86,18.12,77.96,9.53,55.09,"$GPRMC,175736,A,6715.0895,N,15010.6810,W,002.2,020.3,160915,019.2,E","$GPGGA,175736,6715.0895,N,15010.6810,W,2,11,0.7,329.6,M,3.9,M,,",67,15.09,-150,-10.68,3.2,20.3,19.2,2,11,329.6,"NAN",0.93,0,0,0,96.6,0,0.001,11.99,1.002,1.079,1
"2015-09-16 12:57:45",57,12.86,18.12,77.96,9.63,55.39,"$GPRMC,175741,A,6715.0914,N,15010.6796,W,000.0,020.3,160915,019.2,E","$GPGGA,175741,6715.0914,N,15010.6796,W,2,11,0.7,329.5,M,3.9,M,,",67,15.09,-150,-10.68,0,20.3,19.2,2,11,329.5,"NAN",0.89,0,0,0,96.6,0,0.001,11.93,1.001,1.079,1
"2015-09-16 12:57:50",58,12.86,18.1,77.29,9.73,55.77,"$GPRMC,175746,A,6715.0945,N,15010.6747,W,000.0,020.3,160915,019.2,E","$GPGGA,175746,6715.0945,N,15010.6747,W,2,11,0.7,329.5,M,3.9,M,,",67,15.09,-150,-10.68,0,20.3,19.2,2,11,329.4,"NAN",0.93,0,0,0,96.6,0,0.001,11.93,1.001,1.079,1
"2015-09-16 12:57:55",59,12.86,18.1,76.95,9.8,55.77,"$GPRMC,175751,A,6715.0967,N,15010.6670,W,003.5,025.2,160915,019.2,E","$GPGGA,175751,6715.0967,N,15010.6670,W,2,11,0.7,329.8,M,3.9,M,,",67,15.1,-150,-10.67,3,22.4,19.2,2,11,329.8,"NAN",0.92,0,0,0,96.6,0,0.001,11.93,1,1.078,1
"2015-09-16 12:58:00",60,12.86,18.1,78.64,9.97,55.84,"$GPRMC,175756,A,6715.0981,N,15010.6535,W,004.3,044.9,160915,019.2,E","$GPGGA,175756,6715.0981,N,15010.6535,W,2,11,0.7,329.9,M,3.9,M,,",67,15.1,-150,-10.66,4.3,41.6,19.2,2,11,329.9,"NAN",0.92,0,0,0,96.6,0,0.001,11.9,1,1.079,1
"2015-09-16 12:58:05",61,12.86,18.1,79.65,10,55.46,"$GPRMC,175801,A,6715.1008,N,15010.6507,W,000.0,044.2,160915,019.2,E","$GPGGA,175801,6715.1008,N,15010.6507,W,2,11,0.7,329.7,M,3.9,M,,",67,15.1,-150,-10.65,0,44.2,19.2,2,11,329.7,"NAN",0.93,0,0,0,96.6,0,0.001,11.89,1,1.079,1
"2015-09-16 12:58:10",62,12.86,18.1,79.65,10.14,55.16,"$GPRMC,175806,A,6715.1010,N,15010.6507,W,000.0,044.2,160915,019.2,E","$GPGGA,175806,6715.1010,N,15010.6507,W,2,11,0.7,329.7,M,3.9,M,,",67,15.1,-150,-10.65,0,44.2,19.2,2,11,329.7,"NAN",0.93,0,0,0,96.6,0,0.001,11.89,1.002,1.079,1
"2015-09-16 12:58:15",63,12.86,18.07,75.6,10.34,54.82,"$GPRMC,175811,A,6715.1031,N,15010.6623,W,003.8,244.0,160915,019.2,E","$GPGGA,175811,6715.1031,N,15010.6623,W,2,11,0.7,329.4,M,3.9,M,,",67,15.1,-150,-10.66,4,266.1,19.2,2,11,329.4,"NAN",0.89,0,0,0,96.6,0,0,11.88,1,1.078,1
"2015-09-16 12:58:20",64,12.86,18.07,74.92,10.41,54.55,"$GPRMC,175816,A,6715.1023,N,15010.6658,W,000.0,214.0,160915,019.2,E","$GPGGA,175816,6715.1023,N,15010.6658,W,2,11,0.7,329.4,M,3.9,M,,",67,15.1,-150,-10.67,0,214,19.2,2,11,329.4,"NAN",0.93,0,0,0,96.6,0,0.001,11.82,1,1.079,1
"2015-09-16 12:58:25",65,12.86,18.05,75.26,10.58,54.11,"$GPRMC,175821,A,6715.1023,N,15010.6658,W,000.0,214.0,160915,019.2,E","$GPGGA,175821,6715.1023,N,15010.6658,W,2,11,0.7,329.5,M,3.9,M,,",67,15.1,-150,-10.67,0,214,19.2,2,11,329.5,"NAN",0.92,0,0,0,96.6,0,0.001,11.84,1.001,1.079,1
"2015-09-16 12:58:30",66,12.86,18.05,76.27,10.71,53.83,"$GPRMC,175826,A,6715.1016,N,15010.6676,W,003.7,227.5,160915,019.2,E","$GPGGA,175826,6715.1016,N,15010.6676,W,2,11,0.7,329.5,M,3.9,M,,",67,15.1,-150,-10.67,2.2,221.5,19.2,2,11,329.5,"NAN",0.89,0,0,0,96.6,0,0,11.86,1.005,1.079,1
"2015-09-16 12:58:35",67,12.86,18.05,75.26,10.85,53.46,"$GPRMC,175831,A,6715.0988,N,15010.6779,W,000.4,238.1,160915,019.2,E","$GPGGA,175831,6715.0988,N,15010.6779,W,2,11,0.7,329.6,M,3.9,M,,",67,15.1,-150,-10.68,2.1,238.1,19.2,2,11,329.6,"NAN",0.93,0,0,0,96.6,0,0.001,11.84,1,1.079,1
"2015-09-16 12:58:40",68,12.86,18.05,75.26,10.92,52.92,"$GPRMC,175836,A,6715.0987,N,15010.6775,W,000.0,238.1,160915,019.2,E","$GPGGA,175836,6715.0987,N,15010.6775,W,2,11,0.7,329.5,M,3.9,M,,",67,15.1,-150,-10.68,0,238.1,19.2,2,11,329.5,"NAN",0.92,0,0,0,96.6,0,0,11.85,1.005,1.079,1
"2015-09-16 12:58:45",69,12.86,18.05,75.6,11.02,52.55,"$GPRMC,175841,A,6715.0987,N,15010.6775,W,000.0,238.1,160915,019.2,E","$GPGGA,175841,6715.0987,N,15010.6775,W,2,11,0.7,329.6,M,3.9,M,,",67,15.1,-150,-10.68,0,238.1,19.2,2,11,329.6,"NAN",0.93,0,0,0,96.6,0,0.001,11.83,1.002,1.079,1
"2015-09-16 12:58:50",70,12.86,18.02,75.94,11.16,52.24,"$GPRMC,175846,A,6715.0987,N,15010.6775,W,000.0,238.1,160915,019.2,E","$GPGGA,175846,6715.0987,N,15010.6775,W,2,11,0.7,329.6,M,3.9,M,,",67,15.1,-150,-10.68,0,238.1,19.2,2,11,329.6,"NAN",0.93,0,0,0,96.6,0,0.001,11.82,1.002,1.079,1
"2015-09-16 12:58:55",71,12.86,18.02,75.94,11.29,51.9,"$GPRMC,175851,A,6715.0987,N,15010.6775,W,000.0,238.1,160915,019.2,E","$GPGGA,175851,6715.0987,N,15010.6775,W,2,11,0.7,329.6,M,3.9,M,,",67,15.1,-150,-10.68,0,238.1,19.2,2,11,329.6,"NAN",0.94,0,0,0,96.6,0,0.001,11.83,1,1.079,1
"2015-09-16 12:59:00",72,12.86,17.99,75.94,11.36,51.66,"$GPRMC,175856,A,6715.0987,N,15010.6775,W,000.0,238.1,160915,019.2,E","$GPGGA,175856,6715.0987,N,15010.6775,W,2,11,0.7,329.6,M,3.9,M,,",67,15.1,-150,-10.68,0,238.1,19.2,2,11,329.6,"NAN",0.93,0,0,0,96.6,0,0,11.83,1.005,1.079,1
"2015-09-16 12:59:05",73,12.86,17.99,76.27,11.46,51.43,"$GPRMC,175901,A,6715.0987,N,15010.6775,W,000.0,238.1,160915,019.2,E","$GPGGA,175901,6715.0987,N,15010.6775,W,2,11,0.7,329.6,M,3.9,M,,",67,15.1,-150,-10.68,0,238.1,19.2,2,11,329.6,"NAN",0.94,0,0,0,96.6,0,0.001,11.83,1.002,1.079,1
"2015-09-16 12:59:10",74,12.86,17.99,76.27,11.53,51.32,"$GPRMC,175906,A,6715.0987,N,15010.6775,W,000.0,238.1,160915,019.2,E","$GPGGA,175906,6715.0987,N,15010.6775,W,2,11,0.7,329.6,M,3.9,M,,",67,15.1,-150,-10.68,0,238.1,19.2,2,11,329.6,"NAN",0.93,0,0,0,96.6,0,0.001,11.79,1.002,1.079,1
"2015-09-16 12:59:15",75,12.86,17.99,76.27,11.6,51.22,"$GPRMC,175911,A,6715.0987,N,15010.6775,W,000.0,238.1,160915,019.2,E","$GPGGA,175911,6715.0987,N,15010.6775,W,2,11,0.7,329.6,M,3.9,M,,",67,15.1,-150,-10.68,0,238.1,19.2,2,11,329.6,"NAN",0.93,0,0,0,96.6,0,0.001,11.75,1.002,1.079,1
"2015-09-16 12:59:20",76,12.86,17.97,76.27,11.63,51.09,"$GPRMC,175916,A,6715.0987,N,15010.6775,W,000.0,238.1,160915,019.2,E","$GPGGA,175916,6715.0987,N,15010.6775,W,2,11,0.7,329.6,M,3.9,M,,",67,15.1,-150,-10.68,0,238.1,19.2,2,11,329.6,"NAN",0.94,0,0,0,96.6,0,0.001,11.76,1,1.079,1
"2015-09-16 12:59:25",77,12.86,17.97,76.27,11.63,50.88,"$GPRMC,175921,A,6715.0987,N,15010.6775,W,000.0,238.1,160915,019.2,E","$GPGGA,175921,6715.0987,N,15010.6775,W,2,11,0.7,329.6,M,3.9,M,,",67,15.1,-150,-10.68,0,238.1,19.2,2,11,329.6,"NAN",0.92,0,0,0,96.6,0,0.001,11.74,1,1.079,1
"2015-09-16 12:59:30",78,12.86,17.97,76.27,11.66,50.65,"$GPRMC,175926,A,6715.0987,N,15010.6775,W,000.0,238.1,160915,019.2,E","$GPGGA,175926,6715.0987,N,15010.6775,W,2,11,0.7,329.6,M,3.9,M,,",67,15.1,-150,-10.68,0,238.1,19.2,2,11,329.6,"NAN",0.9,0,0,0,96.6,0,0.001,11.73,1.002,1.079,1
"2015-09-16 12:59:35",79,12.86,17.95,76.61,11.7,50.34,"$GPRMC,175931,A,6715.0987,N,15010.6776,W,000.0,238.1,160915,019.2,E","$GPGGA,175931,6715.0987,N,15010.6776,W,2,11,0.7,329.6,M,3.9,M,,",67,15.1,-150,-10.68,0,238.1,19.2,2,11,329.6,"NAN",0.93,0,0,0,96.6,0,0.001,11.74,1.002,1.079,1
"2015-09-16 12:59:40",80,12.86,17.92,76.61,11.7,50.2,"$GPRMC,175936,A,6715.0988,N,15010.6776,W,000.0,238.1,160915,019.2,E","$GPGGA,175936,6715.0988,N,15010.6776,W,2,11,0.7,329.6,M,3.9,M,,",67,15.1,-150,-10.68,0,238.1,19.2,2,11,329.6,"NAN",0.93,0,0,0,96.6,0,0.001,11.72,1,1.079,1
"2015-09-16 12:59:45",81,12.86,17.92,76.61,11.7,50.07,"$GPRMC,175941,A,6715.0988,N,15010.6776,W,000.0,238.1,160915,019.2,E","$GPGGA,175941,6715.0988,N,15010.6776,W,2,11,0.7,329.7,M,3.9,M,,",67,15.1,-150,-10.68,0,238.1,19.2,2,11,329.7,"NAN",0.92,0,0,0,96.6,0,0.001,11.72,1.003,1.079,1
"2015-09-16 12:59:50",82,12.85,17.92,76.95,11.73,50,"$GPRMC,175946,A,6715.0988,N,15010.6776,W,000.0,238.1,160915,019.2,E","$GPGGA,175946,6715.0988,N,15010.6776,W,2,11,0.7,329.7,M,3.9,M,,",67,15.1,-150,-10.68,0,238.1,19.2,2,11,329.7,"NAN",0.89,0,0,0,96.6,0,0.001,11.7,1.001,1.079,1
"2015-09-16 12:59:55",83,12.85,17.92,77.29,11.66,49.87,"$GPRMC,175951,A,6715.0988,N,15010.6776,W,000.0,238.1,160915,019.2,E","$GPGGA,175951,6715.0988,N,15010.6776,W,2,11,0.7,329.7,M,3.9,M,,",67,15.1,-150,-10.68,0,238.1,19.2,2,11,329.7,"NAN",0.93,0,0,0,96.6,0,0.001,11.68,1.002,1.079,1
"2015-09-16 13:00:00",84,12.85,17.89,77.29,11.7,49.73,"$GPRMC,175956,A,6715.0988,N,15010.6776,W,000.0,238.1,160915,019.2,E","$GPGGA,175956,6715.0988,N,15010.6776,W,2,11,0.7,329.7,M,3.9,M,,",67,15.1,-150,-10.68,0,238.1,19.2,2,11,329.7,"NAN",0.93,0,0,0,96.6,0,0.001,11.68,1.003,1.079,1
"2015-09-16 13:00:05",85,12.85,17.89,77.62,11.7,49.59,"$GPRMC,180001,A,6715.0988,N,15010.6776,W,000.0,238.1,160915,019.2,E","$GPGGA,180001,6715.0988,N,15010.6776,W,2,11,0.7,329.7,M,3.9,M,,",67,15.1,-150,-10.68,0,238.1,19.2,2,11,329.7,"NAN",0.92,0,0,0,96.6,0,0.001,11.64,1.003,1.079,1
"2015-09-16 13:00:10",86,12.84,17.89,77.96,11.7,48.98,"$GPRMC,180006,A,6715.0988,N,15010.6777,W,000.0,238.1,160915,019.2,E","$GPGGA,180006,6715.0988,N,15010.6777,W,2,11,0.7,329.7,M,3.9,M,,",67,15.1,-150,-10.68,0,238.1,19.2,2,11,329.7,"NAN",0.94,0,0,0,96.6,0,0.001,11.62,1.001,1.079,1
"2015-09-16 13:00:15",87,12.84,17.89,78.3,11.7,48,"$GPRMC,180011,A,6715.0988,N,15010.6777,W,000.0,238.1,160915,019.2,E","$GPGGA,180011,6715.0988,N,15010.6777,W,2,11,0.7,329.7,M,3.9,M,,",67,15.1,-150,-10.68,0,238.1,19.2,2,11,329.7,"NAN",0.92,0,0,0,96.6,0,0.001,11.63,1.001,1.079,1
"2015-09-16 13:00:20",88,12.84,17.87,78.64,11.66,47.25,"$GPRMC,180016,A,6715.0988,N,15010.6777,W,000.0,238.1,160915,019.2,E","$GPGGA,180016,6715.0988,N,15010.6777,W,2,11,0.7,329.7,M,3.9,M,,",67,15.1,-150,-10.68,0,238.1,19.2,2,11,329.7,"NAN",0.94,0,0,0,96.6,0,0.001,11.61,1.001,1.079,1
"2015-09-16 13:00:25",89,12.84,17.87,78.97,11.66,46.85,"$GPRMC,180021,A,6715.0988,N,15010.6777,W,000.0,238.1,160915,019.2,E","$GPGGA,180021,6715.0988,N,15010.6777,W,2,11,0.7,329.7,M,3.9,M,,",67,15.1,-150,-10.68,0,238.1,19.2,2,11,329.7,"NAN",0.92,0,0,0,96.6,0,0.001,11.57,1,1.079,1
"2015-09-16 13:00:30",90,12.84,17.87,79.31,11.66,46.47,"$GPRMC,180026,A,6715.0988,N,15010.6777,W,000.0,238.1,160915,019.2,E","$GPGGA,180026,6715.0988,N,15010.6777,W,2,11,0.7,329.7,M,3.9,M,,",67,15.1,-150,-10.68,0,238.1,19.2,2,11,329.7,"NAN",0.92,0,0,0,96.6,0,0.001,11.56,1.001,1.079,1
"2015-09-16 13:00:35",91,12.84,17.84,79.65,11.7,46.24,"$GPRMC,180031,A,6715.0988,N,15010.6777,W,000.0,238.1,160915,019.2,E","$GPGGA,180031,6715.0988,N,15010.6777,W,2,11,0.7,329.7,M,3.9,M,,",67,15.1,-150,-10.68,0,238.1,19.2,2,11,329.7,"NAN",0.93,0,0,0,96.6,0,0,11.55,1.005,1.079,1
"2015-09-16 13:00:40",92,12.84,17.84,79.99,11.6,45.93,"$GPRMC,180036,A,6715.0988,N,15010.6777,W,000.0,238.1,160915,019.2,E","$GPGGA,180036,6715.0988,N,15010.6777,W,2,11,0.7,329.7,M,3.9,M,,",67,15.1,-150,-10.68,0,238.1,19.2,2,11,329.7,"NAN",0.9,0,0,0,96.6,0,0,11.53,1.006,1.079,1
"2015-09-16 13:00:45",93,12.84,17.84,80.3,11.56,45.79,"$GPRMC,180041,A,6715.0988,N,15010.6777,W,000.0,238.1,160915,019.2,E","$GPGGA,180041,6715.0988,N,15010.6777,W,2,11,0.7,329.7,M,3.9,M,,",67,15.1,-150,-10.68,0,238.1,19.2,2,11,329.7,"NAN",0.93,0,0,0,96.6,0,0,11.53,1.004,1.079,1
"2015-09-16 13:00:50",94,12.84,17.82,80.7,11.63,45.49,"$GPRMC,180046,A,6715.0988,N,15010.6777,W,000.0,238.1,160915,019.2,E","$GPGGA,180046,6715.0988,N,15010.6777,W,2,10,0.8,329.7,M,3.9,M,,",67,15.1,-150,-10.68,0,238.1,19.2,2,10,329.7,"NAN",0.94,0,0,0,96.6,0,0.001,11.5,1.001,1.079,1
"2015-09-16 13:00:55",95,12.84,17.82,81,11.6,45.39,"$GPRMC,180051,A,6715.0988,N,15010.6777,W,000.0,238.1,160915,019.2,E","$GPGGA,180051,6715.0988,N,15010.6777,W,2,10,0.8,329.7,M,3.9,M,,",67,15.1,-150,-10.68,0,238.1,19.2,2,10,329.7,"NAN",0.94,0,0,0,96.6,0,0.001,11.47,1.002,1.079,1
"2015-09-16 13:01:00",96,12.84,17.82,81.3,11.6,45.32,"$GPRMC,180056,A,6715.0988,N,15010.6777,W,000.0,238.1,160915,019.2,E","$GPGGA,180056,6715.0988,N,15010.6777,W,2,10,0.8,329.7,M,3.9,M,,",67,15.1,-150,-10.68,0,238.1,19.2,2,10,329.7,"NAN",0.95,0,0,0,96.6,0,0.001,11.46,1.002,1.079,1
"2015-09-16 13:01:05",97,12.84,17.82,81.7,11.56,45.12,"$GPRMC,180101,A,6715.0988,N,15010.6777,W,000.0,238.1,160915,019.2,E","$GPGGA,180101,6715.0988,N,15010.6777,W,2,10,0.8,329.7,M,3.9,M,,",67,15.1,-150,-10.68,0,238.1,19.2,2,10,329.7,"NAN",0.95,0,0,0,96.6,0,0,11.44,1.004,1.079,1
"2015-09-16 13:01:10",98,12.84,17.79,82,11.56,44.98,"$GPRMC,180106,A,6715.0988,N,15010.6777,W,000.0,238.1,160915,019.2,E","$GPGGA,180106,6715.0988,N,15010.6777,W,2,10,0.8,329.7,M,3.9,M,,",67,15.1,-150,-10.68,0,238.1,19.2,2,10,329.7,"NAN",0.94,0,0,0,96.6,0,0.001,11.42,1.002,1.079,1
"2015-09-16 13:01:15",99,12.84,17.79,82.7,11.53,44.98,"$GPRMC,180111,A,6715.0988,N,15010.6777,W,000.0,238.1,160915,019.2,E","$GPGGA,180111,6715.0988,N,15010.6777,W,2,10,0.8,329.7,M,3.9,M,,",67,15.1,-150,-10.68,0,238.1,19.2,2,10,329.7,"NAN",0.95,0,0,0,96.6,0,0,11.41,1.004,1.079,1
"2015-09-16 13:01:20",100,12.84,17.79,82.7,11.49,44.91,"$GPRMC,180116,A,6715.0988,N,15010.6777,W,000.0,238.1,160915,019.2,E","$GPGGA,180116,6715.0988,N,15010.6777,W,2,10,0.8,329.7,M,3.9,M,,",67,15.1,-150,-10.68,0,238.1,19.2,2,10,329.7,"NAN",0.94,0,0,0,96.6,0,0,11.39,1.005,1.079,1
"2015-09-16 13:01:25",101,12.85,17.77,83,11.46,44.98,"$GPRMC,180121,A,6715.0988,N,15010.6777,W,000.0,238.1,160915,019.2,E","$GPGGA,180121,6715.0988,N,15010.6777,W,2,10,0.8,329.7,M,3.9,M,,",67,15.1,-150,-10.68,0,238.1,19.2,2,10,329.7,"NAN",0.93,0,0,0,96.6,0,0.001,11.38,1.003,1.079,1
"2015-09-16 13:01:30",102,12.85,17.77,83.4,11.5,45.05,"$GPRMC,180126,A,6715.0988,N,15010.6777,W,000.0,238.1,160915,019.2,E","$GPGGA,180126,6715.0988,N,15010.6777,W,2,10,0.8,329.7,M,3.9,M,,",67,15.1,-150,-10.68,0,238.1,19.2,2,11,329.7,"NAN",0.94,0,0,0,96.6,0,0.001,11.34,1,1.079,1
"2015-09-16 13:01:35",103,12.85,17.77,83.7,11.46,45.12,"$GPRMC,180131,A,6715.0988,N,15010.6777,W,000.0,238.1,160915,019.2,E","$GPGGA,180131,6715.0988,N,15010.6777,W,2,10,0.8,329.7,M,3.9,M,,",67,15.1,-150,-10.68,0,238.1,19.2,2,10,329.7,"NAN",0.95,0,0,0,96.6,0,0.001,11.35,1.002,1.079,1
"2015-09-16 13:01:40",104,12.85,17.77,84,11.43,45.25,"$GPRMC,180136,A,6715.0988,N,15010.6777,W,000.0,238.1,160915,019.2,E","$GPGGA,180136,6715.0988,N,15010.6777,W,2,10,0.8,329.7,M,3.9,M,,",67,15.1,-150,-10.68,0,238.1,19.2,2,10,329.7,"NAN",0.93,0,0,0,96.6,0,0.001,11.33,1,1.079,1
"2015-09-16 13:01:45",105,12.85,17.74,84.4,11.39,45.46,"$GPRMC,180141,A,6715.0988,N,15010.6777,W,000.0,238.1,160915,019.2,E","$GPGGA,180141,6715.0988,N,15010.6777,W,2,10,0.8,329.7,M,3.9,M,,",67,15.1,-150,-10.68,0,238.1,19.2,2,10,329.7,"NAN",0.94,0,0,0,96.6,0,0.001,11.29,1.003,1.079,1
"2015-09-16 13:01:50",106,12.85,17.74,84.4,11.36,45.59,"$GPRMC,180146,A,6715.0988,N,15010.6777,W,000.0,238.1,160915,019.2,E","$GPGGA,180146,6715.0988,N,15010.6777,W,2,10,0.8,329.7,M,3.9,M,,",67,15.1,-150,-10.68,0,238.1,19.2,2,10,329.7,"NAN",0.95,0,0,0,96.6,0,0.001,11.29,1,1.079,1
"2015-09-16 13:01:55",107,12.85,17.74,84.7,11.39,45.86,"$GPRMC,180151,A,6715.0988,N,15010.6777,W,000.0,238.1,160915,019.2,E","$GPGGA,180151,6715.0988,N,15010.6777,W,2,10,0.8,329.7,M,3.9,M,,",67,15.1,-150,-10.68,0,238.1,19.2,2,10,329.7,"NAN",0.94,0,0,0,96.6,0,0,11.27,1.004,1.079,1
"2015-09-16 13:02:00",108,12.85,17.72,85,11.43,46.03,"$GPRMC,180156,A,6715.0989,N,15010.6777,W,000.0,238.1,160915,019.2,E","$GPGGA,180156,6715.0989,N,15010.6777,W,2,10,0.8,329.7,M,3.9,M,,",67,15.1,-150,-10.68,0,238.1,19.2,2,10,329.7,"NAN",0.95,0,0,0,96.6,0,0.001,11.24,1.002,1.079,1
"2015-09-16 13:02:05",109,12.85,17.72,85,11.39,46.17,"$GPRMC,180201,A,6715.0989,N,15010.6777,W,000.0,238.1,160915,019.2,E","$GPGGA,180201,6715.0989,N,15010.6777,W,2,10,0.8,329.7,M,3.9,M,,",67,15.1,-150,-10.68,0,238.1,19.2,2,10,329.7,"NAN",0.95,0,0,0,96.6,0,0.001,11.25,1.002,1.079,1
"2015-09-16 13:02:10",110,12.85,17.72,85,11.36,46.64,"$GPRMC,180206,A,6715.0989,N,15010.6777,W,000.0,238.1,160915,019.2,E","$GPGGA,180206,6715.0989,N,15010.6777,W,2,10,0.8,329.7,M,3.9,M,,",67,15.1,-150,-10.68,0,238.1,19.2,2,10,329.7,"NAN",0.93,0,0,0,96.6,0,0.001,11.23,1,1.079,1
"2015-09-16 13:02:15",111,12.85,17.72,85.4,11.36,46.95,"$GPRMC,180211,A,6715.0989,N,15010.6777,W,000.0,238.1,160915,019.2,E","$GPGGA,180211,6715.0989,N,15010.6777,W,2,10,0.8,329.7,M,3.9,M,,",67,15.1,-150,-10.68,0,238.1,19.2,2,10,329.7,"NAN",0.93,0,0,0,96.6,0,0.001,11.2,1,1.079,1
"2015-09-16 13:02:20",112,12.85,17.69,85.4,11.39,47.09,"$GPRMC,180216,A,6715.0989,N,15010.6777,W,000.0,238.1,160915,019.2,E","$GPGGA,180216,6715.0989,N,15010.6777,W,2,10,0.8,329.7,M,3.9,M,,",67,15.1,-150,-10.68,0,238.1,19.2,2,10,329.7,"NAN",0.94,0,0,0,96.6,0,0.001,11.2,1,1.079,1
"2015-09-16 13:02:25",113,12.85,17.69,85.4,11.33,46.95,"$GPRMC,180221,A,6715.0989,N,15010.6777,W,000.0,238.1,160915,019.2,E","$GPGGA,180221,6715.0989,N,15010.6777,W,2,10,0.8,329.7,M,3.9,M,,",67,15.1,-150,-10.68,0,238.1,19.2,2,10,329.7,"NAN",0.93,0,0,0,96.6,0,0.001,11.19,1.002,1.079,1
"2015-09-16 13:02:30",114,12.85,17.66,85.7,11.29,46.88,"$GPRMC,180226,A,6715.0989,N,15010.6777,W,000.0,238.1,160915,019.2,E","$GPGGA,180226,6715.0989,N,15010.6777,W,2,10,0.8,329.7,M,3.9,M,,",67,15.1,-150,-10.68,0,238.1,19.2,2,10,329.7,"NAN",0.95,0,0,0,96.6,0,0.001,11.16,1.002,1.079,1
"2015-09-16 13:02:35",115,12.85,17.66,85.7,11.29,46.78,"$GPRMC,180231,A,6715.0989,N,15010.6777,W,000.0,238.1,160915,019.2,E","$GPGGA,180231,6715.0989,N,15010.6777,W,2,10,0.8,329.7,M,3.9,M,,",67,15.1,-150,-10.68,0,238.1,19.2,2,10,329.7,"NAN",0.92,0,0,0,96.6,0,0.001,11.14,1,1.079,1
"2015-09-16 13:02:40",116,12.85,17.66,85.7,11.29,46.75,"$GPRMC,180236,A,6715.0989,N,15010.6777,W,000.0,238.1,160915,019.2,E","$GPGGA,180236,6715.0989,N,15010.6777,W,2,10,0.8,329.7,M,3.9,M,,",67,15.1,-150,-10.68,0,238.1,19.2,2,10,329.7,"NAN",0.93,0,0,0,96.6,0,0.001,11.13,1.003,1.079,1
"2015-09-16 13:02:45",117,12.85,17.66,85.7,11.29,46.75,"$GPRMC,180241,A,6715.0989,N,15010.6777,W,000.0,238.1,160915,019.2,E","$GPGGA,180241,6715.0989,N,15010.6777,W,2,10,0.8,329.7,M,3.9,M,,",67,15.1,-150,-10.68,0,238.1,19.2,2,10,329.7,"NAN",0.9,0,0,0,96.6,0,0.001,11.1,1.001,1.079,1
"2015-09-16 13:02:50",118,12.85,17.64,86.1,11.29,46.88,"$GPRMC,180246,A,6715.0989,N,15010.6777,W,000.0,238.1,160915,019.2,E","$GPGGA,180246,6715.0989,N,15010.6777,W,2,10,0.8,329.7,M,3.9,M,,",67,15.1,-150,-10.68,0,238.1,19.2,2,10,329.7,"NAN",0.9,0,0,0,96.6,0,0.001,11.09,1,1.079,1
"2015-09-16 13:02:55",119,12.85,17.64,86.1,11.29,46.85,"$GPRMC,180251,A,6715.0989,N,15010.6777,W,000.0,238.1,160915,019.2,E","$GPGGA,180251,6715.0989,N,15010.6777,W,2,10,0.8,329.7,M,3.9,M,,",67,15.1,-150,-10.68,0,238.1,19.2,2,10,329.7,"NAN",0.9,0,0,0,96.6,0,0.001,11.08,1,1.079,1
"2015-09-16 13:03:00",120,12.85,17.64,86.1,11.26,46.92,"$GPRMC,180256,A,6715.0989,N,15010.6777,W,000.0,238.1,160915,019.2,E","$GPGGA,180256,6715.0989,N,15010.6777,W,2,10,0.8,329.7,M,3.9,M,,",67,15.1,-150,-10.68,0,238.1,19.2,2,10,329.7,"NAN",0.9,0,0,0,96.6,0,0.001,11.05,1.001,1.079,1
"2015-09-16 13:03:05",121,12.85,17.62,86.4,11.22,47.05,"$GPRMC,180301,A,6715.0989,N,15010.6777,W,000.0,238.1,160915,019.2,E","$GPGGA,180301,6715.0989,N,15010.6777,W,2,10,0.8,329.7,M,3.9,M,,",67,15.1,-150,-10.68,0,238.1,19.2,2,10,329.7,"NAN",0.93,0,0,0,96.6,0,0,11.03,1.008,1.079,0.999
"2015-09-16 13:03:10",122,12.85,17.62,86.4,11.22,47.05,"$GPRMC,180306,A,6715.0989,N,15010.6777,W,000.0,238.1,160915,019.2,E","$GPGGA,180306,6715.0989,N,15010.6777,W,2,10,0.8,329.7,M,3.9,M,,",67,15.1,-150,-10.68,0,238.1,19.2,2,10,329.7,"NAN",0.94,0,0,0,96.6,0,0,11.04,1.006,1.079,1
"2015-09-16 13:03:15",123,12.85,17.62,86.4,11.22,47.12,"$GPRMC,180311,A,6715.0989,N,15010.6777,W,000.0,238.1,160915,019.2,E","$GPGGA,180311,6715.0989,N,15010.6777,W,2,10,0.8,329.7,M,3.9,M,,",67,15.1,-150,-10.68,0,238.1,19.2,2,10,329.7,"NAN",0.91,0,0,0,96.6,0,0,11.01,1.005,1.079,1
"2015-09-16 13:03:20",124,12.85,17.62,86.7,11.22,47.08,"$GPRMC,180316,A,6715.0989,N,15010.6777,W,000.0,238.1,160915,019.2,E","$GPGGA,180316,6715.0989,N,15010.6777,W,2,10,0.8,329.8,M,3.9,M,,",67,15.1,-150,-10.68,0,238.1,19.2,2,10,329.8,"NAN",0.94,0,0,0,96.6,0,0,10.96,1.004,1.079,1
"2015-09-16 13:03:25",125,12.85,17.59,86.7,11.22,47.15,"$GPRMC,180321,A,6715.0989,N,15010.6777,W,000.0,238.1,160915,019.2,E","$GPGGA,180321,6715.0989,N,15010.6777,W,2,10,0.8,329.8,M,3.9,M,,",67,15.1,-150,-10.68,0,238.1,19.2,2,10,329.8,"NAN",0.94,0,0,0,96.6,0,0.001,10.97,1.001,1.079,1
"2015-09-16 13:03:30",126,12.85,17.59,87.1,11.22,47.08,"$GPRMC,180326,A,6715.0989,N,15010.6777,W,000.0,238.1,160915,019.2,E","$GPGGA,180326,6715.0989,N,15010.6777,W,2,10,0.8,329.8,M,3.9,M,,",67,15.1,-150,-10.68,0,238.1,19.2,2,10,329.8,"NAN",0.94,0,0,0,96.6,0,0.001,10.96,1,1.079,1
"2015-09-16 13:03:35",127,12.85,17.56,87.1,11.19,47.05,"$GPRMC,180331,A,6715.0989,N,15010.6777,W,000.0,238.1,160915,019.2,E","$GPGGA,180331,6715.0989,N,15010.6777,W,2,10,0.8,329.8,M,3.9,M,,",67,15.1,-150,-10.68,0,238.1,19.2,2,10,329.8,"NAN",0.94,0,0,0,96.6,0,0,10.94,1.005,1.079,1
"2015-09-16 13:03:40",128,12.85,17.56,87.1,11.15,46.95,"$GPRMC,180336,A,6715.0989,N,15010.6777,W,000.0,238.1,160915,019.2,E","$GPGGA,180336,6715.0989,N,15010.6777,W,2,10,0.8,329.8,M,3.9,M,,",67,15.1,-150,-10.68,0,238.1,19.2,2,10,329.8,"NAN",0.94,0,0,0,96.6,0,0,10.93,1.005,1.079,1
"2015-09-16 13:03:45",129,12.85,17.56,87.1,11.19,46.95,"$GPRMC,180341,A,6715.0989,N,15010.6777,W,000.0,238.1,160915,019.2,E","$GPGGA,180341,6715.0989,N,15010.6777,W,2,10,0.8,329.8,M,3.9,M,,",67,15.1,-150,-10.68,0,238.1,19.2,2,10,329.8,"NAN",0.94,0,0,0,96.6,0,0,10.91,1.004,1.079,1
"2015-09-16 13:03:50",130,12.85,17.56,87.4,11.19,46.95,"$GPRMC,180346,A,6715.0989,N,15010.6777,W,000.0,238.1,160915,019.2,E","$GPGGA,180346,6715.0989,N,15010.6777,W,2,10,0.8,329.8,M,3.9,M,,",67,15.1,-150,-10.68,0,238.1,19.2,2,10,329.8,"NAN",0.94,0,0,0,96.6,0,0.001,10.89,1.002,1.079,1
"2015-09-16 13:03:55",131,12.85,17.56,87.4,11.15,46.95,"$GPRMC,180351,A,6715.0989,N,15010.6777,W,000.0,238.1,160915,019.2,E","$GPGGA,180351,6715.0989,N,15010.6777,W,2,10,0.8,329.8,M,3.9,M,,",67,15.1,-150,-10.68,0,238.1,19.2,2,10,329.8,"NAN",0.93,0,0,0,96.6,0,0,10.88,1.005,1.079,1
"2015-09-16 13:04:00",132,12.85,17.54,87.4,11.15,46.95,"$GPRMC,180356,A,6715.0989,N,15010.6777,W,000.0,238.1,160915,019.2,E","$GPGGA,180356,6715.0989,N,15010.6777,W,2,10,0.8,329.8,M,3.9,M,,",67,15.1,-150,-10.68,0,238.1,19.2,2,10,329.8,"NAN",0.94,0,0,0,96.6,0,0,10.87,1.004,1.079,1
"2015-09-16 13:04:05",133,12.85,17.54,87.7,11.09,46.91,"$GPRMC,180401,A,6715.0989,N,15010.6777,W,000.0,238.1,160915,019.2,E","$GPGGA,180401,6715.0989,N,15010.6777,W,2,10,0.8,329.8,M,3.9,M,,",67,15.1,-150,-10.68,0,238.1,19.2,2,10,329.8,"NAN",0.94,0,0,0,96.6,0,0.001,10.87,1.002,1.079,1
"2015-09-16 13:04:10",134,12.85,17.51,87.7,11.12,46.75,"$GPRMC,180406,A,6715.0989,N,15010.6777,W,000.0,238.1,160915,019.2,E","$GPGGA,180406,6715.0989,N,15010.6777,W,2,10,0.8,329.8,M,3.9,M,,",67,15.1,-150,-10.68,0,238.1,19.2,2,10,329.8,"NAN",0.94,0,0,0,96.6,0,0.001,10.82,1.001,1.079,1
"2015-09-16 13:04:15",135,12.85,17.51,87.7,11.05,46.64,"$GPRMC,180411,A,6715.0989,N,15010.6777,W,000.0,238.1,160915,019.2,E","$GPGGA,180411,6715.0989,N,15010.6777,W,2,10,0.8,329.9,M,3.9,M,,",67,15.1,-150,-10.68,0,238.1,19.2,2,10,329.9,"NAN",0.95,0,0,0,96.6,0,0,10.82,1.004,1.079,1
"2015-09-16 13:04:20",136,12.85,17.51,88.1,11.09,46.68,"$GPRMC,180416,A,6715.0989,N,15010.6777,W,000.0,238.1,160915,019.2,E","$GPGGA,180416,6715.0989,N,15010.6777,W,2,10,0.8,329.9,M,3.9,M,,",67,15.1,-150,-10.68,0,238.1,19.2,2,10,329.9,"NAN",0.94,0,0,0,96.6,0,0,10.79,1.005,1.079,1
"2015-09-16 13:04:25",137,12.85,17.51,88.1,11.09,46.74,"$GPRMC,180421,A,6715.0989,N,15010.6777,W,000.0,238.1,160915,019.2,E","$GPGGA,180421,6715.0989,N,15010.6777,W,2,10,0.8,329.9,M,3.9,M,,",67,15.1,-150,-10.68,0,238.1,19.2,2,10,329.9,"NAN",0.93,0,0,0,96.6,0,0.001,10.78,1.003,1.079,1
"2015-09-16 13:04:30",138,12.85,17.49,88.1,11.02,46.85,"$GPRMC,180426,A,6715.0989,N,15010.6777,W,000.0,238.1,160915,019.2,E","$GPGGA,180426,6715.0989,N,15010.6777,W,2,10,0.8,329.9,M,3.9,M,,",67,15.1,-150,-10.68,0,238.1,19.2,2,10,329.9,"NAN",0.95,0,0,0,96.6,0,0.001,10.76,1,1.079,1
"2015-09-16 13:04:35",139,12.85,17.49,88.1,11.02,46.88,"$GPRMC,180431,A,6715.0989,N,15010.6777,W,000.0,238.1,160915,019.2,E","$GPGGA,180431,6715.0989,N,15010.6777,W,2,10,0.8,329.9,M,3.9,M,,",67,15.1,-150,-10.68,0,238.1,19.2,2,10,329.9,"NAN",0.94,0,0,0,96.6,0,0.001,10.77,1,1.079,1
"2015-09-16 13:04:40",140,12.85,17.46,88.4,10.99,46.95,"$GPRMC,180436,A,6715.0989,N,15010.6777,W,000.0,238.1,160915,019.2,E","$GPGGA,180436,6715.0989,N,15010.6777,W,2,10,0.8,329.9,M,3.9,M,,",67,15.1,-150,-10.68,0,238.1,19.2,2,10,329.9,"NAN",0.95,0,0,0,96.6,0,0.001,10.74,1.001,1.079,1
"2015-09-16 13:04:45",141,12.85,17.46,88.4,10.95,46.78,"$GPRMC,180441,A,6715.0989,N,15010.6777,W,000.0,238.1,160915,019.2,E","$GPGGA,180441,6715.0989,N,15010.6777,W,2,10,0.8,329.9,M,3.9,M,,",67,15.1,-150,-10.68,0,238.1,19.2,2,10,329.9,"NAN",0.94,0,0,0,96.6,0,0.001,10.71,1,1.079,1
"2015-09-16 13:04:50",142,12.85,17.46,88.8,10.99,46.78,"$GPRMC,180446,A,6715.0989,N,15010.6777,W,000.0,238.1,160915,019.2,E","$GPGGA,180446,6715.0989,N,15010.6777,W,2,10,0.8,329.9,M,3.9,M,,",67,15.1,-150,-10.68,0,238.1,19.2,2,10,329.9,"NAN",0.94,0,0,0,96.6,0,0.001,10.7,1.003,1.079,1
"2015-09-16 13:04:55",143,12.85,17.46,88.8,10.95,46.71,"$GPRMC,180451,A,6715.0989,N,15010.6777,W,000.0,238.1,160915,019.2,E","$GPGGA,180451,6715.0989,N,15010.6777,W,2,10,0.8,329.9,M,3.9,M,,",67,15.1,-150,-10.68,0,238.1,19.2,2,10,329.9,"NAN",0.93,0,0,0,96.6,0,0.001,10.7,1,1.079,1
"2015-09-16 13:05:00",144,12.85,17.44,89.1,10.95,46.68,"$GPRMC,180456,A,6715.0989,N,15010.6777,W,000.0,238.1,160915,019.2,E","$GPGGA,180456,6715.0989,N,15010.6777,W,2,10,0.8,329.9,M,3.9,M,,",67,15.1,-150,-10.68,0,238.1,19.2,2,10,329.9,"NAN",0.94,0,0,0,96.6,0,0.001,10.65,1.001,1.079,1
"2015-09-16 13:05:05",145,12.85,17.44,89.1,10.88,46.68,"$GPRMC,180501,A,6715.0989,N,15010.6777,W,000.0,238.1,160915,019.2,E","$GPGGA,180501,6715.0989,N,15010.6777,W,2,10,0.8,329.9,M,3.9,M,,",67,15.1,-150,-10.68,0,238.1,19.2,2,10,329.9,"NAN",0.92,0,0,0,96.6,0,0,10.63,1.008,1.079,0.999
"2015-09-16 13:05:10",146,12.85,17.44,89.4,10.88,46.71,"$GPRMC,180506,A,6715.0989,N,15010.6777,W,000.0,238.1,160915,019.2,E","$GPGGA,180506,6715.0989,N,15010.6777,W,2,10,0.8,329.9,M,3.9,M,,",67,15.1,-150,-10.68,0,238.1,19.2,2,10,329.9,"NAN",0.89,0,0,0,96.6,0,0.001,10.64,1.001,1.079,1
"2015-09-16 13:05:15",147,12.85,17.41,89.4,10.88,46.68,"$GPRMC,180511,A,6715.0989,N,15010.6777,W,000.0,238.1,160915,019.2,E","$GPGGA,180511,6715.0989,N,15010.6777,W,2,10,0.8,330.0,M,3.9,M,,",67,15.1,-150,-10.68,0,238.1,19.2,2,10,330,"NAN",0.93,0,0,0,96.6,0,0.001,10.63,1.002,1.079,1
"2015-09-16 13:05:20",148,12.85,17.41,89.8,10.85,46.78,"$GPRMC,180516,A,6715.0989,N,15010.6777,W,000.0,238.1,160915,019.2,E","$GPGGA,180516,6715.0989,N,15010.6777,W,2,10,0.8,330.0,M,3.9,M,,",67,15.1,-150,-10.68,0,238.1,19.2,2,10,330,"NAN",0.91,0,0,0,96.6,0,0.001,10.59,1.002,1.079,1
"2015-09-16 13:05:25",149,12.85,17.41,89.8,10.82,46.68,"$GPRMC,180521,A,6715.0989,N,15010.6778,W,000.0,238.1,160915,019.2,E","$GPGGA,180521,6715.0989,N,15010.6778,W,2,10,0.8,330.0,M,3.9,M,,",67,15.1,-150,-10.68,0,238.1,19.2,2,10,330,"NAN",0.91,0,0,0,96.6,0,0,10.58,1.006,1.079,1
"2015-09-16 13:05:30",150,12.85,17.41,89.8,10.75,46.47,"$GPRMC,180526,A,6715.0989,N,15010.6778,W,000.0,238.1,160915,019.2,E","$GPGGA,180526,6715.0989,N,15010.6778,W,2,10,0.8,330.0,M,3.9,M,,",67,15.1,-150,-10.68,0,238.1,19.2,2,10,330,"NAN",0.93,0,0,0,96.6,0,0.001,10.58,1.002,1.079,1
"2015-09-16 13:05:35",151,12.85,17.39,90.1,10.78,46.24,"$GPRMC,180531,A,6715.0989,N,15010.6778,W,000.0,238.1,160915,019.2,E","$GPGGA,180531,6715.0989,N,15010.6778,W,2,10,0.8,330.0,M,3.9,M,,",67,15.1,-150,-10.68,0,238.1,19.2,2,10,330,"NAN",0.9,0,0,0,96.6,0,0.001,10.55,1.001,1.079,1
"2015-09-16 13:05:40",152,12.85,17.39,89.8,10.75,45.93,"$GPRMC,180536,A,6715.0989,N,15010.6778,W,000.0,238.1,160915,019.2,E","$GPGGA,180536,6715.0989,N,15010.6778,W,2,10,0.8,330.0,M,3.9,M,,",67,15.1,-150,-10.68,0,238.1,19.2,2,10,330,"NAN",0.94,0,0,0,96.6,0,0,10.55,1.004,1.079,1
"2015-09-16 13:05:45",153,12.85,17.39,89.8,10.75,45.69,"$GPRMC,180541,A,6715.0989,N,15010.6778,W,000.0,238.1,160915,019.2,E","$GPGGA,180541,6715.0989,N,15010.6778,W,2,10,0.8,330.0,M,3.9,M,,",67,15.1,-150,-10.68,0,238.1,19.2,2,10,330,"NAN",0.92,0,0,0,96.6,0,0,10.53,1.004,1.079,1
"2015-09-16 13:05:50",154,12.85,17.36,89.8,10.75,45.52,"$GPRMC,180546,A,6715.0989,N,15010.6778,W,000.0,238.1,160915,019.2,E","$GPGGA,180546,6715.0989,N,15010.6778,W,2,10,0.8,330.0,M,3.9,M,,",67,15.1,-150,-10.68,0,238.1,19.2,2,10,330,"NAN",0.91,0,0,0,96.6,0,0.001,10.51,1,1.079,1
"2015-09-16 13:05:55",155,12.85,17.36,89.8,10.68,45.42,"$GPRMC,180551,A,6715.0989,N,15010.6778,W,000.0,238.1,160915,019.2,E","$GPGGA,180551,6715.0989,N,15010.6778,W,2,10,0.8,330.0,M,3.9,M,,",67,15.1,-150,-10.68,0,238.1,19.2,2,10,330,"NAN",0.94,0,0,0,96.6,0,0.001,10.49,1.001,1.079,1
"2015-09-16 13:06:00",156,12.84,17.36,89.8,10.68,45.52,"$GPRMC,180556,A,6715.0989,N,15010.6779,W,000.0,238.1,160915,019.2,E","$GPGGA,180556,6715.0989,N,15010.6779,W,2,10,0.8,330.1,M,3.9,M,,",67,15.1,-150,-10.68,0,238.1,19.2,2,10,330.1,"NAN",0.94,0,0,0,96.6,0,0.001,10.48,1,1.079,1
"2015-09-16 13:06:05",157,12.85,17.36,89.4,10.65,45.56,"$GPRMC,180601,A,6715.0989,N,15010.6779,W,000.0,238.1,160915,019.2,E","$GPGGA,180601,6715.0989,N,15010.6779,W,2,10,0.8,330.1,M,3.9,M,,",67,15.1,-150,-10.68,0,238.1,19.2,2,10,330.1,"NAN",0.93,0,0,0,96.6,0,0.001,10.47,1.001,1.079,1
"2015-09-16 13:06:10",158,12.85,17.34,89.4,10.65,45.56,"$GPRMC,180606,A,6715.0989,N,15010.6779,W,000.0,238.1,160915,019.2,E","$GPGGA,180606,6715.0989,N,15010.6779,W,2,10,0.8,330.1,M,3.9,M,,",67,15.1,-150,-10.68,0,238.1,19.2,2,10,330.1,"NAN",0.95,0,0,0,96.6,0,0.001,10.44,1,1.079,1
"2015-09-16 13:06:15",159,12.85,17.34,89.4,10.61,45.86,"$GPRMC,180611,A,6715.0989,N,15010.6779,W,000.0,238.1,160915,019.2,E","$GPGGA,180611,6715.0989,N,15010.6779,W,2,10,0.8,330.1,M,3.9,M,,",67,15.1,-150,-10.68,0,238.1,19.2,2,10,330.1,"NAN",0.93,0,0,0,96.6,0,0,10.46,1.007,1.079,0.999
"2015-09-16 13:06:20",160,12.85,17.31,89.4,10.61,46.1,"$GPRMC,180616,A,6715.0989,N,15010.6779,W,000.0,238.1,160915,019.2,E","$GPGGA,180616,6715.0989,N,15010.6779,W,2,10,0.8,330.1,M,3.9,M,,",67,15.1,-150,-10.68,0,238.1,19.2,2,10,330.1,"NAN",0.91,0,0,0,96.6,0,0,10.42,1.004,1.079,1
"2015-09-16 13:06:25",161,12.85,17.31,89.1,10.54,46.13,"$GPRMC,180621,A,6715.0989,N,15010.6779,W,000.0,238.1,160915,019.2,E","$GPGGA,180621,6715.0989,N,15010.6779,W,2,10,0.8,330.1,M,3.9,M,,",67,15.1,-150,-10.68,0,238.1,19.2,2,10,330.1,"NAN",0.91,0,0,0,96.6,0,0.001,10.42,1.003,1.079,1
"2015-09-16 13:06:30",162,12.85,17.31,89.1,10.51,46.24,"$GPRMC,180626,A,6715.0989,N,15010.6779,W,000.0,238.1,160915,019.2,E","$GPGGA,180626,6715.0989,N,15010.6779,W,2,09,0.9,330.1,M,3.9,M,,",67,15.1,-150,-10.68,0,238.1,19.2,2,10,330.1,"NAN",0.91,0,0,0,96.6,0,0.001,10.4,1.003,1.079,1
"2015-09-16 13:06:35",163,12.85,17.29,88.8,10.58,46.24,"$GPRMC,180631,A,6715.0988,N,15010.6780,W,000.0,238.1,160915,019.2,E","$GPGGA,180631,6715.0988,N,15010.6780,W,2,10,0.8,330.1,M,3.9,M,,",67,15.1,-150,-10.68,0,238.1,19.2,2,10,330.1,"NAN",0.91,0,0,0,96.6,0,0.001,10.39,1,1.079,1.001
"2015-09-16 13:06:40",164,12.85,17.29,88.8,10.54,46.37,"$GPRMC,180636,A,6715.0988,N,15010.6780,W,000.0,238.1,160915,019.2,E","$GPGGA,180636,6715.0988,N,15010.6780,W,2,09,0.9,330.1,M,3.9,M,,",67,15.1,-150,-10.68,0,238.1,19.2,2,9,330.1,"NAN",0.92,0,0,0,96.6,0,0.001,10.36,1.001,1.079,1
"2015-09-16 13:06:45",165,12.85,17.29,88.4,10.48,46.47,"$GPRMC,180641,A,6715.0988,N,15010.6780,W,000.0,238.1,160915,019.2,E","$GPGGA,180641,6715.0988,N,15010.6780,W,2,09,0.9,330.1,M,3.9,M,,",67,15.1,-150,-10.68,0,238.1,19.2,2,9,330.1,"NAN",0.91,0,0,0,96.6,0,0.001,10.37,1.003,1.079,1
"2015-09-16 13:06:50",166,12.85,17.26,88.4,10.48,46.58,"$GPRMC,180646,A,6715.0988,N,15010.6780,W,000.0,238.1,160915,019.2,E","$GPGGA,180646,6715.0988,N,15010.6780,W,2,09,0.9,330.1,M,3.9,M,,",67,15.1,-150,-10.68,0,238.1,19.2,2,9,330.1,"NAN",0.93,0,0,0,96.6,0,0.001,10.32,1,1.079,1
"2015-09-16 13:06:55",167,12.85,17.26,88.1,10.51,46.68,"$GPRMC,180651,A,6715.0988,N,15010.6780,W,000.0,238.1,160915,019.2,E","$GPGGA,180651,6715.0988,N,15010.6780,W,2,09,0.9,330.2,M,3.9,M,,",67,15.1,-150,-10.68,0,238.1,19.2,2,9,330.2,"NAN",0.91,0,0,0,96.6,0,0.001,10.32,1.001,1.079,1
"2015-09-16 13:07:00",168,12.85,17.26,88.1,10.48,46.88,"$GPRMC,180656,A,6715.0988,N,15010.6780,W,000.0,238.1,160915,019.2,E","$GPGGA,180656,6715.0988,N,15010.6780,W,2,09,0.9,330.2,M,3.9,M,,",67,15.1,-150,-10.68,0,238.1,19.2,2,9,330.2,"NAN",0.91,0,0,0,96.6,0,0.001,10.31,1.001,1.079,1
"2015-09-16 13:07:05",169,12.85,17.24,87.7,10.48,46.81,"$GPRMC,180701,A,6715.0988,N,15010.6780,W,000.0,238.1,160915,019.2,E","$GPGGA,180701,6715.0988,N,15010.6780,W,2,09,0.9,330.2,M,3.9,M,,",67,15.1,-150,-10.68,0,238.1,19.2,2,9,330.2,"NAN",0.92,0,0,0,96.6,0,0.001,10.33,1,1.079,1
"2015-09-16 13:07:10",170,12.85,17.24,87.7,10.48,46.88,"$GPRMC,180706,A,6715.0988,N,15010.6781,W,000.0,238.1,160915,019.2,E","$GPGGA,180706,6715.0988,N,15010.6781,W,2,09,0.9,330.2,M,3.9,M,,",67,15.1,-150,-10.68,0,238.1,19.2,2,9,330.2,"NAN",0.92,0,0,0,96.6,0,0.001,10.28,1.003,1.079,1
"2015-09-16 13:07:15",171,12.85,17.24,87.4,10.44,46.85,"$GPRMC,180711,A,6715.0988,N,15010.6781,W,000.0,238.1,160915,019.2,E","$GPGGA,180711,6715.0988,N,15010.6781,W,2,09,0.9,330.2,M,3.9,M,,",67,15.1,-150,-10.68,0,238.1,19.2,2,9,330.2,"NAN",0.94,0,0,0,96.6,0,0.001,10.26,1,1.079,1
"2015-09-16 13:07:20",172,12.85,17.21,87.4,10.44,46.75,"$GPRMC,180716,A,6715.0988,N,15010.6781,W,000.0,238.1,160915,019.2,E","$GPGGA,180716,6715.0988,N,15010.6781,W,2,09,0.9,330.2,M,3.9,M,,",67,15.1,-150,-10.68,0,238.1,19.2,2,9,330.2,"NAN",0.95,0,0,0,96.6,0,0.001,10.24,1.002,1.079,1
"2015-09-16 13:07:25",173,12.85,17.21,87.1,10.41,46.75,"$GPRMC,180721,A,6715.0988,N,15010.6781,W,000.0,238.1,160915,019.2,E","$GPGGA,180721,6715.0988,N,15010.6781,W,2,09,0.9,330.2,M,3.9,M,,",67,15.1,-150,-10.68,0,238.1,19.2,2,9,330.2,"NAN",0.91,0,0,0,96.6,0,0.001,10.24,1,1.079,1
"2015-09-16 13:07:30",174,12.85,17.21,87.1,10.34,46.61,"$GPRMC,180726,A,6715.0988,N,15010.6781,W,000.0,238.1,160915,019.2,E","$GPGGA,180726,6715.0988,N,15010.6781,W,2,09,0.9,330.2,M,3.9,M,,",67,15.1,-150,-10.68,0,238.1,19.2,2,9,330.2,"NAN",0.92,0,0,0,96.6,0,0.001,10.22,1.001,1.079,1
"2015-09-16 13:07:35",175,12.85,17.19,86.7,10.34,46.68,"$GPRMC,180731,A,6715.0988,N,15010.6781,W,000.0,238.1,160915,019.2,E","$GPGGA,180731,6715.0988,N,15010.6781,W,2,09,0.9,330.3,M,3.9,M,,",67,15.1,-150,-10.68,0,238.1,19.2,2,9,330.3,"NAN",0.93,0,0,0,96.6,0,0.001,10.23,1,1.079,1
"2015-09-16 13:07:40",176,12.85,17.19,86.7,10.38,46.68,"$GPRMC,180736,A,6715.0988,N,15010.6782,W,000.0,238.1,160915,019.2,E","$GPGGA,180736,6715.0988,N,15010.6782,W,2,09,0.9,330.3,M,3.9,M,,",67,15.1,-150,-10.68,0,238.1,19.2,2,9,330.3,"NAN",0.91,0,0,0,96.6,0,0.001,10.18,1,1.079,1
"2015-09-16 13:07:45",177,12.85,17.16,86.7,10.34,46.75,"$GPRMC,180741,A,6715.0988,N,15010.6782,W,000.0,238.1,160915,019.2,E","$GPGGA,180741,6715.0988,N,15010.6782,W,2,09,0.9,330.3,M,3.9,M,,",67,15.1,-150,-10.68,0,238.1,19.2,2,9,330.3,"NAN",0.92,0,0,0,96.6,0,0.001,10.18,1.002,1.079,1
"2015-09-16 13:07:50",178,12.85,17.16,86.4,10.38,46.81,"$GPRMC,180746,A,6715.0988,N,15010.6782,W,000.0,238.1,160915,019.2,E","$GPGGA,180746,6715.0988,N,15010.6782,W,2,09,0.9,330.3,M,3.9,M,,",67,15.1,-150,-10.68,0,238.1,19.2,2,9,330.3,"NAN",0.91,0,0,0,96.6,0,0.001,10.16,1.003,1.079,1
"2015-09-16 13:07:55",179,12.85,17.16,86.4,10.34,46.95,"$GPRMC,180751,A,6715.0988,N,15010.6782,W,000.0,238.1,160915,019.2,E","$GPGGA,180751,6715.0988,N,15010.6782,W,2,09,0.9,330.3,M,3.9,M,,",67,15.1,-150,-10.68,0,238.1,19.2,2,9,330.3,"NAN",0.91,0,0,0,96.6,0,0.001,10.15,1.001,1.079,1
"2015-09-16 13:08:00",180,12.85,17.16,86.1,10.34,47.02,"$GPRMC,180756,A,6715.0988,N,15010.6782,W,000.0,238.1,160915,019.2,E","$GPGGA,180756,6715.0988,N,15010.6782,W,2,09,0.9,330.4,M,3.9,M,,",67,15.1,-150,-10.68,0,238.1,19.2,2,9,330.4,"NAN",0.91,0,0,0,96.6,0,0.001,10.14,1.002,1.079,1
"2015-09-16 13:08:05",181,12.85,17.14,86.1,10.34,47.15,"$GPRMC,180801,A,6715.0988,N,15010.6783,W,000.0,238.1,160915,019.2,E","$GPGGA,180801,6715.0988,N,15010.6783,W,2,09,0.9,330.4,M,3.9,M,,",67,15.1,-150,-10.68,0,238.1,19.2,2,9,330.4,"NAN",0.92,0,0,0,96.6,0,0.001,10.11,1,1.079,1
"2015-09-16 13:08:10",182,12.85,17.14,86.1,10.34,47.29,"$GPRMC,180806,A,6715.0988,N,15010.6783,W,000.0,238.1,160915,019.2,E","$GPGGA,180806,6715.0988,N,15010.6783,W,2,09,0.9,330.4,M,3.9,M,,",67,15.1,-150,-10.68,0,238.1,19.2,2,9,330.4,"NAN",0.9,0,0,0,96.6,0,0.001,10.13,1.002,1.079,1
"2015-09-16 13:08:15",183,12.85,17.14,86.1,10.34,47.36,"$GPRMC,180811,A,6715.0988,N,15010.6783,W,000.0,238.1,160915,019.2,E","$GPGGA,180811,6715.0988,N,15010.6783,W,2,09,0.9,330.4,M,3.9,M,,",67,15.1,-150,-10.68,0,238.1,19.2,2,9,330.4,"NAN",0.91,0,0,0,96.6,0,0.001,10.09,1.001,1.079,1
"2015-09-16 13:08:20",184,12.85,17.11,86.1,10.34,47.56,"$GPRMC,180816,A,6715.0988,N,15010.6783,W,000.0,238.1,160915,019.2,E","$GPGGA,180816,6715.0988,N,15010.6783,W,2,09,0.9,330.4,M,3.9,M,,",67,15.1,-150,-10.68,0,238.1,19.2,2,9,330.4,"NAN",0.91,0,0,0,96.6,0,0.001,10.07,1,1.079,1
"2015-09-16 13:08:25",185,12.85,17.11,86.1,10.27,47.59,"$GPRMC,180821,A,6715.0988,N,15010.6783,W,000.0,238.1,160915,019.2,E","$GPGGA,180821,6715.0988,N,15010.6783,W,2,09,0.9,330.4,M,3.9,M,,",67,15.1,-150,-10.68,0,238.1,19.2,2,9,330.4,"NAN",0.9,0,0,0,96.6,0,0.001,10.06,1,1.079,1
"2015-09-16 13:08:30",186,12.85,17.11,86.1,10.24,47.59,"$GPRMC,180826,A,6715.0988,N,15010.6783,W,000.0,238.1,160915,019.2,E","$GPGGA,180826,6715.0988,N,15010.6783,W,2,09,0.9,330.5,M,3.9,M,,",67,15.1,-150,-10.68,0,238.1,19.2,2,9,330.5,"NAN",0.92,0,0,0,96.6,0,0,10.05,1.005,1.079,1
"2015-09-16 13:08:35",187,12.85,17.09,86.1,10.27,47.25,"$GPRMC,180831,A,6715.0988,N,15010.6784,W,000.0,238.1,160915,019.2,E","$GPGGA,180831,6715.0988,N,15010.6784,W,2,09,0.9,330.5,M,3.9,M,,",67,15.1,-150,-10.68,0,238.1,19.2,2,9,330.5,"NAN",0.92,0,0,0,96.6,0,0.001,10.04,1,1.079,1
"2015-09-16 13:08:40",188,12.85,17.09,86.1,10.24,47.09,"$GPRMC,180836,A,6715.0988,N,15010.6784,W,000.0,238.1,160915,019.2,E","$GPGGA,180836,6715.0988,N,15010.6784,W,2,09,0.9,330.5,M,3.9,M,,",67,15.1,-150,-10.68,0,238.1,19.2,2,9,330.5,"NAN",0.91,0,0,0,96.6,0,0.001,10.02,1,1.079,1
"2015-09-16 13:08:45",189,12.85,17.06,85.7,10.21,46.98,"$GPRMC,180841,A,6715.0988,N,15010.6784,W,000.0,238.1,160915,019.2,E","$GPGGA,180841,6715.0988,N,15010.6784,W,2,09,0.9,330.5,M,3.9,M,,",67,15.1,-150,-10.68,0,238.1,19.2,2,9,330.5,"NAN",0.91,0,0,0,96.6,0,0.001,10.02,1.002,1.079,1
"2015-09-16 13:08:50",190,12.85,17.06,85.7,10.21,47.09,"$GPRMC,180846,A,6715.0988,N,15010.6784,W,000.0,238.1,160915,019.2,E","$GPGGA,180846,6715.0988,N,15010.6784,W,2,09,0.9,330.5,M,3.9,M,,",67,15.1,-150,-10.68,0,238.1,19.2,2,9,330.5,"NAN",0.92,0,0,0,96.6,0,0,10.01,1.005,1.079,1
"2015-09-16 13:08:55",191,12.85,17.06,85.7,10.21,47.19,"$GPRMC,180851,A,6715.0988,N,15010.6784,W,000.0,238.1,160915,019.2,E","$GPGGA,180851,6715.0988,N,15010.6784,W,2,09,0.9,330.5,M,3.9,M,,",67,15.1,-150,-10.68,0,238.1,19.2,2,9,330.5,"NAN",0.91,0,0,0,96.6,0,0.001,9.98,1.001,1.079,1
"2015-09-16 13:09:00",192,12.85,17.04,85.7,10.21,47.36,"$GPRMC,180856,A,6715.0988,N,15010.6784,W,000.0,238.1,160915,019.2,E","$GPGGA,180856,6715.0988,N,15010.6784,W,2,09,0.9,330.5,M,3.9,M,,",67,15.1,-150,-10.68,0,238.1,19.2,2,9,330.5,"NAN",0.92,0,0,0,96.6,0,0,10,1.006,1.079,1
"2015-09-16 13:09:05",193,12.85,17.04,85.4,10.17,47.36,"$GPRMC,180901,A,6715.0988,N,15010.6784,W,000.0,238.1,160915,019.2,E","$GPGGA,180901,6715.0988,N,15010.6784,W,2,09,0.9,330.5,M,3.9,M,,",67,15.1,-150,-10.68,0,238.1,19.2,2,9,330.5,"NAN",0.94,0,0,0,96.6,0,0.001,9.98,1,1.079,1
"2015-09-16 13:09:10",194,12.85,17.04,85.4,10.17,47.53,"$GPRMC,180906,A,6715.0988,N,15010.6784,W,000.0,238.1,160915,019.2,E","$GPGGA,180906,6715.0988,N,15010.6784,W,2,09,0.9,330.6,M,3.9,M,,",67,15.1,-150,-10.68,0,238.1,19.2,2,9,330.6,"NAN",0.92,0,0,0,96.6,0,0.001,9.96,1,1.079,1
"2015-09-16 13:09:15",195,12.85,17.04,85.4,10.1,47.63,"$GPRMC,180911,A,6715.0988,N,15010.6784,W,000.0,238.1,160915,019.2,E","$GPGGA,180911,6715.0988,N,15010.6784,W,2,09,0.9,330.6,M,3.9,M,,",67,15.1,-150,-10.68,0,238.1,19.2,2,9,330.6,"NAN",0.95,0,0,0,96.6,0,0.001,9.97,1,1.079,1
"2015-09-16 13:09:20",196,12.85,17.01,85.4,10.1,47.63,"$GPRMC,180916,A,6715.0988,N,15010.6784,W,000.0,238.1,160915,019.2,E","$GPGGA,180916,6715.0988,N,15010.6784,W,2,09,0.9,330.6,M,3.9,M,,",67,15.1,-150,-10.68,0,238.1,19.2,2,9,330.6,"NAN",0.96,0,0,0,96.6,0,0,9.96,1.004,1.079,1
"2015-09-16 13:09:25",197,12.85,17.01,85,10.14,47.76,"$GPRMC,180921,A,6715.0988,N,15010.6784,W,000.0,238.1,160915,019.2,E","$GPGGA,180921,6715.0988,N,15010.6784,W,2,09,0.9,330.6,M,3.9,M,,",67,15.1,-150,-10.68,0,238.1,19.2,2,9,330.6,"NAN",0.91,0,0,0,96.6,0,0.001,9.93,1.001,1.079,1
"2015-09-16 13:09:30",198,12.85,17.01,85,10.14,47.9,"$GPRMC,180926,A,6715.0988,N,15010.6784,W,000.0,238.1,160915,019.2,E","$GPGGA,180926,6715.0988,N,15010.6784,W,2,09,0.9,330.6,M,3.9,M,,",67,15.1,-150,-10.68,0,238.1,19.2,2,9,330.6,"NAN",0.92,0,0,0,96.6,0,0.001,9.92,1.003,1.079,1
"2015-09-16 13:09:35",199,12.85,16.98,85,10.07,48.07,"$GPRMC,180931,A,6715.0988,N,15010.6784,W,000.0,238.1,160915,019.2,E","$GPGGA,180931,6715.0988,N,15010.6784,W,2,09,0.9,330.6,M,3.9,M,,",67,15.1,-150,-10.68,0,238.1,19.2,2,9,330.6,"NAN",0.94,0,0,0,96.6,0,0,9.9,1.004,1.079,1
"2015-09-16 13:09:40",200,12.85,16.98,85,10.1,48.24,"$GPRMC,180936,A,6715.0988,N,15010.6784,W,000.0,238.1,160915,019.2,E","$GPGGA,180936,6715.0988,N,15010.6784,W,2,09,0.9,330.6,M,3.9,M,,",67,15.1,-150,-10.68,0,238.1,19.2,2,9,330.6,"NAN",0.91,0,0,0,96.6,0,0.001,9.91,1.002,1.079,1
"2015-09-16 13:09:45",201,12.85,16.96,85,10.1,48.31,"$GPRMC,180941,A,6715.0988,N,15010.6785,W,000.0,238.1,160915,019.2,E","$GPGGA,180941,6715.0988,N,15010.6785,W,2,09,0.9,330.7,M,3.9,M,,",67,15.1,-150,-10.68,0,238.1,19.2,2,9,330.7,"NAN",0.93,0,0,0,96.6,0,0.001,9.88,1.003,1.079,1
"2015-09-16 13:09:50",202,12.85,16.96,85,10.11,48.38,"$GPRMC,180946,A,6715.0988,N,15010.6785,W,000.0,238.1,160915,019.2,E","$GPGGA,180946,6715.0988,N,15010.6785,W,2,09,0.9,330.7,M,3.9,M,,",67,15.1,-150,-10.68,0,238.1,19.2,2,9,330.7,"NAN",0.92,0,0,0,96.6,0,0.001,9.87,1.002,1.079,1
"2015-09-16 13:09:55",203,12.85,16.96,85.4,10.07,48.51,"$GPRMC,180951,A,6715.0988,N,15010.6785,W,000.0,238.1,160915,019.2,E","$GPGGA,180951,6715.0988,N,15010.6785,W,2,09,0.9,330.7,M,3.9,M,,",67,15.1,-150,-10.68,0,238.1,19.2,2,9,330.7,"NAN",0.91,0,0,0,96.6,0,0.001,9.88,1.002,1.079,1
"2015-09-16 13:10:00",204,12.85,16.96,85.4,10.07,48.61,"$GPRMC,180956,A,6715.0988,N,15010.6785,W,000.0,238.1,160915,019.2,E","$GPGGA,180956,6715.0988,N,15010.6785,W,2,09,0.9,330.7,M,3.9,M,,",67,15.1,-150,-10.68,0,238.1,19.2,2,9,330.7,"NAN",0.92,0,0,0,96.6,0,0.001,9.85,1.001,1.079,1
"2015-09-16 13:10:05",205,12.85,16.94,85.4,10.11,48.75,"$GPRMC,181001,A,6715.0988,N,15010.6785,W,000.0,238.1,160915,019.2,E","$GPGGA,181001,6715.0988,N,15010.6785,W,2,09,0.9,330.7,M,3.9,M,,",67,15.1,-150,-10.68,0,238.1,19.2,2,9,330.7,"NAN",0.92,0,0,0,96.6,0,0,9.87,1.004,1.079,1
"2015-09-16 13:10:10",206,12.85,16.94,85.4,10.07,48.78,"$GPRMC,181006,A,6715.0988,N,15010.6786,W,000.0,238.1,160915,019.2,E","$GPGGA,181006,6715.0988,N,15010.6786,W,2,09,0.9,330.7,M,3.9,M,,",67,15.1,-150,-10.68,0,238.1,19.2,2,9,330.7,"NAN",0.91,0,0,0,96.6,0,0.001,9.86,1,1.079,1
"2015-09-16 13:10:15",207,12.85,16.91,85.4,10.07,48.92,"$GPRMC,181011,A,6715.0988,N,15010.6786,W,000.0,238.1,160915,019.2,E","$GPGGA,181011,6715.0988,N,15010.6786,W,2,09,0.9,330.7,M,3.9,M,,",67,15.1,-150,-10.68,0,238.1,19.2,2,9,330.7,"NAN",0.93,0,0,0,96.6,0,0,9.86,1.008,1.079,0.999
"2015-09-16 13:10:20",208,12.85,16.91,85.4,10.07,48.89,"$GPRMC,181016,A,6715.0988,N,15010.6786,W,000.0,238.1,160915,019.2,E","$GPGGA,181016,6715.0988,N,15010.6786,W,2,09,0.9,330.8,M,3.9,M,,",67,15.1,-150,-10.68,0,238.1,19.2,2,9,330.8,"NAN",0.91,0,0,0,96.6,0,0.001,9.81,1,1.079,1
