"TOA5","CR800Series","CR800","35658","CR800.Std.28","CPU:Ultralytics1.CR8","18129","Five_Sec"
"TIMESTAMP","RECORD","BattV","PTemp_C","SlrW","AirTC","RH","NMEASent(1)","NMEASent(2)","Latitude_A","Latitude_B","Longitude_A","Longitude_B","Speed","Course","MagVar","FixQual","NumSats","Altitude","PPS","SecSinceGPRMC","GPSReady","MaxClockChange","NumClockChange","BP_kPa","VWC","EC","T","P","PA","VR"
"TS","RN","Volts","Deg C","W/m^2","Deg C","%","","","degrees","minutes","degrees","minutes","knots","degrees","degrees","code","count","meters","microseconds","seconds","count","milliseconds","count","kPa","m^3/m^3","dS/m","Deg C","unitless","nSec","unitless"
"","","Smp","Smp","Smp","Smp","Smp","Smp","Smp","Smp","Smp","Smp","Smp","Smp","Smp","Smp","Smp","Smp","Smp","Smp","Smp","Smp","Smp","Smp","Smp","Smp","Smp","Smp","Smp","Smp","Smp"
"2015-09-17 12:31:45",0,13.2,19.39,35.1,10.88,45.52,"$GPRMC,173141,A,7012.6972,N,14826.2235,W,000.0,000.0,170915,020.6,E","$GPGGA,173141,7012.6972,N,14826.2235,W,2,09,0.9,23.5,M,-1.2,M,,",70,12.7,-148,-26.22,0,0,20.6,2,9,23.6,"NAN",0.85,0,0,0,100.7,0,0.001,12.55,1.342,1.101,1
"2015-09-17 12:31:50",1,13.2,19.36,35.44,10.88,45.46,"$GPRMC,173146,A,7012.6972,N,14826.2243,W,000.0,000.0,170915,020.6,E","$GPGGA,173146,7012.6972,N,14826.2243,W,2,09,0.9,23.6,M,-1.2,M,,",70,12.7,-148,-26.22,0,0,20.6,2,9,23.5,"NAN",0.88,0,0,0,100.7,0,0.001,12.54,1.342,1.101,1
"2015-09-17 12:31:55",2,13.19,19.34,36.11,10.92,45.12,"$GPRMC,173151,A,7012.6973,N,14826.2253,W,000.0,000.0,170915,020.6,E","$GPGGA,173151,7012.6973,N,14826.2253,W,2,09,0.9,23.3,M,-1.2,M,,",70,12.7,-148,-26.23,0,0,20.6,2,9,23.4,"NAN",0.84,0,0,0,100.7,0,0,12.58,1.346,1.101,1
"2015-09-17 12:32:00",3,13.19,19.34,36.45,10.92,44.98,"$GPRMC,173156,A,7012.6972,N,14826.2263,W,000.0,000.0,170915,020.6,E","$GPGGA,173156,7012.6972,N,14826.2263,W,2,09,0.9,23.0,M,-1.2,M,,",70,12.7,-148,-26.23,0,0,20.6,2,9,23,"NAN",0.83,0,0,0,100.7,0,0.001,12.57,1.322,1.1,1
"2015-09-17 12:32:05",4,13.19,19.31,36.79,10.98,44.71,"$GPRMC,173201,A,7012.6969,N,14826.2273,W,000.0,000.0,170915,020.6,E","$GPGGA,173201,7012.6969,N,14826.2273,W,2,09,0.9,22.9,M,-1.2,M,,",70,12.7,-148,-26.23,0,0,20.6,2,9,23,"NAN",0.83,0,0,0,100.7,0,0.001,12.58,1.341,1.101,1
"2015-09-17 12:32:10",5,13.19,19.28,37.12,10.98,44.51,"$GPRMC,173206,A,7012.6966,N,14826.2280,W,000.0,000.0,170915,020.6,E","$GPGGA,173206,7012.6966,N,14826.2280,W,2,10,0.8,22.6,M,-1.2,M,,",70,12.7,-148,-26.23,0,0,20.6,2,10,22.6,"NAN",0.82,0,0,0,100.7,0,0.001,12.6,1.322,1.1,1
"2015-09-17 12:32:15",6,13.19,19.26,37.46,10.98,44.37,"$GPRMC,173211,A,7012.6963,N,14826.2283,W,000.0,000.0,170915,020.6,E","$GPGGA,173211,7012.6963,N,14826.2283,W,2,10,0.8,22.5,M,-1.2,M,,",70,12.7,-148,-26.23,0,0,20.6,2,10,22.5,"NAN",0.83,0,0,0,100.7,0,0,12.6,1.327,1.1,1
"2015-09-17 12:32:20",7,13.19,19.23,37.8,11.02,44.13,"$GPRMC,173216,A,7012.6960,N,14826.2287,W,000.0,000.0,170915,020.6,E","$GPGGA,173216,7012.6960,N,14826.2287,W,2,10,0.8,22.3,M,-1.2,M,,",70,12.7,-148,-26.23,0,0,20.6,2,10,22.4,"NAN",0.82,0,0,0,100.7,0,0.001,12.62,1.326,1.1,1
"2015-09-17 12:32:25",8,13.19,19.23,38.14,11.02,44.03,"$GPRMC,173221,A,7012.6955,N,14826.2284,W,000.0,000.0,170915,020.6,E","$GPGGA,173221,7012.6955,N,14826.2284,W,2,10,0.8,21.9,M,-1.2,M,,",70,12.7,-148,-26.23,0,0,20.6,2,10,22,"NAN",0.82,0,0,0,100.7,0,0.001,12.63,1.324,1.1,1
"2015-09-17 12:32:30",9,13.18,19.21,38.47,11.02,43.96,"$GPRMC,173226,A,7012.6951,N,14826.2279,W,000.0,000.0,170915,020.6,E","$GPGGA,173226,7012.6951,N,14826.2279,W,2,10,0.8,21.3,M,-1.2,M,,",70,12.7,-148,-26.23,0,0,20.6,2,10,21.4,"NAN",0.82,0,0,0,100.7,0,0,12.6,1.308,1.099,1
"2015-09-17 12:32:35",10,13.18,19.18,38.47,11.02,43.89,"$GPRMC,173231,A,7012.6950,N,14826.2277,W,000.0,000.0,170915,020.6,E","$GPGGA,173231,7012.6950,N,14826.2277,W,2,10,0.8,21.1,M,-1.2,M,,",70,12.7,-148,-26.23,0,0,20.6,2,10,21.1,"NAN",0.83,0,0,0,100.7,0,0.001,12.63,1.307,1.099,1
"2015-09-17 12:32:40",11,13.18,19.15,38.47,11.09,43.83,"$GPRMC,173236,A,7012.6950,N,14826.2277,W,000.0,000.0,170915,020.6,E","$GPGGA,173236,7012.6950,N,14826.2277,W,2,10,0.8,21.1,M,-1.2,M,,",70,12.7,-148,-26.23,0,0,20.6,2,10,21.1,"NAN",0.82,0,0,0,100.7,0,0.001,12.64,1.304,1.099,1
"2015-09-17 12:32:45",12,13.18,19.13,38.47,11.09,43.73,"$GPRMC,173241,A,7012.6950,N,14826.2277,W,000.0,000.0,170915,020.6,E","$GPGGA,173241,7012.6950,N,14826.2277,W,2,10,0.8,21.1,M,-1.2,M,,",70,12.7,-148,-26.23,0,0,20.6,2,10,21.1,"NAN",0.84,0,0,0,100.7,0,0,12.66,1.328,1.1,1
"2015-09-17 12:32:50",13,13.17,19.13,38.47,11.15,43.52,"$GPRMC,173246,A,7012.6950,N,14826.2276,W,000.0,000.0,170915,020.6,E","$GPGGA,173246,7012.6950,N,14826.2276,W,2,10,0.8,21.1,M,-1.2,M,,",70,12.7,-148,-26.23,0,0,20.6,2,10,21.1,"NAN",0.85,0,0,0,100.7,0,0,12.67,1.308,1.099,1
"2015-09-17 12:32:55",14,13.17,19.1,38.47,11.15,43.42,"$GPRMC,173251,A,7012.6951,N,14826.2276,W,000.0,000.0,170915,020.6,E","$GPGGA,173251,7012.6951,N,14826.2276,W,2,09,0.9,21.1,M,-1.2,M,,",70,12.7,-148,-26.23,0,0,20.6,2,9,21.1,"NAN",0.84,0,0,0,100.8,0,0.001,12.69,1.306,1.099,1
"2015-09-17 12:33:00",15,13.17,19.08,38.14,11.15,43.35,"$GPRMC,173256,A,7012.6951,N,14826.2276,W,000.0,000.0,170915,020.6,E","$GPGGA,173256,7012.6951,N,14826.2276,W,2,09,0.9,21.1,M,-1.2,M,,",70,12.7,-148,-26.23,0,0,20.6,2,9,21.1,"NAN",0.85,0,0,0,100.7,0,0.001,12.68,1.301,1.099,1.001
"2015-09-17 12:33:05",16,13.16,19.05,38.14,11.19,43.25,"$GPRMC,173301,A,7012.6951,N,14826.2276,W,000.0,000.0,170915,020.6,E","$GPGGA,173301,7012.6951,N,14826.2276,W,2,09,0.9,21.1,M,-1.2,M,,",70,12.7,-148,-26.23,0,0,20.6,2,9,21.1,"NAN",0.85,0,0,0,100.7,0,0.001,12.72,1.285,1.098,1
"2015-09-17 12:33:10",17,13.16,19.02,38.14,11.22,43.11,"$GPRMC,173306,A,7012.6955,N,14826.2264,W,000.0,000.0,170915,020.6,E","$GPGGA,173306,7012.6955,N,14826.2264,W,2,09,0.9,21.0,M,-1.2,M,,",70,12.7,-148,-26.23,0,0,20.6,2,9,21,"NAN",0.85,0,0,0,100.7,0,0,12.74,1.29,1.098,1
"2015-09-17 12:33:15",18,13.16,19.02,38.47,11.22,42.94,"$GPRMC,173311,A,7012.6963,N,14826.2246,W,000.0,000.0,170915,020.6,E","$GPGGA,173311,7012.6963,N,14826.2246,W,2,09,0.9,21.5,M,-1.2,M,,",70,12.7,-148,-26.23,0,0,20.6,2,9,21.4,"NAN",0.84,0,0,0,100.7,0,0.001,12.73,1.304,1.099,1
"2015-09-17 12:33:20",19,13.16,19,38.47,11.22,42.74,"$GPRMC,173316,A,7012.6970,N,14826.2230,W,000.0,000.0,170915,020.6,E","$GPGGA,173316,7012.6970,N,14826.2230,W,2,09,0.9,21.9,M,-1.2,M,,",70,12.7,-148,-26.22,0,0,20.6,2,9,21.8,"NAN",0.86,0,0,0,100.7,0,0.001,12.75,1.307,1.099,1
"2015-09-17 12:33:25",20,13.16,18.97,38.81,11.26,42.61,"$GPRMC,173321,A,7012.6975,N,14826.2215,W,000.0,000.0,170915,020.6,E","$GPGGA,173321,7012.6975,N,14826.2215,W,2,09,0.9,22.4,M,-1.2,M,,",70,12.7,-148,-26.22,0,0,20.6,2,9,22.3,"NAN",0.84,0,0,0,100.7,0,0.001,12.77,1.288,1.098,1
"2015-09-17 12:33:30",21,13.16,18.95,38.81,11.22,42.5,"$GPRMC,173326,A,7012.6977,N,14826.2204,W,000.0,000.0,170915,020.6,E","$GPGGA,173326,7012.6977,N,14826.2204,W,2,09,0.9,22.7,M,-1.2,M,,",70,12.7,-148,-26.22,0,0,20.6,2,9,22.7,"NAN",0.86,0,0,0,100.7,0,0.001,12.76,1.286,1.098,1
"2015-09-17 12:33:35",22,13.16,18.95,39.15,11.22,42.47,"$GPRMC,173331,A,7012.6978,N,14826.2189,W,000.0,000.0,170915,020.6,E","$GPGGA,173331,7012.6978,N,14826.2189,W,2,10,0.8,22.8,M,-1.2,M,,",70,12.7,-148,-26.22,0,0,20.6,2,9,22.8,"NAN",0.86,0,0,0,100.7,0,0.001,12.75,1.289,1.098,1
"2015-09-17 12:33:40",23,13.15,18.92,39.15,11.26,42.57,"$GPRMC,173336,A,7012.6981,N,14826.2180,W,000.0,000.0,170915,020.6,E","$GPGGA,173336,7012.6981,N,14826.2180,W,2,10,0.8,23.5,M,-1.2,M,,",70,12.7,-148,-26.22,0,0,20.6,2,10,23.5,"NAN",0.84,0,0,0,100.7,0,0.001,12.78,1.305,1.099,1
"2015-09-17 12:33:45",24,13.15,18.89,39.15,11.22,42.57,"$GPRMC,173341,A,7012.6984,N,14826.2175,W,000.0,000.0,170915,020.6,E","$GPGGA,173341,7012.6984,N,14826.2175,W,2,10,0.8,23.8,M,-1.2,M,,",70,12.7,-148,-26.22,0,0,20.6,2,10,23.8,"NAN",0.84,0,0,0,100.7,0,0.001,12.77,1.307,1.099,1
"2015-09-17 12:33:50",25,13.16,18.87,39.15,11.19,42.54,"$GPRMC,173346,A,7012.6983,N,14826.2169,W,000.0,000.0,170915,020.6,E","$GPGGA,173346,7012.6983,N,14826.2169,W,2,10,0.8,23.7,M,-1.2,M,,",70,12.7,-148,-26.22,0,0,20.6,2,10,23.7,"NAN",0.85,0,0,0,100.7,0,0,12.82,1.308,1.099,1
"2015-09-17 12:33:55",26,13.16,18.84,39.15,11.26,42.47,"$GPRMC,173351,A,7012.6985,N,14826.2169,W,000.0,000.0,170915,020.6,E","$GPGGA,173351,7012.6985,N,14826.2169,W,2,10,0.8,23.9,M,-1.2,M,,",70,12.7,-148,-26.22,0,0,20.6,2,10,23.6,"NAN",0.83,0,0,0,100.7,0,0.001,12.8,1.289,1.098,1
"2015-09-17 12:34:00",27,13.16,18.82,39.15,11.29,42.47,"$GPRMC,173356,A,7012.6994,N,14826.2175,W,000.0,000.0,170915,020.6,E","$GPGGA,173356,7012.6994,N,14826.2175,W,2,10,0.8,25.6,M,-1.2,M,,",70,12.7,-148,-26.22,0,0,20.6,2,10,25.1,"NAN",0.85,0,0,0,100.7,0,0,12.8,1.308,1.099,1
"2015-09-17 12:34:05",28,13.16,18.79,39.15,11.29,42.44,"$GPRMC,173401,A,7012.6997,N,14826.2176,W,000.0,000.0,170915,020.6,E","$GPGGA,173401,7012.6997,N,14826.2176,W,2,10,0.8,26.3,M,-1.2,M,,",70,12.7,-148,-26.22,0,0,20.6,2,10,26.2,"NAN",0.84,0,0,0,100.8,0,0.001,12.83,1.325,1.1,1
"2015-09-17 12:34:10",29,13.16,18.79,39.15,11.29,42.47,"$GPRMC,173406,A,7012.6998,N,14826.2179,W,000.0,000.0,170915,020.6,E","$GPGGA,173406,7012.6998,N,14826.2179,W,2,10,0.8,27.0,M,-1.2,M,,",70,12.7,-148,-26.22,0,0,20.6,2,10,26.7,"NAN",0.84,0,0,0,100.7,0,0.001,12.84,1.324,1.1,1
"2015-09-17 12:34:15",30,13.16,18.77,39.49,11.32,42.47,"$GPRMC,173411,A,7012.7000,N,14826.2183,W,000.0,000.0,170915,020.6,E","$GPGGA,173411,7012.7000,N,14826.2183,W,2,10,0.8,28.1,M,-1.2,M,,",70,12.7,-148,-26.22,0,0,20.6,2,10,27.9,"NAN",0.85,0,0,0,100.7,0,0.001,12.84,1.323,1.1,1
"2015-09-17 12:34:20",31,13.15,18.74,39.49,11.36,42.47,"$GPRMC,173416,A,7012.7001,N,14826.2184,W,000.0,000.0,170915,020.6,E","$GPGGA,173416,7012.7001,N,14826.2184,W,2,10,0.8,28.3,M,-1.2,M,,",70,12.7,-148,-26.22,0,0,20.6,2,10,28.3,"NAN",0.84,0,0,0,100.7,0,0.001,12.85,1.509,1.111,1
"2015-09-17 12:34:25",32,13.15,18.71,39.49,11.36,42.47,"$GPRMC,173421,A,7012.7001,N,14826.2184,W,000.0,000.0,170915,020.6,E","$GPGGA,173421,7012.7001,N,14826.2184,W,2,10,0.8,28.3,M,-1.2,M,,",70,12.7,-148,-26.22,0,0,20.6,2,10,28.3,"NAN",0.86,0,0,0,100.7,0,0.001,12.86,1.324,1.1,1
"2015-09-17 12:34:30",33,13.15,18.71,39.49,11.43,42.5,"$GPRMC,173426,A,7012.7001,N,14826.2184,W,000.0,000.0,170915,020.6,E","$GPGGA,173426,7012.7001,N,14826.2184,W,2,10,0.8,28.3,M,-1.2,M,,",70,12.7,-148,-26.22,0,0,20.6,2,10,28.3,"NAN",0.83,0,0,0,100.7,0,0.001,12.87,1.342,1.101,1
"2015-09-17 12:34:35",34,13.15,18.69,39.49,11.46,42.61,"$GPRMC,173431,A,7012.7001,N,14826.2184,W,000.0,000.0,170915,020.6,E","$GPGGA,173431,7012.7001,N,14826.2184,W,2,10,0.8,28.3,M,-1.2,M,,",70,12.7,-148,-26.22,0,0,20.6,2,10,28.3,"NAN",0.85,0,0,0,100.7,0,0.001,12.88,1.289,1.098,1
"2015-09-17 12:34:40",35,13.15,18.66,39.49,11.59,42.74,"$GPRMC,173436,A,7012.7001,N,14826.2184,W,000.0,000.0,170915,020.6,E","$GPGGA,173436,7012.7001,N,14826.2184,W,2,10,0.8,28.3,M,-1.2,M,,",70,12.7,-148,-26.22,0,0,20.6,2,10,28.3,"NAN",0.88,0,0,0,100.7,0,0,12.91,1.292,1.098,0.999
"2015-09-17 12:34:45",36,13.15,18.66,39.49,11.8,42.78,"$GPRMC,173441,A,7012.6999,N,14826.2182,W,000.0,000.0,170915,020.6,E","$GPGGA,173441,7012.6999,N,14826.2182,W,2,09,0.9,28.2,M,-1.2,M,,",70,12.7,-148,-26.22,0,0,20.6,2,10,28.4,"NAN",0.84,0,0,0,100.7,0,0.001,12.92,1.306,1.099,1
"2015-09-17 12:34:50",37,13.15,18.64,39.49,11.83,42.81,"$GPRMC,173446,A,7012.6999,N,14826.2182,W,000.0,000.0,170915,020.6,E","$GPGGA,173446,7012.6999,N,14826.2182,W,2,10,0.8,28.2,M,-1.2,M,,",70,12.7,-148,-26.22,0,0,20.6,2,10,28.2,"NAN",0.84,0,0,0,100.7,0,0.001,12.93,1.319,1.1,1.001
"2015-09-17 12:34:55",38,13.15,18.61,39.49,12.07,42.64,"$GPRMC,173451,A,7012.6997,N,14826.2177,W,000.0,000.0,170915,020.6,E","$GPGGA,173451,7012.6997,N,14826.2177,W,2,10,0.8,27.7,M,-1.2,M,,",70,12.7,-148,-26.22,0,0,20.6,2,10,27.8,"NAN",0.81,0,0,0,100.7,0,0.001,12.94,1.307,1.099,1
"2015-09-17 12:35:00",39,13.15,18.61,39.49,12.24,42.44,"$GPRMC,173456,A,7012.6990,N,14826.2165,W,000.0,000.0,170915,020.6,E","$GPGGA,173456,7012.6990,N,14826.2165,W,2,10,0.8,26.5,M,-1.2,M,,",70,12.7,-148,-26.22,0,0,20.6,2,10,26.7,"NAN",0.82,0,0,0,100.7,0,0.001,12.98,1.306,1.099,1
"2015-09-17 12:35:05",40,13.15,18.61,39.49,12.48,41.93,"$GPRMC,173501,A,7012.6983,N,14826.2152,W,000.0,000.0,170915,020.6,E","$GPGGA,173501,7012.6983,N,14826.2152,W,2,10,0.8,25.2,M,-1.2,M,,",70,12.7,-148,-26.22,0,0,20.6,2,10,25.5,"NAN",0.83,0,0,0,100.7,0,0.001,13.01,1.323,1.1,1
"2015-09-17 12:35:10",41,13.15,18.58,39.49,12.68,41.35,"$GPRMC,173506,A,7012.6982,N,14826.2148,W,000.0,000.0,170915,020.6,E","$GPGGA,173506,7012.6982,N,14826.2148,W,2,10,0.8,25.0,M,-1.2,M,,",70,12.7,-148,-26.21,0,0,20.6,2,10,25,"NAN",0.84,0,0,0,100.7,0,0.001,13.01,1.323,1.1,1
"2015-09-17 12:35:15",42,13.15,18.58,39.49,12.85,40.71,"$GPRMC,173511,A,7012.6982,N,14826.2148,W,000.0,000.0,170915,020.6,E","$GPGGA,173511,7012.6982,N,14826.2148,W,2,10,0.8,25.0,M,-1.2,M,,",70,12.7,-148,-26.21,0,0,20.6,2,10,25,"NAN",0.83,0,0,0,100.7,0,0.001,13.02,1.323,1.1,1
"2015-09-17 12:35:20",43,13.15,18.56,39.49,13.02,40.23,"$GPRMC,173516,A,7012.6982,N,14826.2148,W,000.0,000.0,170915,020.6,E","$GPGGA,173516,7012.6982,N,14826.2148,W,2,10,0.8,25.0,M,-1.2,M,,",70,12.7,-148,-26.21,0,0,20.6,2,10,25,"NAN",0.84,0,0,0,100.7,0,0.001,13.06,1.326,1.1,1
"2015-09-17 12:35:25",44,13.15,18.56,39.49,13.26,39.55,"$GPRMC,173521,A,7012.6979,N,14826.2146,W,000.0,000.0,170915,020.6,E","$GPGGA,173521,7012.6979,N,14826.2146,W,2,10,0.8,24.0,M,-1.2,M,,",70,12.7,-148,-26.21,0,0,20.6,2,10,24.3,"NAN",0.82,0,0,0,100.7,0,0.001,13.09,1.323,1.1,1
"2015-09-17 12:35:30",45,13.15,18.53,39.49,13.39,39.04,"$GPRMC,173526,A,7012.6978,N,14826.2149,W,000.0,000.0,170915,020.6,E","$GPGGA,173526,7012.6978,N,14826.2149,W,2,10,0.8,23.5,M,-1.2,M,,",70,12.7,-148,-26.21,0,0,20.6,2,10,23.5,"NAN",0.84,0,0,0,100.7,0,0.001,13.09,1.323,1.1,1
"2015-09-17 12:35:35",46,13.14,18.53,38.81,13.53,38.43,"$GPRMC,173531,A,7012.6978,N,14826.2149,W,000.0,000.0,170915,020.6,E","$GPGGA,173531,7012.6978,N,14826.2149,W,2,10,0.8,23.5,M,-1.2,M,,",70,12.7,-148,-26.21,0,0,20.6,2,10,23.5,"NAN",0.83,0,0,0,100.7,0,0,13.1,1.345,1.101,1
"2015-09-17 12:35:40",47,13.15,18.53,38.81,13.73,37.96,"$GPRMC,173536,A,7012.6978,N,14826.2149,W,000.0,000.0,170915,020.6,E","$GPGGA,173536,7012.6978,N,14826.2149,W,2,10,0.8,23.5,M,-1.2,M,,",70,12.7,-148,-26.21,0,0,20.6,2,10,23.5,"NAN",0.84,0,0,0,100.7,0,0.001,13.11,1.343,1.101,1
"2015-09-17 12:35:45",48,13.15,18.51,38.81,13.83,37.59,"$GPRMC,173541,A,7012.6982,N,14826.2166,W,000.0,000.0,170915,020.6,E","$GPGGA,173541,7012.6982,N,14826.2166,W,2,10,0.8,23.5,M,-1.2,M,,",70,12.7,-148,-26.22,0,0,20.6,2,10,23.4,"NAN",0.84,0,0,0,100.8,0,0.001,13.13,1.415,1.105,1
"2015-09-17 12:35:50",49,13.14,18.51,38.81,13.97,37.28,"$GPRMC,173546,A,7012.6976,N,14826.2170,W,000.0,000.0,170915,020.6,E","$GPGGA,173546,7012.6976,N,14826.2170,W,2,10,0.8,23.2,M,-1.2,M,,",70,12.7,-148,-26.22,0,0,20.6,2,10,23.3,"NAN",0.84,0,0,0,100.7,0,0.001,13.17,1.418,1.105,1
"2015-09-17 12:35:55",50,13.14,18.48,37.46,14.04,37.04,"$GPRMC,173551,A,7012.6972,N,14826.2160,W,000.0,000.0,170915,020.6,E","$GPGGA,173551,7012.6972,N,14826.2160,W,2,10,0.8,22.9,M,-1.2,M,,",70,12.7,-148,-26.22,0,0,20.6,2,10,22.9,"NAN",0.84,0,0,0,100.7,0,0.001,13.16,1.4,1.104,1
"2015-09-17 12:36:00",51,13.14,18.48,38.14,14.14,36.84,"$GPRMC,173556,A,7012.6972,N,14826.2160,W,000.0,000.0,170915,020.6,E","$GPGGA,173556,7012.6972,N,14826.2160,W,2,10,0.8,22.8,M,-1.2,M,,",70,12.7,-148,-26.22,0,0,20.6,2,10,22.8,"NAN",0.85,0,0,0,100.8,0,0.001,13.17,1.399,1.104,1
"2015-09-17 12:36:05",52,13.14,18.46,38.14,14.21,36.57,"$GPRMC,173601,A,7012.6970,N,14826.2156,W,000.0,000.0,170915,020.6,E","$GPGGA,173601,7012.6970,N,14826.2156,W,2,10,0.8,22.5,M,-1.2,M,,",70,12.7,-148,-26.22,0,0,20.6,2,10,22.8,"NAN",0.84,0,0,0,100.7,0,0.001,13.17,1.396,1.104,1
"2015-09-17 12:36:10",53,13.14,18.46,38.14,14.31,36.33,"$GPRMC,173606,A,7012.6961,N,14826.2140,W,000.0,000.0,170915,020.6,E","$GPGGA,173606,7012.6961,N,14826.2140,W,2,10,0.8,21.1,M,-1.2,M,,",70,12.7,-148,-26.21,0,0,20.6,2,10,21.3,"NAN",0.85,0,0,0,100.7,0,0.001,13.19,1.398,1.104,1
"2015-09-17 12:36:15",54,13.14,18.46,38.14,14.44,36.09,"$GPRMC,173611,A,7012.6954,N,14826.2129,W,000.0,000.0,170915,020.6,E","$GPGGA,173611,7012.6954,N,14826.2129,W,2,10,0.8,20.8,M,-1.2,M,,",70,12.7,-148,-26.21,0,0,20.6,2,10,20.8,"NAN",0.83,0,0,0,100.8,0,0,13.21,1.384,1.103,1
"2015-09-17 12:36:20",55,13.14,18.43,38.14,14.55,35.69,"$GPRMC,173616,A,7012.6950,N,14826.2125,W,000.0,000.0,170915,020.6,E","$GPGGA,173616,7012.6950,N,14826.2125,W,2,10,0.8,20.9,M,-1.2,M,,",70,12.7,-148,-26.21,0,0,20.6,2,10,20.9,"NAN",0.83,0,0,0,100.7,0,0.001,13.23,1.379,1.103,1
"2015-09-17 12:36:25",56,13.14,18.43,37.8,14.65,35.31,"$GPRMC,173621,A,7012.6950,N,14826.2125,W,000.0,000.0,170915,020.6,E","$GPGGA,173621,7012.6950,N,14826.2125,W,2,10,0.8,20.8,M,-1.2,M,,",70,12.7,-148,-26.21,0,0,20.6,2,10,20.9,"NAN",0.84,0,0,0,100.7,0,0.001,13.23,1.358,1.102,1
"2015-09-17 12:36:30",57,13.14,18.4,37.8,14.72,35.14,"$GPRMC,173626,A,7012.6949,N,14826.2125,W,000.0,000.0,170915,020.6,E","$GPGGA,173626,7012.6949,N,14826.2125,W,2,10,0.8,20.8,M,-1.2,M,,",70,12.69,-148,-26.21,0,0,20.6,2,10,20.8,"NAN",0.85,0,0,0,100.7,0,0.001,13.26,1.38,1.103,1
"2015-09-17 12:36:35",58,13.14,18.4,37.46,14.82,34.94,"$GPRMC,173631,A,7012.6949,N,14826.2125,W,000.0,000.0,170915,020.6,E","$GPGGA,173631,7012.6949,N,14826.2125,W,2,10,0.8,20.8,M,-1.2,M,,",70,12.69,-148,-26.21,0,0,20.6,2,10,20.8,"NAN",0.87,0,0,0,100.7,0,0.001,13.27,1.359,1.102,1
"2015-09-17 12:36:40",59,13.14,18.4,37.12,14.92,34.74,"$GPRMC,173636,A,7012.6950,N,14826.2125,W,000.0,000.0,170915,020.6,E","$GPGGA,173636,7012.6950,N,14826.2125,W,2,10,0.8,20.8,M,-1.2,M,,",70,12.7,-148,-26.21,0,0,20.6,2,10,20.8,"NAN",0.85,0,0,0,100.7,0,0.001,13.28,1.377,1.103,1
"2015-09-17 12:36:45",60,13.14,18.38,36.79,15.06,34.26,"$GPRMC,173641,A,7012.6950,N,14826.2125,W,000.0,000.0,170915,020.6,E","$GPGGA,173641,7012.6950,N,14826.2125,W,2,10,0.8,20.9,M,-1.2,M,,",70,12.7,-148,-26.21,0,0,20.6,2,10,20.8,"NAN",0.85,0,0,0,100.7,0,0.001,13.3,1.361,1.102,1
"2015-09-17 12:36:50",61,13.14,18.38,36.45,15.06,33.92,"$GPRMC,173646,A,7012.6949,N,14826.2125,W,000.0,000.0,170915,020.6,E","$GPGGA,173646,7012.6949,N,14826.2125,W,2,10,0.8,20.9,M,-1.2,M,,",70,12.69,-148,-26.21,0,0,20.6,2,10,20.9,"NAN",0.84,0,0,0,100.7,0,0.001,13.3,1.362,1.102,1
"2015-09-17 12:36:55",62,13.14,18.38,35.77,15.09,33.85,"$GPRMC,173651,A,7012.6949,N,14826.2126,W,000.0,000.0,170915,020.6,E","$GPGGA,173651,7012.6949,N,14826.2126,W,2,10,0.8,20.9,M,-1.2,M,,",70,12.69,-148,-26.21,0,0,20.6,2,10,20.9,"NAN",0.84,0,0,0,100.7,0,0.001,13.31,1.362,1.102,1
"2015-09-17 12:37:00",63,13.14,18.35,35.44,15.09,33.72,"$GPRMC,173656,A,7012.6949,N,14826.2126,W,000.0,000.0,170915,020.6,E","$GPGGA,173656,7012.6949,N,14826.2126,W,2,10,0.8,20.9,M,-1.2,M,,",70,12.69,-148,-26.21,0,0,20.6,2,10,20.9,"NAN",0.84,0,0,0,100.7,0,0.001,13.31,1.36,1.102,1
"2015-09-17 12:37:05",64,13.14,18.35,35.1,15.16,33.58,"$GPRMC,173701,A,7012.6949,N,14826.2126,W,000.0,000.0,170915,020.6,E","$GPGGA,173701,7012.6949,N,14826.2126,W,2,10,0.8,20.9,M,-1.2,M,,",70,12.69,-148,-26.21,0,0,20.6,2,10,20.9,"NAN",0.84,0,0,0,100.7,0,0.001,13.3,1.361,1.102,1
"2015-09-17 12:37:10",65,13.14,18.35,34.76,15.23,33.52,"$GPRMC,173706,A,7012.6950,N,14826.2126,W,000.0,000.0,170915,020.6,E","$GPGGA,173706,7012.6950,N,14826.2126,W,2,10,0.8,20.9,M,-1.2,M,,",70,12.7,-148,-26.21,0,0,20.6,2,10,20.9,"NAN",0.84,0,0,0,100.7,0,0.001,13.31,1.362,1.102,1
"2015-09-17 12:37:15",66,13.14,18.33,34.76,15.19,33.31,"$GPRMC,173711,A,7012.6949,N,14826.2125,W,000.0,000.0,170915,020.6,E","$GPGGA,173711,7012.6949,N,14826.2125,W,2,10,0.8,21.6,M,-1.2,M,,",70,12.69,-148,-26.21,0,0,20.6,2,10,21.2,"NAN",0.84,0,0,0,100.7,0,0,13.32,1.363,1.102,1
"2015-09-17 12:37:20",67,13.13,18.33,34.42,15.19,33.18,"$GPRMC,173716,A,7012.6951,N,14826.2125,W,000.0,000.0,170915,020.6,E","$GPGGA,173716,7012.6951,N,14826.2125,W,2,10,0.8,22.5,M,-1.2,M,,",70,12.7,-148,-26.21,0,0,20.6,2,10,22.6,"NAN",0.84,0,0,0,100.7,0,0,13.31,1.364,1.102,1
"2015-09-17 12:37:25",68,13.13,18.3,34.09,15.26,32.94,"$GPRMC,173721,A,7012.6953,N,14826.2131,W,000.0,000.0,170915,020.6,E","$GPGGA,173721,7012.6953,N,14826.2131,W,2,10,0.8,21.0,M,-1.2,M,,",70,12.7,-148,-26.21,0,0,20.6,2,10,21.4,"NAN",0.82,0,0,0,100.7,0,0.001,13.33,1.436,1.107,1
"2015-09-17 12:37:30",69,13.13,18.3,34.09,15.39,32.9,"$GPRMC,173726,A,7012.6955,N,14826.2127,W,000.0,000.0,170915,020.6,E","$GPGGA,173726,7012.6955,N,14826.2127,W,2,10,0.8,20.7,M,-1.2,M,,",70,12.7,-148,-26.21,0,0,20.6,2,10,20.6,"NAN",0.82,0,0,0,100.7,0,0.001,13.34,1.265,1.096,1.001
"2015-09-17 12:37:35",70,13.13,18.3,33.75,15.29,32.67,"$GPRMC,173731,A,7012.6955,N,14826.2125,W,000.0,000.0,170915,020.6,E","$GPGGA,173731,7012.6955,N,14826.2125,W,2,10,0.8,20.8,M,-1.2,M,,",70,12.7,-148,-26.21,0,0,20.6,2,10,20.8,"NAN",0.83,0,0,0,100.7,0,0.001,13.3,1.036,1.082,1
"2015-09-17 12:37:40",71,13.13,18.28,33.41,15.02,32.63,"$GPRMC,173736,A,7012.6955,N,14826.2124,W,000.0,000.0,170915,020.6,E","$GPGGA,173736,7012.6955,N,14826.2124,W,2,10,0.8,20.8,M,-1.2,M,,",70,12.7,-148,-26.21,0,0,20.6,2,10,20.8,"NAN",0.82,0,0,0,100.8,0,0,13.29,1.419,1.105,1
"2015-09-17 12:37:45",72,13.13,18.28,33.07,14.55,32.63,"$GPRMC,173741,A,7012.6955,N,14826.2124,W,000.0,000.0,170915,020.6,E","$GPGGA,173741,7012.6955,N,14826.2124,W,2,10,0.8,20.8,M,-1.2,M,,",70,12.7,-148,-26.21,0,0,20.6,2,10,20.8,"NAN",0.82,0,0,0,100.7,0,0.001,13.22,1.358,1.102,1
"2015-09-17 12:37:50",73,13.13,18.28,32.74,13.94,33.14,"$GPRMC,173746,A,7012.6956,N,14826.2123,W,000.0,000.0,170915,020.6,E","$GPGGA,173746,7012.6956,N,14826.2123,W,2,10,0.8,20.8,M,-1.2,M,,",70,12.7,-148,-26.21,0,0,20.6,2,10,20.8,"NAN",0.83,0,0,0,100.7,0,0.001,13.15,1.323,1.1,1
"2015-09-17 12:37:55",74,13.13,18.25,32.4,13.29,33.68,"$GPRMC,173751,A,7012.6956,N,14826.2121,W,000.0,000.0,170915,020.6,E","$GPGGA,173751,7012.6956,N,14826.2121,W,2,10,0.8,20.8,M,-1.2,M,,",70,12.7,-148,-26.21,0,0,20.6,2,10,20.8,"NAN",0.83,0,0,0,100.7,0,0.001,13.11,1.437,1.107,1
"2015-09-17 12:38:00",75,13.13,18.25,32.06,12.48,34.57,"$GPRMC,173756,A,7012.6958,N,14826.2111,W,000.0,000.0,170915,020.6,E","$GPGGA,173756,7012.6958,N,14826.2111,W,2,10,0.8,21.4,M,-1.2,M,,",70,12.7,-148,-26.21,0,0,20.6,2,10,21.4,"NAN",0.83,0,0,0,100.7,0,0.001,13,1,1.077,1
"2015-09-17 12:38:05",76,13.13,18.25,32.06,11.73,35.55,"$GPRMC,173801,A,7012.6958,N,14826.2111,W,000.0,000.0,170915,020.6,E","$GPGGA,173801,7012.6958,N,14826.2111,W,2,10,0.8,21.4,M,-1.2,M,,",70,12.7,-148,-26.21,0,0,20.6,2,10,21.4,"NAN",0.83,0,0,0,100.8,0,0.001,12.91,1,1.072,1
"2015-09-17 12:38:10",77,13.13,18.23,32.06,10.92,36.91,"$GPRMC,173806,A,7012.6958,N,14826.2111,W,000.0,000.0,170915,020.6,E","$GPGGA,173806,7012.6958,N,14826.2111,W,2,10,0.8,21.4,M,-1.2,M,,",70,12.7,-148,-26.21,0,0,20.6,2,10,21.4,"NAN",0.88,0,0,0,100.7,0,0.001,12.8,1,1.07,1
"2015-09-17 12:38:15",78,13.13,18.23,32.4,10.31,38.3,"$GPRMC,173811,A,7012.6958,N,14826.2111,W,000.0,000.0,170915,020.6,E","$GPGGA,173811,7012.6958,N,14826.2111,W,2,10,0.8,21.4,M,-1.2,M,,",70,12.7,-148,-26.21,0,0,20.6,2,10,21.4,"NAN",0.83,0,0,0,100.7,0,0,12.66,1,1.07,1
"2015-09-17 12:38:20",79,13.13,18.23,32.74,9.56,39.52,"$GPRMC,173816,A,7012.6958,N,14826.2111,W,000.0,000.0,170915,020.6,E","$GPGGA,173816,7012.6958,N,14826.2111,W,2,10,0.8,21.4,M,-1.2,M,,",70,12.7,-148,-26.21,0,0,20.6,2,10,21.4,"NAN",0.84,0,0,0,100.7,0,0.001,12.61,1,1.07,1
"2015-09-17 12:38:25",80,13.13,18.2,32.74,8.92,41.25,"$GPRMC,173821,A,7012.6958,N,14826.2111,W,000.0,000.0,170915,020.6,E","$GPGGA,173821,7012.6958,N,14826.2111,W,2,10,0.8,21.4,M,-1.2,M,,",70,12.7,-148,-26.21,0,0,20.6,2,10,21.4,"NAN",0.83,0,0,0,100.7,0,0.001,12.47,1,1.07,1
"2015-09-17 12:38:30",81,13.13,18.2,32.74,8.44,42.54,"$GPRMC,173826,A,7012.6956,N,14826.2114,W,000.0,000.0,170915,020.6,E","$GPGGA,173826,7012.6956,N,14826.2114,W,2,10,0.8,21.6,M,-1.2,M,,",70,12.7,-148,-26.21,0,0,20.6,2,10,21.6,"NAN",0.83,0,0,0,100.7,0,0.001,12.4,1,1.07,1
"2015-09-17 12:38:35",82,13.13,18.2,32.74,7.966,44.23,"$GPRMC,173831,A,7012.6955,N,14826.2122,W,000.0,000.0,170915,020.6,E","$GPGGA,173831,7012.6955,N,14826.2122,W,2,10,0.8,21.7,M,-1.2,M,,",70,12.7,-148,-26.21,0,0,20.6,2,10,21.6,"NAN",0.84,0,0,0,100.8,0,0.001,12.31,1,1.07,1
"2015-09-17 12:38:40",83,13.13,18.17,32.74,7.559,45.52,"$GPRMC,173836,A,7012.6954,N,14826.2129,W,000.0,000.0,170915,020.6,E","$GPGGA,173836,7012.6954,N,14826.2129,W,2,10,0.8,21.9,M,-1.2,M,,",70,12.7,-148,-26.21,0,0,20.6,2,10,21.9,"NAN",0.84,0,0,0,100.7,0,0.001,12.23,1,1.07,1
"2015-09-17 12:38:45",84,13.13,18.17,32.74,7.084,47.02,"$GPRMC,173841,A,7012.6954,N,14826.2131,W,000.0,000.0,170915,020.6,E","$GPGGA,173841,7012.6954,N,14826.2131,W,2,10,0.8,21.9,M,-1.2,M,,",70,12.7,-148,-26.21,0,0,20.6,2,10,21.9,"NAN",0.83,0,0,0,100.7,0,0.001,12.12,1,1.07,1
"2015-09-17 12:38:50",85,13.12,18.17,32.74,6.677,48.24,"$GPRMC,173846,A,7012.6953,N,14826.2138,W,000.0,000.0,170915,020.6,E","$GPGGA,173846,7012.6953,N,14826.2138,W,2,10,0.8,22.2,M,-1.2,M,,",70,12.7,-148,-26.21,0,0,20.6,2,10,22.1,"NAN",0.84,0,0,0,100.8,0,0,12.03,1,1.07,1
"2015-09-17 12:38:55",86,13.12,18.15,32.74,6.27,49.8,"$GPRMC,173851,A,7012.6951,N,14826.2144,W,000.0,000.0,170915,020.6,E","$GPGGA,173851,7012.6951,N,14826.2144,W,2,10,0.8,22.2,M,-1.2,M,,",70,12.7,-148,-26.21,0,0,20.6,2,10,22.3,"NAN",0.86,0,0,0,100.7,0,0.001,11.91,1,1.07,1
"2015-09-17 12:39:00",87,13.12,18.15,32.4,6.033,51.02,"$GPRMC,173856,A,7012.6949,N,14826.2147,W,000.0,000.0,170915,020.6,E","$GPGGA,173856,7012.6949,N,14826.2147,W,2,10,0.8,22.4,M,-1.2,M,,",70,12.69,-148,-26.21,0,0,20.6,2,10,22.3,"NAN",0.83,0,0,0,100.7,0,0,11.78,1,1.07,1
"2015-09-17 12:39:05",88,13.11,18.15,32.74,5.727,52.55,"$GPRMC,173901,A,7012.6949,N,14826.2148,W,000.0,000.0,170915,020.6,E","$GPGGA,173901,7012.6949,N,14826.2148,W,2,10,0.8,22.9,M,-1.2,M,,",70,12.69,-148,-26.21,0,0,20.6,2,10,22.8,"NAN",0.84,0,0,0,100.7,0,0.001,11.68,1,1.07,1
"2015-09-17 12:39:10",89,13.11,18.12,32.74,5.524,53.67,"$GPRMC,173906,A,7012.6949,N,14826.2154,W,000.0,000.0,170915,020.6,E","$GPGGA,173906,7012.6949,N,14826.2154,W,2,10,0.8,23.2,M,-1.2,M,,",70,12.69,-148,-26.22,0,0,20.6,2,10,23.1,"NAN",0.84,0,0,0,100.7,0,0.001,11.58,1,1.07,1
"2015-09-17 12:39:15",90,13.11,18.12,32.74,5.252,55.09,"$GPRMC,173911,A,7012.6952,N,14826.2163,W,000.0,000.0,170915,020.6,E","$GPGGA,173911,7012.6952,N,14826.2163,W,2,10,0.8,23.6,M,-1.2,M,,",70,12.7,-148,-26.22,0,0,20.6,2,10,23.6,"NAN",0.82,0,0,0,100.7,0,0.001,11.45,1,1.07,1
"2015-09-17 12:39:20",91,13.11,18.1,32.74,4.982,56.08,"$GPRMC,173916,A,7012.6954,N,14826.2173,W,000.0,000.0,170915,020.6,E","$GPGGA,173916,7012.6954,N,14826.2173,W,2,10,0.8,23.5,M,-1.2,M,,",70,12.7,-148,-26.22,0,0,20.6,2,10,23.5,"NAN",0.83,0,0,0,100.7,0,0.001,11.36,1,1.07,1
"2015-09-17 12:39:25",92,13.1,18.1,32.74,4.711,57.4,"$GPRMC,173921,A,7012.6954,N,14826.2173,W,000.0,000.0,170915,020.6,E","$GPGGA,173921,7012.6954,N,14826.2173,W,2,10,0.8,23.5,M,-1.2,M,,",70,12.7,-148,-26.22,0,0,20.6,2,10,23.5,"NAN",0.83,0,0,0,100.7,0,0,11.27,1,1.07,1
"2015-09-17 12:39:30",93,13.1,18.1,32.74,4.507,58.21,"$GPRMC,173926,A,7012.6954,N,14826.2174,W,000.0,000.0,170915,020.6,E","$GPGGA,173926,7012.6954,N,14826.2174,W,2,10,0.8,23.5,M,-1.2,M,,",70,12.7,-148,-26.22,0,0,20.6,2,10,23.5,"NAN",0.84,0,0,0,100.8,0,0,11.16,1,1.07,0.999
"2015-09-17 12:39:35",94,13.1,18.07,33.07,4.372,59.37,"$GPRMC,173931,A,7012.6954,N,14826.2174,W,000.0,000.0,170915,020.6,E","$GPGGA,173931,7012.6954,N,14826.2174,W,2,10,0.8,23.5,M,-1.2,M,,",70,12.7,-148,-26.22,0,0,20.6,2,10,23.5,"NAN",0.88,0,0,0,100.7,0,0,11.05,1,1.07,1
"2015-09-17 12:39:40",95,13.1,18.07,33.07,4.168,60.45,"$GPRMC,173936,A,7012.6954,N,14826.2174,W,000.0,000.0,170915,020.6,E","$GPGGA,173936,7012.6954,N,14826.2174,W,2,10,0.8,23.5,M,-1.2,M,,",70,12.7,-148,-26.22,0,0,20.6,2,10,23.5,"NAN",0.83,0,0,0,100.7,0,0.001,10.97,1,1.07,1
"2015-09-17 12:39:45",96,13.1,18.05,33.07,3.863,61.33,"$GPRMC,173941,A,7012.6954,N,14826.2174,W,000.0,000.0,170915,020.6,E","$GPGGA,173941,7012.6954,N,14826.2174,W,2,10,0.8,23.5,M,-1.2,M,,",70,12.7,-148,-26.22,0,0,20.6,2,10,23.5,"NAN",0.85,0,0,0,100.8,0,0,10.82,1,1.07,0.999
"2015-09-17 12:39:50",97,13.1,18.05,33.41,3.659,62.25,"$GPRMC,173946,A,7012.6954,N,14826.2174,W,000.0,000.0,170915,020.6,E","$GPGGA,173946,7012.6954,N,14826.2174,W,2,10,0.8,23.5,M,-1.2,M,,",70,12.7,-148,-26.22,0,0,20.6,2,10,23.5,"NAN",0.83,0,0,0,100.7,0,0,10.74,1,1.07,1
"2015-09-17 12:39:55",98,13.1,18.05,33.41,3.422,63.17,"$GPRMC,173951,A,7012.6954,N,14826.2174,W,000.0,000.0,170915,020.6,E","$GPGGA,173951,7012.6954,N,14826.2174,W,2,10,0.8,23.5,M,-1.2,M,,",70,12.7,-148,-26.22,0,0,20.6,2,10,23.5,"NAN",0.82,0,0,0,100.7,0,0.001,10.63,1,1.07,1
"2015-09-17 12:40:00",99,13.1,18.02,33.41,3.184,64.18,"$GPRMC,173956,A,7012.6954,N,14826.2174,W,000.0,000.0,170915,020.6,E","$GPGGA,173956,7012.6954,N,14826.2174,W,2,09,0.8,23.5,M,-1.2,M,,",70,12.7,-148,-26.22,0,0,20.6,2,9,23.5,"NAN",0.84,0,0,0,100.8,0,0.001,10.52,1,1.07,1
"2015-09-17 12:40:05",100,13.1,18.02,34.09,2.947,65.13,"$GPRMC,174001,A,7012.6954,N,14826.2174,W,000.0,000.0,170915,020.6,E","$GPGGA,174001,7012.6954,N,14826.2174,W,2,09,0.8,23.5,M,-1.2,M,,",70,12.7,-148,-26.22,0,0,20.6,2,9,23.5,"NAN",0.85,0,0,0,100.7,0,0.001,10.45,1,1.07,1.001
"2015-09-17 12:40:10",101,13.11,18.02,34.42,2.777,66.05,"$GPRMC,174006,A,7012.6954,N,14826.2173,W,000.0,000.0,170915,020.6,E","$GPGGA,174006,7012.6954,N,14826.2173,W,2,10,0.8,23.4,M,-1.2,M,,",70,12.7,-148,-26.22,0,0,20.6,2,10,23.5,"NAN",0.84,0,0,0,100.7,0,0,10.34,1,1.07,1
"2015-09-17 12:40:15",102,13.1,17.99,34.76,2.607,67.17,"$GPRMC,174011,A,7012.6954,N,14826.2173,W,000.0,000.0,170915,020.6,E","$GPGGA,174011,7012.6954,N,14826.2173,W,2,10,0.8,23.4,M,-1.2,M,,",70,12.7,-148,-26.22,0,0,20.6,2,10,23.4,"NAN",0.82,0,0,0,100.8,0,0.001,10.24,1,1.07,1
"2015-09-17 12:40:20",103,13.11,17.99,34.76,2.573,68.05,"$GPRMC,174016,A,7012.6954,N,14826.2172,W,000.0,000.0,170915,020.6,E","$GPGGA,174016,7012.6954,N,14826.2172,W,2,09,0.8,23.4,M,-1.2,M,,",70,12.7,-148,-26.22,0,0,20.6,2,9,23.4,"NAN",0.85,0,0,0,100.7,0,0.001,10.17,1,1.07,1
"2015-09-17 12:40:25",104,13.11,17.99,35.1,2.471,69.03,"$GPRMC,174021,A,7012.6954,N,14826.2172,W,000.0,000.0,170915,020.6,E","$GPGGA,174021,7012.6954,N,14826.2172,W,2,10,0.8,23.4,M,-1.2,M,,",70,12.7,-148,-26.22,0,0,20.6,2,10,23.4,"NAN",0.82,0,0,0,100.7,0,0.001,10.11,1,1.07,1
"2015-09-17 12:40:30",105,13.11,17.97,35.44,2.438,69.75,"$GPRMC,174026,A,7012.6954,N,14826.2171,W,000.0,000.0,170915,020.6,E","$GPGGA,174026,7012.6954,N,14826.2171,W,2,10,0.8,23.4,M,-1.2,M,,",70,12.7,-148,-26.22,0,0,20.6,2,10,23.4,"NAN",0.83,0,0,0,100.7,0,0.001,10.01,1,1.07,1.001
"2015-09-17 12:40:35",106,13.11,17.97,35.44,2.336,70.46,"$GPRMC,174031,A,7012.6954,N,14826.2171,W,000.0,000.0,170915,020.6,E","$GPGGA,174031,7012.6954,N,14826.2171,W,2,09,0.8,23.4,M,-1.2,M,,",70,12.7,-148,-26.22,0,0,20.6,2,9,23.4,"NAN",0.83,0,0,0,100.7,0,0.001,9.91,1,1.07,1
"2015-09-17 12:40:40",107,13.1,17.95,35.77,2.302,70.97,"$GPRMC,174036,A,7012.6954,N,14826.2171,W,000.0,000.0,170915,020.6,E","$GPGGA,174036,7012.6954,N,14826.2171,W,2,10,0.8,23.4,M,-1.2,M,,",70,12.7,-148,-26.22,0,0,20.6,2,10,23.4,"NAN",0.82,0,0,0,100.7,0,0.001,9.8,1,1.07,1
"2015-09-17 12:40:45",108,13.1,17.95,36.11,2.2,71.65,"$GPRMC,174041,A,7012.6954,N,14826.2170,W,000.0,000.0,170915,020.6,E","$GPGGA,174041,7012.6954,N,14826.2170,W,2,10,0.8,23.4,M,-1.2,M,,",70,12.7,-148,-26.22,0,0,20.6,2,10,23.4,"NAN",0.84,0,0,0,100.7,0,0,9.72,1,1.07,1
"2015-09-17 12:40:50",109,13.1,17.95,36.11,2.166,72.09,"$GPRMC,174046,A,7012.6955,N,14826.2170,W,000.0,000.0,170915,020.6,E","$GPGGA,174046,7012.6955,N,14826.2170,W,2,10,0.8,23.4,M,-1.2,M,,",70,12.7,-148,-26.22,0,0,20.6,2,10,23.4,"NAN",0.84,0,0,0,100.7,0,0.001,9.63,1,1.07,1
"2015-09-17 12:40:55",110,13.1,17.92,36.79,2.098,72.63,"$GPRMC,174051,A,7012.6957,N,14826.2158,W,000.0,000.0,170915,020.6,E","$GPGGA,174051,7012.6957,N,14826.2158,W,2,10,0.8,23.6,M,-1.2,M,,",70,12.7,-148,-26.22,0,0,20.6,2,10,23.5,"NAN",0.83,0,0,0,100.7,0,0.001,9.55,1,1.07,1
"2015-09-17 12:41:00",111,13.1,17.92,36.79,2.064,73.07,"$GPRMC,174056,A,7012.6959,N,14826.2145,W,000.0,000.0,170915,020.6,E","$GPGGA,174056,7012.6959,N,14826.2145,W,2,10,0.8,24.0,M,-1.2,M,,",70,12.7,-148,-26.21,0,0,20.6,2,10,24,"NAN",0.84,0,0,0,100.7,0,0.001,9.48,1,1.07,1
"2015-09-17 12:41:05",112,13.1,17.87,37.12,2.03,73.51,"$GPRMC,174101,A,7012.6960,N,14826.2137,W,000.0,000.0,170915,020.6,E","$GPGGA,174101,7012.6960,N,14826.2137,W,2,10,0.8,24.2,M,-1.2,M,,",70,12.7,-148,-26.21,0,0,20.6,2,10,24.2,"NAN",0.83,0,0,0,100.7,0,0.001,9.39,1,1.07,1
"2015-09-17 12:41:10",113,13.1,17.87,37.46,1.928,73.82,"$GPRMC,174106,A,7012.6960,N,14826.2131,W,000.0,000.0,170915,020.6,E","$GPGGA,174106,7012.6960,N,14826.2131,W,2,10,0.8,24.4,M,-1.2,M,,",70,12.7,-148,-26.21,0,0,20.6,2,10,24.3,"NAN",0.83,0,0,0,100.7,0,0,9.28,1,1.07,1
"2015-09-17 12:41:15",114,13.1,17.87,37.12,1.894,74.15,"$GPRMC,174111,A,7012.6961,N,14826.2124,W,000.0,000.0,170915,020.6,E","$GPGGA,174111,7012.6961,N,14826.2124,W,2,10,0.8,24.7,M,-1.2,M,,",70,12.7,-148,-26.21,0,0,20.6,2,10,24.6,"NAN",0.84,0,0,0,100.7,0,0,9.18,1,1.07,1
"2015-09-17 12:41:20",115,13.1,17.84,37.12,1.894,74.53,"$GPRMC,174116,A,7012.6961,N,14826.2123,W,000.0,000.0,170915,020.6,E","$GPGGA,174116,7012.6961,N,14826.2123,W,2,10,0.8,24.8,M,-1.2,M,,",70,12.7,-148,-26.21,0,0,20.6,2,10,24.8,"NAN",0.84,0,0,0,100.7,0,0.001,9.1,1,1.07,1
"2015-09-17 12:41:25",116,13.1,17.84,37.12,1.86,74.77,"$GPRMC,174121,A,7012.6961,N,14826.2123,W,000.0,000.0,170915,020.6,E","$GPGGA,174121,7012.6961,N,14826.2123,W,2,10,0.8,24.8,M,-1.2,M,,",70,12.7,-148,-26.21,0,0,20.6,2,10,24.8,"NAN",0.86,0,0,0,100.7,0,0.001,8.96,1,1.07,1
"2015-09-17 12:41:30",117,13.1,17.82,36.79,1.793,75.04,"$GPRMC,174126,A,7012.6960,N,14826.2123,W,000.0,000.0,170915,020.6,E","$GPGGA,174126,7012.6960,N,14826.2123,W,2,09,0.8,24.8,M,-1.2,M,,",70,12.7,-148,-26.21,0,0,20.6,2,10,24.8,"NAN",0.87,0,0,0,100.7,0,0.001,8.9,1,1.07,1
"2015-09-17 12:41:35",118,13.1,17.82,36.45,1.759,75.27,"$GPRMC,174131,A,7012.6960,N,14826.2123,W,000.0,000.0,170915,020.6,E","$GPGGA,174131,7012.6960,N,14826.2123,W,2,09,0.8,24.8,M,-1.2,M,,",70,12.7,-148,-26.21,0,0,20.6,2,10,24.8,"NAN",0.86,0,0,0,100.7,0,0.001,8.82,1,1.07,1
"2015-09-17 12:41:40",119,13.1,17.82,36.45,1.691,75.55,"$GPRMC,174136,A,7012.6960,N,14826.2123,W,000.0,000.0,170915,020.6,E","$GPGGA,174136,7012.6960,N,14826.2123,W,2,09,0.8,24.8,M,-1.2,M,,",70,12.7,-148,-26.21,0,0,20.6,2,9,24.8,"NAN",0.87,0,0,0,100.7,0,0.001,8.72,1,1.07,1
"2015-09-17 12:41:45",120,13.1,17.79,36.11,1.657,75.78,"$GPRMC,174141,A,7012.6960,N,14826.2123,W,000.0,000.0,170915,020.6,E","$GPGGA,174141,7012.6960,N,14826.2123,W,2,09,0.8,24.8,M,-1.2,M,,",70,12.7,-148,-26.21,0,0,20.6,2,9,24.8,"NAN",0.85,0,0,0,100.7,0,0.001,8.62,1,1.07,1
"2015-09-17 12:41:50",121,13.1,17.79,36.11,1.657,76.05,"$GPRMC,174146,A,7012.6960,N,14826.2123,W,000.0,000.0,170915,020.6,E","$GPGGA,174146,7012.6960,N,14826.2123,W,2,09,0.8,24.8,M,-1.2,M,,",70,12.7,-148,-26.21,0,0,20.6,2,10,24.8,"NAN",0.87,0,0,0,100.7,0,0.001,8.53,1,1.07,1
"2015-09-17 12:41:55",122,13.1,17.77,36.11,1.521,76.26,"$GPRMC,174151,A,7012.6960,N,14826.2124,W,000.0,000.0,170915,020.6,E","$GPGGA,174151,7012.6960,N,14826.2124,W,2,10,0.8,24.8,M,-1.2,M,,",70,12.7,-148,-26.21,0,0,20.6,2,9,24.8,"NAN",0.87,0,0,0,100.7,0,0.001,8.41,1,1.07,1
"2015-09-17 12:42:00",123,13.1,17.77,36.11,1.487,76.43,"$GPRMC,174156,A,7012.6960,N,14826.2124,W,000.0,000.0,170915,020.6,E","$GPGGA,174156,7012.6960,N,14826.2124,W,2,10,0.8,24.8,M,-1.2,M,,",70,12.7,-148,-26.21,0,0,20.6,2,10,24.8,"NAN",0.83,0,0,0,100.7,0,0,8.32,1,1.07,0.999
"2015-09-17 12:42:05",124,13.1,17.77,36.11,1.521,76.73,"$GPRMC,174201,A,7012.6960,N,14826.2124,W,000.0,000.0,170915,020.6,E","$GPGGA,174201,7012.6960,N,14826.2124,W,2,10,0.8,24.7,M,-1.2,M,,",70,12.7,-148,-26.21,0,0,20.6,2,10,24.7,"NAN",0.83,0,0,0,100.7,0,0.001,8.21,1,1.07,1.001
"2015-09-17 12:42:10",125,13.1,17.74,36.11,1.453,76.9,"$GPRMC,174206,A,7012.6960,N,14826.2124,W,000.0,000.0,170915,020.6,E","$GPGGA,174206,7012.6960,N,14826.2124,W,2,10,0.8,24.8,M,-1.2,M,,",70,12.7,-148,-26.21,0,0,20.6,2,10,24.7,"NAN",0.84,0,0,0,100.7,0,0.001,8.13,1,1.07,1
"2015-09-17 12:42:15",126,13.1,17.74,36.11,1.385,77.14,"$GPRMC,174211,A,7012.6960,N,14826.2125,W,000.0,000.0,170915,020.6,E","$GPGGA,174211,7012.6960,N,14826.2125,W,2,10,0.8,24.8,M,-1.2,M,,",70,12.7,-148,-26.21,0,0,20.6,2,10,24.8,"NAN",0.83,0,0,0,100.7,0,0.001,8.03,1,1.07,1.001
"2015-09-17 12:42:20",127,13.1,17.72,36.11,1.351,77.34,"$GPRMC,174216,A,7012.6960,N,14826.2125,W,000.0,000.0,170915,020.6,E","$GPGGA,174216,7012.6960,N,14826.2125,W,2,10,0.8,24.8,M,-1.2,M,,",70,12.7,-148,-26.21,0,0,20.6,2,10,24.8,"NAN",0.84,0,0,0,100.7,0,0.001,7.918,1,1.07,1
"2015-09-17 12:42:25",128,13.1,17.72,36.11,1.317,77.65,"$GPRMC,174221,A,7012.6960,N,14826.2125,W,000.0,000.0,170915,020.6,E","$GPGGA,174221,7012.6960,N,14826.2125,W,2,10,0.8,24.8,M,-1.2,M,,",70,12.7,-148,-26.21,0,0,20.6,2,10,24.8,"NAN",0.83,0,0,0,100.7,0,0,7.851,1,1.07,1
"2015-09-17 12:42:30",129,13.1,17.72,35.77,1.25,77.75,"$GPRMC,174226,A,7012.6960,N,14826.2125,W,000.0,000.0,170915,020.6,E","$GPGGA,174226,7012.6960,N,14826.2125,W,2,10,0.8,24.8,M,-1.2,M,,",70,12.7,-148,-26.21,0,0,20.6,2,10,24.8,"NAN",0.84,0,0,0,100.7,0,0.001,7.769,1,1.07,1
"2015-09-17 12:42:35",130,13.1,17.69,35.77,1.216,78.06,"$GPRMC,174231,A,7012.6960,N,14826.2133,W,000.0,000.0,170915,020.6,E","$GPGGA,174231,7012.6960,N,14826.2133,W,2,10,0.8,24.9,M,-1.2,M,,",70,12.7,-148,-26.21,0,0,20.6,2,10,24.8,"NAN",0.83,0,0,0,100.7,0,0.001,7.681,1,1.07,1
"2015-09-17 12:42:40",131,13.1,17.66,35.77,1.182,78.22,"$GPRMC,174236,A,7012.6961,N,14826.2149,W,000.0,000.0,170915,020.6,E","$GPGGA,174236,7012.6961,N,14826.2149,W,2,10,0.8,25.1,M,-1.2,M,,",70,12.7,-148,-26.21,0,0,20.6,2,10,25.1,"NAN",0.84,0,0,0,100.7,0,0.001,7.596,1,1.07,1.001
"2015-09-17 12:42:45",132,13.1,17.66,35.44,1.114,78.39,"$GPRMC,174241,A,7012.6961,N,14826.2149,W,000.0,000.0,170915,020.6,E","$GPGGA,174241,7012.6961,N,14826.2149,W,2,10,0.8,25.1,M,-1.2,M,,",70,12.7,-148,-26.21,0,0,20.6,2,10,25.1,"NAN",0.84,0,0,0,100.7,0,0.001,7.511,1,1.07,1
"2015-09-17 12:42:50",133,13.1,17.66,35.1,1.114,78.67,"$GPRMC,174246,A,7012.6961,N,14826.2150,W,000.0,000.0,170915,020.6,E","$GPGGA,174246,7012.6961,N,14826.2150,W,2,09,0.8,25.1,M,-1.2,M,,",70,12.7,-148,-26.22,0,0,20.6,2,9,25.1,"NAN",0.85,0,0,0,100.7,0,0,7.411,1,1.07,0.999
"2015-09-17 12:42:55",134,13.1,17.64,34.76,1.08,78.87,"$GPRMC,174251,A,7012.6961,N,14826.2150,W,000.0,000.0,170915,020.6,E","$GPGGA,174251,7012.6961,N,14826.2150,W,2,09,0.8,25.1,M,-1.2,M,,",70,12.7,-148,-26.22,0,0,20.6,2,9,25.1,"NAN",0.83,0,0,0,100.7,0,0.001,7.364,1,1.07,1
"2015-09-17 12:43:00",135,13.1,17.62,34.42,1.012,79.17,"$GPRMC,174256,A,7012.6961,N,14826.2151,W,000.0,000.0,170915,020.6,E","$GPGGA,174256,7012.6961,N,14826.2151,W,2,09,0.8,25.1,M,-1.2,M,,",70,12.7,-148,-26.22,0,0,20.6,2,9,25.1,"NAN",0.85,0,0,0,100.7,0,0,7.27,1,1.07,1
"2015-09-17 12:43:05",136,13.1,17.62,34.09,0.978,79.38,"$GPRMC,174301,A,7012.6961,N,14826.2151,W,000.0,000.0,170915,020.6,E","$GPGGA,174301,7012.6961,N,14826.2151,W,2,09,0.8,25.1,M,-1.2,M,,",70,12.7,-148,-26.22,0,0,20.6,2,9,25.1,"NAN",0.83,0,0,0,100.7,0,0,7.205,1,1.07,1
"2015-09-17 12:43:10",137,13.1,17.62,33.75,0.91,79.72,"$GPRMC,174306,A,7012.6961,N,14826.2151,W,000.0,000.0,170915,020.6,E","$GPGGA,174306,7012.6961,N,14826.2151,W,2,09,0.8,25.1,M,-1.2,M,,",70,12.7,-148,-26.22,0,0,20.6,2,9,25.1,"NAN",0.83,0,0,0,100.7,0,0.001,7.155,1,1.07,1.001
"2015-09-17 12:43:15",138,13.1,17.59,33.41,0.842,79.95,"$GPRMC,174311,A,7012.6960,N,14826.2142,W,000.0,000.0,170915,020.6,E","$GPGGA,174311,7012.6960,N,14826.2142,W,2,09,0.8,24.7,M,-1.2,M,,",70,12.7,-148,-26.21,0,0,20.6,2,9,24.8,"NAN",0.83,0,0,0,100.7,0,0.001,7.075,1,1.07,1
"2015-09-17 12:43:20",139,13.1,17.56,33.07,0.808,80.2,"$GPRMC,174316,A,7012.6959,N,14826.2132,W,000.0,000.0,170915,020.6,E","$GPGGA,174316,7012.6959,N,14826.2132,W,2,09,0.8,24.3,M,-1.2,M,,",70,12.7,-148,-26.21,0,0,20.6,2,9,24.4,"NAN",0.82,0,0,0,100.7,0,0.001,6.983,1,1.07,1
"2015-09-17 12:43:25",140,13.1,17.56,32.74,0.74,80.4,"$GPRMC,174321,A,7012.6957,N,14826.2113,W,000.0,000.0,170915,020.6,E","$GPGGA,174321,7012.6957,N,14826.2113,W,2,10,0.8,23.5,M,-1.2,M,,",70,12.7,-148,-26.21,0,0,20.6,2,10,23.7,"NAN",0.82,0,0,0,100.7,0,0,6.933,1,1.07,1
"2015-09-17 12:43:30",141,13.1,17.56,32.4,0.774,80.7,"$GPRMC,174326,A,7012.6956,N,14826.2097,W,000.0,000.0,170915,020.6,E","$GPGGA,174326,7012.6956,N,14826.2097,W,2,10,0.8,22.7,M,-1.2,M,,",70,12.7,-148,-26.21,0,0,20.6,2,10,22.7,"NAN",0.83,0,0,0,100.7,0,0.001,6.832,1,1.07,1.001
"2015-09-17 12:43:35",142,13.1,17.54,32.4,0.774,80.8,"$GPRMC,174331,A,7012.6956,N,14826.2097,W,000.0,000.0,170915,020.6,E","$GPGGA,174331,7012.6956,N,14826.2097,W,2,11,0.7,22.7,M,-1.2,M,,",70,12.7,-148,-26.21,0,0,20.6,2,10,22.7,"NAN",0.82,0,0,0,100.7,0,0,6.74,1,1.07,1
"2015-09-17 12:43:40",143,13.1,17.54,32.06,0.774,81,"$GPRMC,174336,A,7012.6955,N,14826.2097,W,000.0,000.0,170915,020.6,E","$GPGGA,174336,7012.6955,N,14826.2097,W,2,11,0.7,22.6,M,-1.2,M,,",70,12.7,-148,-26.21,0,0,20.6,2,11,22.7,"NAN",0.82,0,0,0,100.7,0,0.001,6.696,1,1.07,1
"2015-09-17 12:43:45",144,13.1,17.51,32.06,0.774,81.1,"$GPRMC,174341,A,7012.6956,N,14826.2097,W,000.0,000.0,170915,020.6,E","$GPGGA,174341,7012.6956,N,14826.2097,W,2,11,0.7,22.6,M,-1.2,M,,",70,12.7,-148,-26.21,0,0,20.6,2,11,22.6,"NAN",0.82,0,0,0,100.7,0,0.001,6.595,1,1.07,1
"2015-09-17 12:43:50",145,13.1,17.51,32.06,0.774,81.2,"$GPRMC,174346,A,7012.6956,N,14826.2097,W,000.0,000.0,170915,020.6,E","$GPGGA,174346,7012.6956,N,14826.2097,W,2,11,0.7,22.6,M,-1.2,M,,",70,12.7,-148,-26.21,0,0,20.6,2,11,22.6,"NAN",0.81,0,0,0,100.7,0,0.001,6.521,1,1.07,1
"2015-09-17 12:43:55",146,13.1,17.49,32.06,0.74,81.4,"$GPRMC,174351,A,7012.6959,N,14826.2124,W,000.0,000.0,170915,020.6,E","$GPGGA,174351,7012.6959,N,14826.2124,W,2,10,0.8,22.3,M,-1.2,M,,",70,12.7,-148,-26.21,0,0,20.6,2,11,22.4,"NAN",0.83,0,0,0,100.7,0,0,6.482,1,1.07,1
"2015-09-17 12:44:00",147,13.1,17.49,32.06,0.74,81.4,"$GPRMC,174356,A,7012.6962,N,14826.2148,W,000.0,000.0,170915,020.6,E","$GPGGA,174356,7012.6962,N,14826.2148,W,2,11,0.7,22.3,M,-1.2,M,,",70,12.7,-148,-26.21,0,0,20.6,2,11,22.2,"NAN",0.84,0,0,0,100.7,0,0,6.377,1,1.07,0.999
"2015-09-17 12:44:05",148,13.1,17.46,31.72,0.706,81.5,"$GPRMC,174401,A,7012.6964,N,14826.2163,W,000.0,000.0,170915,020.6,E","$GPGGA,174401,7012.6964,N,14826.2163,W,2,10,0.8,22.6,M,-1.2,M,,",70,12.7,-148,-26.22,0,0,20.6,2,10,22.5,"NAN",0.84,0,0,0,100.7,0,0,6.318,1,1.07,1
"2015-09-17 12:44:10",149,13.1,17.46,31.72,0.706,81.5,"$GPRMC,174406,A,7012.6965,N,14826.2177,W,000.0,000.0,170915,020.6,E","$GPGGA,174406,7012.6965,N,14826.2177,W,2,10,0.8,23.1,M,-1.2,M,,",70,12.7,-148,-26.22,0,0,20.6,2,10,23,"NAN",0.84,0,0,0,100.7,0,0,6.246,1,1.07,1
"2015-09-17 12:44:15",150,13.1,17.44,31.72,0.706,81.7,"$GPRMC,174411,A,7012.6964,N,14826.2186,W,000.0,000.0,170915,020.6,E","$GPGGA,174411,7012.6964,N,14826.2186,W,2,10,0.8,23.6,M,-1.2,M,,",70,12.7,-148,-26.22,0,0,20.6,2,10,23.5,"NAN",0.85,0,0,0,100.7,0,0,6.18,1,1.07,1
"2015-09-17 12:44:20",151,13.1,17.41,31.72,0.672,81.8,"$GPRMC,174416,A,7012.6962,N,14826.2198,W,000.0,000.0,170915,020.6,E","$GPGGA,174416,7012.6962,N,14826.2198,W,2,10,0.8,23.9,M,-1.2,M,,",70,12.7,-148,-26.22,0,0,20.6,2,10,23.8,"NAN",0.84,0,0,0,100.7,0,0.001,6.097,1,1.07,1
"2015-09-17 12:44:25",152,13.1,17.41,31.39,0.639,81.8,"$GPRMC,174421,A,7012.6961,N,14826.2206,W,000.0,000.0,170915,020.6,E","$GPGGA,174421,7012.6961,N,14826.2206,W,2,10,0.8,24.4,M,-1.2,M,,",70,12.7,-148,-26.22,0,0,20.6,2,10,24.3,"NAN",0.84,0,0,0,100.7,0,0,6.031,1,1.07,1
"2015-09-17 12:44:30",153,13.1,17.41,31.39,0.639,81.9,"$GPRMC,174426,A,7012.6962,N,14826.2218,W,000.0,000.0,170915,020.6,E","$GPGGA,174426,7012.6962,N,14826.2218,W,2,10,0.8,24.6,M,-1.2,M,,",70,12.7,-148,-26.22,0,0,20.6,2,10,24.6,"NAN",0.83,0,0,0,100.7,0,0.001,5.959,1,1.07,1
"2015-09-17 12:44:35",154,13.1,17.39,31.39,0.571,82,"$GPRMC,174431,A,7012.6963,N,14826.2226,W,000.0,000.0,170915,020.6,E","$GPGGA,174431,7012.6963,N,14826.2226,W,2,10,0.8,24.7,M,-1.2,M,,",70,12.7,-148,-26.22,0,0,20.6,2,10,24.7,"NAN",0.84,0,0,0,100.7,0,0.001,5.908,1,1.07,1
"2015-09-17 12:44:40",155,13.1,17.39,31.39,0.605,82.1,"$GPRMC,174436,A,7012.6967,N,14826.2241,W,000.0,000.0,170915,020.6,E","$GPGGA,174436,7012.6967,N,14826.2241,W,2,10,0.8,24.7,M,-1.2,M,,",70,12.7,-148,-26.22,0,0,20.6,2,10,24.8,"NAN",0.85,0,0,0,100.7,0,0.001,5.842,1,1.07,1
"2015-09-17 12:44:45",156,13.09,17.36,31.39,0.503,82.3,"$GPRMC,174441,A,7012.6969,N,14826.2249,W,000.0,000.0,170915,020.6,E","$GPGGA,174441,7012.6969,N,14826.2249,W,2,10,0.8,24.5,M,-1.2,M,,",70,12.7,-148,-26.22,0,0,20.6,2,9,24.5,"NAN",0.84,0,0,0,100.7,0,0.001,5.763,1,1.07,1
"2015-09-17 12:44:50",157,13.1,17.36,31.39,0.537,82.4,"$GPRMC,174446,A,7012.6970,N,14826.2254,W,000.0,000.0,170915,020.6,E","$GPGGA,174446,7012.6970,N,14826.2254,W,2,10,0.8,24.8,M,-1.2,M,,",70,12.7,-148,-26.23,0,0,20.6,2,10,24.7,"NAN",0.84,0,0,0,100.7,0,0.001,5.658,1,1.07,1
"2015-09-17 12:44:55",158,13.1,17.34,31.39,0.503,82.6,"$GPRMC,174451,A,7012.6968,N,14826.2252,W,000.0,000.0,170915,020.6,E","$GPGGA,174451,7012.6968,N,14826.2252,W,2,11,0.7,25.0,M,-1.2,M,,",70,12.7,-148,-26.23,0,0,20.6,2,11,25,"NAN",0.82,0,0,0,100.7,0,0.001,5.628,1,1.07,1
"2015-09-17 12:45:00",159,13.1,17.31,31.39,0.469,82.7,"$GPRMC,174456,A,7012.6966,N,14826.2246,W,000.0,000.0,170915,020.6,E","$GPGGA,174456,7012.6966,N,14826.2246,W,2,11,0.7,25.5,M,-1.2,M,,",70,12.7,-148,-26.22,0,0,20.6,2,11,25.4,"NAN",0.85,0,0,0,100.7,0,0,5.574,1,1.07,1
"2015-09-17 12:45:05",160,13.1,17.31,31.72,0.469,82.9,"$GPRMC,174501,A,7012.6963,N,14826.2241,W,000.0,000.0,170915,020.6,E","$GPGGA,174501,7012.6963,N,14826.2241,W,2,11,0.7,25.8,M,-1.2,M,,",70,12.7,-148,-26.22,0,0,20.6,2,11,25.7,"NAN",0.87,0,0,0,100.7,0,0.001,5.513,1,1.07,1
"2015-09-17 12:45:10",161,13.09,17.29,31.72,0.469,83,"$GPRMC,174506,A,7012.6962,N,14826.2237,W,000.0,000.0,170915,020.6,E","$GPGGA,174506,7012.6962,N,14826.2237,W,2,11,0.7,26.1,M,-1.2,M,,",70,12.7,-148,-26.22,0,0,20.6,2,11,26,"NAN",0.83,0,0,0,100.7,0,0.001,5.453,1,1.07,1
"2015-09-17 12:45:15",162,13.09,17.26,32.06,0.503,83.2,"$GPRMC,174511,A,7012.6961,N,14826.2233,W,000.0,000.0,170915,020.6,E","$GPGGA,174511,7012.6961,N,14826.2233,W,2,11,0.7,26.6,M,-1.2,M,,",70,12.7,-148,-26.22,0,0,20.6,2,11,26.6,"NAN",0.83,0,0,0,100.7,0,0,5.368,1,1.07,1
"2015-09-17 12:45:20",163,13.09,17.26,32.06,0.435,83.2,"$GPRMC,174516,A,7012.6959,N,14826.2224,W,000.0,000.0,170915,020.6,E","$GPGGA,174516,7012.6959,N,14826.2224,W,2,11,0.7,26.4,M,-1.2,M,,",70,12.7,-148,-26.22,0,0,20.6,2,11,26.5,"NAN",0.84,0,0,0,100.7,0,0.001,5.341,1,1.07,1
"2015-09-17 12:45:25",164,13.09,17.24,32.4,0.503,83.4,"$GPRMC,174521,A,7012.6957,N,14826.2209,W,000.0,000.0,170915,020.6,E","$GPGGA,174521,7012.6957,N,14826.2209,W,2,10,0.8,26.2,M,-1.2,M,,",70,12.7,-148,-26.22,0,0,20.6,2,10,26.3,"NAN",0.82,0,0,0,100.7,0,0,5.256,1,1.07,1
"2015-09-17 12:45:30",165,13.09,17.24,32.74,0.469,83.5,"$GPRMC,174526,A,7012.6955,N,14826.2195,W,000.0,000.0,170915,020.6,E","$GPGGA,174526,7012.6955,N,14826.2195,W,2,10,0.8,25.7,M,-1.2,M,,",70,12.7,-148,-26.22,0,0,20.6,2,11,25.8,"NAN",0.82,0,0,0,100.7,0,0,5.229,1,1.07,1
"2015-09-17 12:45:35",166,13.09,17.21,32.74,0.435,83.6,"$GPRMC,174531,A,7012.6955,N,14826.2179,W,000.0,000.0,170915,020.6,E","$GPGGA,174531,7012.6955,N,14826.2179,W,2,10,0.8,25.3,M,-1.2,M,,",70,12.7,-148,-26.22,0,0,20.6,2,11,25.4,"NAN",0.8,0,0,0,100.7,0,0.001,5.132,1,1.07,1
"2015-09-17 12:45:40",167,13.09,17.21,32.74,0.435,83.8,"$GPRMC,174536,A,7012.6955,N,14826.2167,W,000.0,000.0,170915,020.6,E","$GPGGA,174536,7012.6955,N,14826.2167,W,2,10,0.8,24.6,M,-1.2,M,,",70,12.7,-148,-26.22,0,0,20.6,2,10,24.8,"NAN",0.85,0,0,0,100.7,0,0.001,5.101,1,1.07,1
"2015-09-17 12:45:45",168,13.09,17.19,33.07,0.435,83.7,"$GPRMC,174541,A,7012.6955,N,14826.2151,W,000.0,000.0,170915,020.6,E","$GPGGA,174541,7012.6955,N,14826.2151,W,2,10,0.8,23.9,M,-1.2,M,,",70,12.7,-148,-26.22,0,0,20.6,2,10,24,"NAN",0.84,0,0,0,100.7,0,0.001,5.01,1,1.07,1
"2015-09-17 12:45:50",169,13.09,17.16,33.41,0.436,83.8,"$GPRMC,174546,A,7012.6956,N,14826.2134,W,000.0,000.0,170915,020.6,E","$GPGGA,174546,7012.6956,N,14826.2134,W,2,10,0.8,23.2,M,-1.2,M,,",70,12.7,-148,-26.21,0,0,20.6,2,10,23.4,"NAN",0.84,0,0,0,100.7,0,0.001,4.937,1,1.07,1
"2015-09-17 12:45:55",170,13.09,17.16,33.75,0.334,83.7,"$GPRMC,174551,A,7012.6956,N,14826.2117,W,000.0,000.0,170915,020.6,E","$GPGGA,174551,7012.6956,N,14826.2117,W,2,10,0.8,22.4,M,-1.2,M,,",70,12.7,-148,-26.21,0,0,20.6,2,10,22.6,"NAN",0.84,0,0,0,100.7,0,0.001,4.907,1,1.07,1
"2015-09-17 12:46:00",171,13.09,17.14,34.09,0.334,83.8,"$GPRMC,174556,A,7012.6956,N,14826.2101,W,000.0,000.0,170915,020.6,E","$GPGGA,174556,7012.6956,N,14826.2101,W,2,10,0.8,21.9,M,-1.2,M,,",70,12.7,-148,-26.21,0,0,20.6,2,10,22,"NAN",0.83,0,0,0,100.7,0,0.001,4.87,1,1.07,1
"2015-09-17 12:46:05",172,13.09,17.14,34.09,0.334,83.9,"$GPRMC,174601,A,7012.6955,N,14826.2097,W,000.0,000.0,170915,020.6,E","$GPGGA,174601,7012.6955,N,14826.2097,W,2,10,0.8,21.1,M,-1.2,M,,",70,12.7,-148,-26.21,0,0,20.6,2,10,21.3,"NAN",0.83,0,0,0,100.7,0,0.001,4.827,1,1.07,1.001
"2015-09-17 12:46:10",173,13.09,17.11,34.76,0.368,84,"$GPRMC,174606,A,7012.6955,N,14826.2096,W,000.0,000.0,170915,020.6,E","$GPGGA,174606,7012.6955,N,14826.2096,W,2,11,0.7,20.6,M,-1.2,M,,",70,12.7,-148,-26.21,0,0,20.6,2,11,20.7,"NAN",0.86,0,0,0,100.7,0,0.001,4.727,1,1.07,1
"2015-09-17 12:46:15",174,13.09,17.11,35.1,0.3,84.2,"$GPRMC,174611,A,7012.6957,N,14826.2104,W,000.0,000.0,170915,020.6,E","$GPGGA,174611,7012.6957,N,14826.2104,W,2,11,0.7,20.5,M,-1.2,M,,",70,12.7,-148,-26.21,0,0,20.6,2,11,20.5,"NAN",0.83,0,0,0,100.7,0,0.001,4.678,1,1.07,1
"2015-09-17 12:46:20",175,13.09,17.09,35.44,0.266,84.2,"$GPRMC,174616,A,7012.6958,N,14826.2114,W,000.0,000.0,170915,020.6,E","$GPGGA,174616,7012.6958,N,14826.2114,W,2,10,0.8,20.5,M,-1.2,M,,",70,12.7,-148,-26.21,0,0,20.6,2,10,20.5,"NAN",0.83,0,0,0,100.7,0,0.001,4.635,1,1.07,1
"2015-09-17 12:46:25",176,13.09,17.06,35.77,0.233,84.3,"$GPRMC,174621,A,7012.6960,N,14826.2124,W,000.0,000.0,170915,020.6,E","$GPGGA,174621,7012.6960,N,14826.2124,W,2,10,0.8,20.3,M,-1.2,M,,",70,12.7,-148,-26.21,0,0,20.6,2,10,20.3,"NAN",0.87,0,0,0,100.7,0,0.001,4.574,1,1.07,1
"2015-09-17 12:46:30",177,13.09,17.06,36.45,0.266,84.4,"$GPRMC,174626,A,7012.6959,N,14826.2135,W,000.0,000.0,170915,020.6,E","$GPGGA,174626,7012.6959,N,14826.2135,W,2,11,0.7,20.1,M,-1.2,M,,",70,12.7,-148,-26.21,0,0,20.6,2,11,20.1,"NAN",0.83,0,0,0,100.7,0,0,4.54,1,1.07,1
"2015-09-17 12:46:35",178,13.09,17.04,36.45,0.266,84.4,"$GPRMC,174631,A,7012.6959,N,14826.2135,W,000.0,000.0,170915,020.6,E","$GPGGA,174631,7012.6959,N,14826.2135,W,2,11,0.7,20.1,M,-1.2,M,,",70,12.7,-148,-26.21,0,0,20.6,2,11,20.1,"NAN",0.85,0,0,0,100.7,0,0,4.509,1,1.07,1
"2015-09-17 12:46:40",179,13.09,17.01,36.79,0.233,84.5,"$GPRMC,174636,A,7012.6956,N,14826.2141,W,000.0,000.0,170915,020.6,E","$GPGGA,174636,7012.6956,N,14826.2141,W,2,11,0.7,20.2,M,-1.2,M,,",70,12.7,-148,-26.21,0,0,20.6,2,11,20.2,"NAN",0.83,0,0,0,100.7,0,0,4.417,1,1.07,1
"2015-09-17 12:46:45",180,13.09,17.01,37.12,0.232,84.5,"$GPRMC,174641,A,7012.6955,N,14826.2142,W,000.0,000.0,170915,020.6,E","$GPGGA,174641,7012.6955,N,14826.2142,W,2,11,0.7,20.1,M,-1.2,M,,",70,12.7,-148,-26.21,0,0,20.6,2,11,20.1,"NAN",0.83,0,0,0,100.7,0,0.001,4.426,1,1.07,1
"2015-09-17 12:46:50",181,13.09,16.98,37.46,0.232,84.6,"$GPRMC,174646,A,7012.6956,N,14826.2145,W,000.0,000.0,170915,020.6,E","$GPGGA,174646,7012.6956,N,14826.2145,W,2,10,0.8,20.1,M,-1.2,M,,",70,12.7,-148,-26.21,0,0,20.6,2,11,20.1,"NAN",0.84,0,0,0,100.7,0,0.001,4.334,1,1.07,1
"2015-09-17 12:46:55",182,13.09,16.96,37.46,0.198,84.7,"$GPRMC,174651,A,7012.6957,N,14826.2152,W,000.0,000.0,170915,020.6,E","$GPGGA,174651,7012.6957,N,14826.2152,W,2,11,0.7,20.1,M,-1.2,M,,",70,12.7,-148,-26.22,0,0,20.6,2,10,20.1,"NAN",0.86,0,0,0,100.7,0,0.001,4.267,1,1.07,1
"2015-09-17 12:47:00",183,13.09,16.96,37.8,0.198,84.7,"$GPRMC,174656,A,7012.6958,N,14826.2154,W,000.0,000.0,170915,020.6,E","$GPGGA,174656,7012.6958,N,14826.2154,W,2,10,0.8,19.9,M,-1.2,M,,",70,12.7,-148,-26.22,0,0,20.6,2,10,19.9,"NAN",0.87,0,0,0,100.7,0,0.001,4.236,1,1.07,1
"2015-09-17 12:47:05",184,13.09,16.94,37.8,0.198,84.8,"$GPRMC,174701,A,7012.6957,N,14826.2158,W,000.0,000.0,170915,020.6,E","$GPGGA,174701,7012.6957,N,14826.2158,W,2,11,0.7,19.8,M,-1.2,M,,",70,12.7,-148,-26.22,0,0,20.6,2,10,19.8,"NAN",0.84,0,0,0,100.7,0,0.001,4.168,1,1.07,1
"2015-09-17 12:47:10",185,13.09,16.94,38.14,0.198,84.8,"$GPRMC,174706,A,7012.6956,N,14826.2156,W,000.0,000.0,170915,020.6,E","$GPGGA,174706,7012.6956,N,14826.2156,W,2,10,0.8,19.7,M,-1.2,M,,",70,12.7,-148,-26.22,0,0,20.6,2,10,19.7,"NAN",0.87,0,0,0,100.7,0,0,4.125,1,1.07,0.999
"2015-09-17 12:47:15",186,13.09,16.91,38.47,0.13,84.9,"$GPRMC,174711,A,7012.6956,N,14826.2156,W,000.0,000.0,170915,020.6,E","$GPGGA,174711,7012.6956,N,14826.2156,W,2,10,0.8,19.7,M,-1.2,M,,",70,12.7,-148,-26.22,0,0,20.6,2,10,19.6,"NAN",0.87,0,0,0,100.7,0,0.001,4.088,1,1.07,1
"2015-09-17 12:47:20",187,13.09,16.91,38.81,0.096,84.9,"$GPRMC,174716,A,7012.6954,N,14826.2155,W,000.0,000.0,170915,020.6,E","$GPGGA,174716,7012.6954,N,14826.2155,W,2,10,0.8,19.6,M,-1.2,M,,",70,12.7,-148,-26.22,0,0,20.6,2,11,19.6,"NAN",0.86,0,0,0,100.7,0,0.001,4.051,1,1.07,1
"2015-09-17 12:47:25",188,13.09,16.89,39.15,0.13,85,"$GPRMC,174721,A,7012.6954,N,14826.2155,W,000.0,000.0,170915,020.6,E","$GPGGA,174721,7012.6954,N,14826.2155,W,2,11,0.7,19.6,M,-1.2,M,,",70,12.7,-148,-26.22,0,0,20.6,2,10,19.6,"NAN",0.86,0,0,0,100.7,0,0,3.97,1,1.07,1
"2015-09-17 12:47:30",189,13.09,16.86,39.49,0.13,85.1,"$GPRMC,174726,A,7012.6954,N,14826.2156,W,000.0,000.0,170915,020.6,E","$GPGGA,174726,7012.6954,N,14826.2156,W,2,11,0.7,19.5,M,-1.2,M,,",70,12.7,-148,-26.22,0,0,20.6,2,10,19.6,"NAN",0.88,0,0,0,100.7,0,0,3.927,1,1.07,1
"2015-09-17 12:47:35",190,13.09,16.84,39.82,0.096,85.2,"$GPRMC,174731,A,7012.6954,N,14826.2156,W,000.0,000.0,170915,020.6,E","$GPGGA,174731,7012.6954,N,14826.2156,W,2,11,0.7,19.2,M,-1.2,M,,",70,12.7,-148,-26.22,0,0,20.6,2,11,19.2,"NAN",0.83,0,0,0,100.7,0,0,3.868,1,1.07,1
"2015-09-17 12:47:40",191,13.09,16.84,40.16,0.13,85.2,"$GPRMC,174736,A,7012.6954,N,14826.2157,W,000.0,000.0,170915,020.6,E","$GPGGA,174736,7012.6954,N,14826.2157,W,2,11,0.7,18.9,M,-1.2,M,,",70,12.7,-148,-26.22,0,0,20.6,2,11,18.9,"NAN",0.86,0,0,0,100.7,0,0.001,3.834,1,1.07,1
"2015-09-17 12:47:45",192,13.09,16.81,40.5,0.132,85.3,"$GPRMC,174741,A,7012.6954,N,14826.2156,W,000.0,000.0,170915,020.6,E","$GPGGA,174741,7012.6954,N,14826.2156,W,2,11,0.7,18.6,M,-1.2,M,,",70,12.7,-148,-26.22,0,0,20.6,2,11,18.7,"NAN",0.82,0,0,0,100.7,0,0.001,3.834,1,1.07,1
"2015-09-17 12:47:50",193,13.09,16.81,41.17,0.098,85.3,"$GPRMC,174746,A,7012.6955,N,14826.2154,W,000.0,000.0,170915,020.6,E","$GPGGA,174746,7012.6955,N,14826.2154,W,2,10,0.8,17.8,M,-1.2,M,,",70,12.7,-148,-26.22,0,0,20.6,2,10,18,"NAN",0.88,0,0,0,100.7,0,0.001,3.76,1,1.07,1
"2015-09-17 12:47:55",194,13.09,16.79,41.51,0.098,85.3,"$GPRMC,174751,A,7012.6956,N,14826.2148,W,000.0,000.0,170915,020.6,E","$GPGGA,174751,7012.6956,N,14826.2148,W,2,10,0.8,17.4,M,-1.2,M,,",70,12.7,-148,-26.22,0,0,20.6,2,10,17.4,"NAN",0.83,0,0,0,100.7,0,0.001,3.766,1,1.07,1
"2015-09-17 12:48:00",195,13.09,16.76,41.85,0.098,85.4,"$GPRMC,174756,A,7012.6958,N,14826.2142,W,000.0,000.0,170915,020.6,E","$GPGGA,174756,7012.6958,N,14826.2142,W,2,10,0.8,17.2,M,-1.2,M,,",70,12.7,-148,-26.21,0,0,20.6,2,10,17.2,"NAN",0.84,0,0,0,100.7,0,0.001,3.701,1,1.07,1
"2015-09-17 12:48:05",196,13.09,16.76,42.19,0.098,85.3,"$GPRMC,174801,A,7012.6959,N,14826.2140,W,000.0,000.0,170915,020.6,E","$GPGGA,174801,7012.6959,N,14826.2140,W,2,10,0.8,17.2,M,-1.2,M,,",70,12.7,-148,-26.21,0,0,20.6,2,10,17.2,"NAN",0.85,0,0,0,100.7,0,0.001,3.648,1,1.07,1
"2015-09-17 12:48:10",197,13.09,16.74,42.86,0.098,85.3,"$GPRMC,174806,A,7012.6963,N,14826.2131,W,000.0,000.0,170915,020.6,E","$GPGGA,174806,7012.6963,N,14826.2131,W,2,10,0.8,16.9,M,-1.2,M,,",70,12.7,-148,-26.21,0,0,20.6,2,10,16.9,"NAN",0.84,0,0,0,100.7,0,0.001,3.613,1,1.07,1
"2015-09-17 12:48:15",198,13.09,16.71,43.2,0.098,85.4,"$GPRMC,174811,A,7012.6964,N,14826.2128,W,000.0,000.0,170915,020.6,E","$GPGGA,174811,7012.6964,N,14826.2128,W,2,11,0.7,16.8,M,-1.2,M,,",70,12.7,-148,-26.21,0,0,20.6,2,11,16.8,"NAN",0.84,0,0,0,100.7,0,0.001,3.585,1,1.07,1
"2015-09-17 12:48:20",199,13.09,16.69,43.87,0.064,85.4,"$GPRMC,174816,A,7012.6964,N,14826.2128,W,000.0,000.0,170915,020.6,E","$GPGGA,174816,7012.6964,N,14826.2128,W,2,11,0.7,16.8,M,-1.2,M,,",70,12.7,-148,-26.21,0,0,20.6,2,11,16.8,"NAN",0.87,0,0,0,100.7,0,0.001,3.561,1,1.07,1
"2015-09-17 12:48:25",200,13.09,16.69,44.55,0.098,85.4,"$GPRMC,174821,A,7012.6964,N,14826.2127,W,000.0,000.0,170915,020.6,E","$GPGGA,174821,7012.6964,N,14826.2127,W,2,11,0.7,16.8,M,-1.2,M,,",70,12.7,-148,-26.21,0,0,20.6,2,11,16.8,"NAN",0.84,0,0,0,100.7,0,0.001,3.498,1,1.07,1
"2015-09-17 12:48:30",201,13.09,16.66,45.22,0.098,85.4,"$GPRMC,174826,A,7012.6964,N,14826.2127,W,000.0,000.0,170915,020.6,E","$GPGGA,174826,7012.6964,N,14826.2127,W,2,11,0.7,16.8,M,-1.2,M,,",70,12.7,-148,-26.21,0,0,20.6,2,11,16.8,"NAN",0.8,0,0,0,100.8,0,0.001,3.473,1,1.07,1
"2015-09-17 12:48:35",202,13.09,16.64,45.9,0.064,85.4,"$GPRMC,174831,A,7012.6964,N,14826.2127,W,000.0,000.0,170915,020.6,E","$GPGGA,174831,7012.6964,N,14826.2127,W,2,11,0.7,16.8,M,-1.2,M,,",70,12.7,-148,-26.21,0,0,20.6,2,11,16.8,"NAN",0.84,0,0,0,100.7,0,0,3.414,1,1.07,1
"2015-09-17 12:48:40",203,13.09,16.64,46.57,0.032,85.5,"$GPRMC,174836,A,7012.6964,N,14826.2127,W,000.0,000.0,170915,020.6,E","$GPGGA,174836,7012.6964,N,14826.2127,W,2,11,0.7,16.8,M,-1.2,M,,",70,12.7,-148,-26.21,0,0,20.6,2,11,16.8,"NAN",0.81,0,0,0,100.7,0,0.001,3.386,1,1.07,1
"2015-09-17 12:48:45",204,13.09,16.61,46.91,0.032,85.5,"$GPRMC,174841,A,7012.6964,N,14826.2127,W,000.0,000.0,170915,020.6,E","$GPGGA,174841,7012.6964,N,14826.2127,W,2,11,0.7,16.8,M,-1.2,M,,",70,12.7,-148,-26.21,0,0,20.6,2,11,16.8,"NAN",0.86,0,0,0,100.8,0,0.001,3.373,1,1.07,1
"2015-09-17 12:48:50",205,13.09,16.59,47.59,0.1,85.5,"$GPRMC,174846,A,7012.6964,N,14826.2127,W,000.0,000.0,170915,020.6,E","$GPGGA,174846,7012.6964,N,14826.2127,W,2,11,0.7,16.8,M,-1.2,M,,",70,12.7,-148,-26.21,0,0,20.6,2,11,16.8,"NAN",0.82,0,0,0,100.7,0,0,3.32,1,1.07,1
"2015-09-17 12:48:55",206,13.09,16.59,48.26,0.1,85.5,"$GPRMC,174851,A,7012.6964,N,14826.2128,W,000.0,000.0,170915,020.6,E","$GPGGA,174851,7012.6964,N,14826.2128,W,2,11,0.7,16.8,M,-1.2,M,,",70,12.7,-148,-26.21,0,0,20.6,2,11,16.8,"NAN",0.85,0,0,0,100.7,0,0.001,3.295,1,1.07,1
"2015-09-17 12:49:00",207,13.09,16.56,48.94,0.1,85.7,"$GPRMC,174856,A,7012.6964,N,14826.2128,W,000.0,000.0,170915,020.6,E","$GPGGA,174856,7012.6964,N,14826.2128,W,2,10,0.8,16.8,M,-1.2,M,,",70,12.7,-148,-26.21,0,0,20.6,2,11,16.8,"NAN",0.83,0,0,0,100.8,0,0.001,3.248,1,1.07,1
"2015-09-17 12:49:05",208,13.09,16.54,49.27,0.066,85.6,"$GPRMC,174901,A,7012.6964,N,14826.2128,W,000.0,000.0,170915,020.6,E","$GPGGA,174901,7012.6964,N,14826.2128,W,2,11,0.7,16.7,M,-1.2,M,,",70,12.7,-148,-26.21,0,0,20.6,2,10,16.7,"NAN",0.83,0,0,0,100.7,0,0.001,3.233,1,1.07,1
"2015-09-17 12:49:10",209,13.09,16.51,49.95,0.066,85.8,"$GPRMC,174906,A,7012.6964,N,14826.2129,W,000.0,000.0,170915,020.6,E","$GPGGA,174906,7012.6964,N,14826.2129,W,2,10,0.8,16.7,M,-1.2,M,,",70,12.7,-148,-26.21,0,0,20.6,2,10,16.7,"NAN",0.83,0,0,0,100.7,0,0.001,3.198,1,1.07,1.001
"2015-09-17 12:49:15",210,13.09,16.51,50.62,0.1,85.8,"$GPRMC,174911,A,7012.6964,N,14826.2129,W,000.0,000.0,170915,020.6,E","$GPGGA,174911,7012.6964,N,14826.2129,W,2,10,0.8,16.7,M,-1.2,M,,",70,12.7,-148,-26.21,0,0,20.6,2,10,16.7,"NAN",0.84,0,0,0,100.7,0,0.001,3.157,1,1.07,1
"2015-09-17 12:49:20",211,13.09,16.49,51.3,0.066,85.8,"$GPRMC,174916,A,7012.6964,N,14826.2129,W,000.0,000.0,170915,020.6,E","$GPGGA,174916,7012.6964,N,14826.2129,W,2,10,0.8,16.8,M,-1.2,M,,",70,12.7,-148,-26.21,0,0,20.6,2,10,16.8,"NAN",0.83,0,0,0,100.7,0,0.001,3.135,1,1.07,1
"2015-09-17 12:49:25",212,13.09,16.46,51.97,0.1,85.9,"$GPRMC,174921,A,7012.6964,N,14826.2130,W,000.0,000.0,170915,020.6,E","$GPGGA,174921,7012.6964,N,14826.2130,W,2,10,0.8,16.8,M,-1.2,M,,",70,12.7,-148,-26.21,0,0,20.6,2,10,16.8,"NAN",0.83,0,0,0,100.7,0,0.001,3.104,1,1.07,1
