"TOA5","Shawn","CR800","35658","CR800.Std.28","CPU:Shawn.CR8","8810","run2"
"TIMESTAMP","RECORD","BattV_Min","BattV","AirTC_2","RH_2","Latitude_A","Latitude_B","Longitude_A","Longitude_B","Speed","MagVar","Altitude","Course","FixQual","NumSats","PPS","SecSinceGPRMC","GPSReady","MaxClockChange","NumClockChange","SlrkW","SlrMJ_Tot","PTemp_C","NMEASent(1)","NMEASent(2)"
"TS","RN","Volts","Volts","Deg C","%","degrees","minutes","degrees","minutes","knots","degrees","meters","degrees","code","count","microseconds","seconds","count","milliseconds","count","kW/m^2","MJ/m^2","Deg C","",""
"","","Min","Smp","Smp","Smp","Smp","Smp","Smp","Smp","Smp","Smp","Smp","Smp","Smp","Smp","Smp","Smp","Smp","Smp","Smp","Smp","Tot","Smp","Smp","Smp"
"2015-07-24 08:07:10",0,12.98,12.98,26.31614,70.89552,19,43.7476,-155,-5.4243,0,9.7,49.7,211.2,2,11,"NAN",0.49,0,0,0,0.1174218,0.000587109,26.93,"$GPRMC,180636,A,1943.7476,N,15505.4243,W,000.0,211.2,240715,009.7,E","$GPGGA,180636,1943.7476,N,15505.4243,W,2,11,0.8,49.7,M,2.3,M,,"
"2015-07-24 08:07:15",1,12.98,12.98,26.31614,70.89552,19,43.7476,-155,-5.4243,0,9.7,49.7,211.2,2,11,"NAN",0.48,0,0,0,0.1170844,0.0005854219,26.93,"$GPRMC,180641,A,1943.7476,N,15505.4243,W,000.0,211.2,240715,009.7,E","$GPGGA,180641,1943.7476,N,15505.4243,W,2,11,0.8,49.7,M,2.3,M,,"
"2015-07-24 08:07:20",2,12.98,12.98,26.31614,70.62414,19,43.7477,-155,-5.4243,0,9.7,49.7,211.2,2,11,"NAN",0.49,0,0,0,0.1170844,0.0005854219,26.93,"$GPRMC,180646,A,1943.7477,N,15505.4243,W,000.0,211.2,240715,009.7,E","$GPGGA,180646,1943.7477,N,15505.4243,W,2,11,0.8,49.7,M,2.3,M,,"
"2015-07-24 08:07:25",3,12.98,12.98,26.35006,70.31885,19,43.7477,-155,-5.4243,0,9.7,49.7,211.2,2,11,"NAN",0.48,0,0,0,0.116747,0.0005837348,26.93,"$GPRMC,180651,A,1943.7477,N,15505.4243,W,000.0,211.2,240715,009.7,E","$GPGGA,180651,1943.7477,N,15505.4243,W,2,11,0.8,49.7,M,2.3,M,,"
"2015-07-24 08:07:30",4,12.98,12.98,26.31614,70.18317,19,43.7477,-155,-5.4243,0,9.7,49.7,211.2,2,11,"NAN",0.47,0,0,0,0.116747,0.0005837348,26.93,"$GPRMC,180656,A,1943.7477,N,15505.4243,W,000.0,211.2,240715,009.7,E","$GPGGA,180656,1943.7477,N,15505.4243,W,2,11,0.8,49.7,M,2.3,M,,"
"2015-07-24 08:07:35",5,12.98,12.98,26.28222,69.77611,19,43.7477,-155,-5.4243,0,9.7,49.6,211.2,2,11,"NAN",0.49,0,0,0,0.116747,0.0005837348,26.93,"$GPRMC,180701,A,1943.7477,N,15505.4243,W,000.0,211.2,240715,009.7,E","$GPGGA,180701,1943.7477,N,15505.4243,W,2,11,0.8,49.6,M,2.3,M,,"
"2015-07-24 08:07:40",6,12.98,12.98,26.35006,69.33513,19,43.7477,-155,-5.4243,0,9.7,49.6,211.2,2,11,"NAN",0.5,0,0,0,0.116747,0.0005837348,26.93,"$GPRMC,180706,A,1943.7477,N,15505.4243,W,000.0,211.2,240715,009.7,E","$GPGGA,180706,1943.7477,N,15505.4243,W,2,11,0.8,49.6,M,2.3,M,,"
"2015-07-24 08:07:45",7,12.98,12.98,26.28222,69.23337,19,43.7477,-155,-5.4243,0,9.7,49.6,211.2,2,11,"NAN",0.5,0,0,0,0.1164095,0.0005820477,26.93,"$GPRMC,180711,A,1943.7477,N,15505.4243,W,000.0,211.2,240715,009.7,E","$GPGGA,180711,1943.7477,N,15505.4243,W,2,11,0.8,49.6,M,2.3,M,,"
"2015-07-24 08:07:50",8,12.97,12.97,26.31614,69.30121,19,43.7477,-155,-5.4243,0,9.7,49.6,211.2,2,11,"NAN",0.47,0,0,0,0.1160721,0.0005803606,26.93,"$GPRMC,180716,A,1943.7477,N,15505.4243,W,000.0,211.2,240715,009.7,E","$GPGGA,180716,1943.7477,N,15505.4243,W,2,11,0.8,49.6,M,2.3,M,,"
"2015-07-24 08:07:55",9,12.97,12.97,26.35006,69.30121,19,43.7477,-155,-5.4243,0,9.7,49.6,211.2,2,11,"NAN",0.48,0,0,0,0.1157347,0.0005786736,26.93,"$GPRMC,180721,A,1943.7477,N,15505.4243,W,000.0,211.2,240715,009.7,E","$GPGGA,180721,1943.7477,N,15505.4243,W,2,11,0.8,49.6,M,2.3,M,,"
"2015-07-24 08:08:00",10,12.97,12.97,26.31614,68.89416,19,43.7477,-155,-5.4243,0,9.7,49.6,211.2,2,11,"NAN",0.48,0,0,0,0.1153973,0.0005769865,26.93,"$GPRMC,180726,A,1943.7477,N,15505.4243,W,000.0,211.2,240715,009.7,E","$GPGGA,180726,1943.7477,N,15505.4243,W,2,11,0.8,49.6,M,2.3,M,,"
"2015-07-24 08:08:05",11,12.97,12.97,26.35006,69.02984,19,43.7477,-155,-5.4243,0,9.7,49.6,211.2,2,11,"NAN",0.51,0,0,0,0.1150599,0.0005752993,26.93,"$GPRMC,180731,A,1943.7477,N,15505.4243,W,000.0,211.2,240715,009.7,E","$GPGGA,180731,1943.7477,N,15505.4243,W,2,11,0.8,49.6,M,2.3,M,,"
"2015-07-24 08:08:10",12,12.97,12.97,26.35006,69.30121,19,43.7477,-155,-5.4243,0,9.7,49.6,211.2,2,11,"NAN",0.52,0,0,0,0.1147236,0.0005736181,26.93,"$GPRMC,180736,A,1943.7477,N,15505.4243,W,000.0,211.2,240715,009.7,E","$GPGGA,180736,1943.7477,N,15505.4243,W,2,11,0.8,49.6,M,2.3,M,,"
"2015-07-24 08:08:15",13,12.97,12.97,26.31614,69.70827,19,43.7477,-155,-5.4243,0,9.7,49.6,211.2,2,11,"NAN",0.49,0,0,0,0.1147236,0.0005736181,26.93,"$GPRMC,180741,A,1943.7477,N,15505.4243,W,000.0,211.2,240715,009.7,E","$GPGGA,180741,1943.7477,N,15505.4243,W,2,11,0.8,49.6,M,2.3,M,,"
"2015-07-24 08:08:20",14,12.97,12.97,26.38398,69.70827,19,43.7477,-155,-5.4243,0,9.7,49.6,211.2,2,10,"NAN",0.5,0,0,0,0.1143862,0.000571931,26.93,"$GPRMC,180746,A,1943.7477,N,15505.4243,W,000.0,211.2,240715,009.7,E","$GPGGA,180746,1943.7477,N,15505.4243,W,2,10,0.8,49.6,M,2.3,M,,"
"2015-07-24 08:08:25",15,12.97,12.97,26.35006,69.53866,19,43.7477,-155,-5.4243,0,9.7,49.6,211.2,2,11,"NAN",0.49,0,0,0,0.1140488,0.0005702439,26.93,"$GPRMC,180751,A,1943.7477,N,15505.4243,W,000.0,211.2,240715,009.7,E","$GPGGA,180751,1943.7477,N,15505.4243,W,2,11,0.8,49.6,M,2.3,M,,"
"2015-07-24 08:08:30",16,12.97,12.97,26.35006,69.26729,19,43.7477,-155,-5.4243,0,9.7,49.5,211.2,2,11,"NAN",0.5,0,0,0,0.1140488,0.0005702439,26.93,"$GPRMC,180756,A,1943.7477,N,15505.4243,W,000.0,211.2,240715,009.7,E","$GPGGA,180756,1943.7477,N,15505.4243,W,2,11,0.8,49.5,M,2.3,M,,"
"2015-07-24 08:08:35",17,12.97,12.97,26.35006,69.40298,19,43.7477,-155,-5.4243,0,9.7,49.5,211.2,2,11,"NAN",0.49,0,0,0,0.1140488,0.0005702439,26.93,"$GPRMC,180801,A,1943.7477,N,15505.4243,W,000.0,211.2,240715,009.7,E","$GPGGA,180801,1943.7477,N,15505.4243,W,2,11,0.8,49.5,M,2.3,M,,"
"2015-07-24 08:08:40",18,12.97,12.97,26.38398,69.74219,19,43.7477,-155,-5.4243,0,9.7,49.5,211.2,2,11,"NAN",0.49,0,0,0,0.1137114,0.0005685568,26.93,"$GPRMC,180806,A,1943.7477,N,15505.4243,W,000.0,211.2,240715,009.7,E","$GPGGA,180806,1943.7477,N,15505.4243,W,2,11,0.8,49.5,M,2.3,M,,"
"2015-07-24 08:08:45",19,12.97,12.97,26.35006,70.28493,19,43.7477,-155,-5.4243,0,9.7,49.5,211.2,2,11,"NAN",0.49,0,0,0,0.1140488,0.0005702439,26.93,"$GPRMC,180811,A,1943.7477,N,15505.4243,W,000.0,211.2,240715,009.7,E","$GPGGA,180811,1943.7477,N,15505.4243,W,2,11,0.8,49.5,M,2.3,M,,"
"2015-07-24 08:08:50",20,12.97,12.97,26.4179,70.45454,19,43.7477,-155,-5.4243,0,9.7,49.5,211.2,2,10,"NAN",0.51,0,0,0,0.1137114,0.0005685568,26.93,"$GPRMC,180816,A,1943.7477,N,15505.4243,W,000.0,211.2,240715,009.7,E","$GPGGA,180816,1943.7477,N,15505.4243,W,2,10,0.8,49.5,M,2.3,M,,"
"2015-07-24 08:08:55",21,12.97,12.97,26.4179,70.14925,19,43.7477,-155,-5.4243,0,9.7,49.5,211.2,2,11,"NAN",0.49,0,0,0,0.1133739,0.0005668696,26.93,"$GPRMC,180821,A,1943.7477,N,15505.4243,W,000.0,211.2,240715,009.7,E","$GPGGA,180821,1943.7477,N,15505.4243,W,2,11,0.8,49.5,M,2.3,M,,"
"2015-07-24 08:09:00",22,12.97,12.97,26.4179,70.5563,19,43.7477,-155,-5.4243,0,9.7,49.5,211.2,2,11,"NAN",0.51,0,0,0,0.1133739,0.0005668696,26.93,"$GPRMC,180826,A,1943.7477,N,15505.4243,W,000.0,211.2,240715,009.7,E","$GPGGA,180826,1943.7477,N,15505.4243,W,2,11,0.8,49.5,M,2.3,M,,"
"2015-07-24 08:09:05",23,12.96,12.96,26.4179,71.13296,19,43.7477,-155,-5.4242,0,9.7,49.5,211.2,2,11,"NAN",0.51,0,0,0,0.1130365,0.0005651825,26.93,"$GPRMC,180831,A,1943.7477,N,15505.4242,W,000.0,211.2,240715,009.7,E","$GPGGA,180831,1943.7477,N,15505.4242,W,2,11,0.8,49.5,M,2.3,M,,"
"2015-07-24 08:09:10",24,12.96,12.96,26.38398,71.40434,19,43.7477,-155,-5.4242,0,9.7,49.4,211.2,2,11,"NAN",0.49,0,0,0,0.1127,0.0005635,26.93,"$GPRMC,180836,A,1943.7477,N,15505.4242,W,000.0,211.2,240715,009.7,E","$GPGGA,180836,1943.7477,N,15505.4242,W,2,11,0.8,49.4,M,2.3,M,,"
"2015-07-24 08:09:15",25,12.96,12.96,26.48574,71.74355,19,43.7477,-155,-5.4242,0,9.7,49.4,211.2,2,11,"NAN",0.5,0,0,0,0.1127,0.0005635,26.93,"$GPRMC,180841,A,1943.7477,N,15505.4242,W,000.0,211.2,240715,009.7,E","$GPGGA,180841,1943.7477,N,15505.4242,W,2,11,0.8,49.4,M,2.3,M,,"
"2015-07-24 08:09:20",26,12.97,12.97,26.45182,73.27,19,43.7477,-155,-5.4242,0,9.7,49.4,211.2,2,11,"NAN",0.48,0,0,0,0.1127,0.0005635,26.93,"$GPRMC,180846,A,1943.7477,N,15505.4242,W,000.0,211.2,240715,009.7,E","$GPGGA,180846,1943.7477,N,15505.4242,W,2,11,0.8,49.4,M,2.3,M,,"
"2015-07-24 08:09:25",27,12.96,12.96,26.45182,74.76254,19,43.7472,-155,-5.4238,0,9.7,49,211.2,2,11,"NAN",0.49,0,0,0,0.1127,0.0005635,26.93,"$GPRMC,180851,A,1943.7472,N,15505.4238,W,000.0,211.2,240715,009.7,E","$GPGGA,180851,1943.7472,N,15505.4238,W,2,11,0.8,49.0,M,2.3,M,,"
"2015-07-24 08:09:30",28,12.96,12.96,26.48574,74.99999,19,43.7472,-155,-5.4238,0,9.7,49,211.2,2,10,"NAN",0.5,0,0,0,0.1123626,0.0005618129,26.93,"$GPRMC,180856,A,1943.7472,N,15505.4238,W,000.0,211.2,240715,009.7,E","$GPGGA,180856,1943.7472,N,15505.4238,W,2,10,0.8,49.0,M,2.3,M,,"
"2015-07-24 08:09:35",29,12.96,12.96,26.48574,74.59293,19,43.7472,-155,-5.4238,0,9.7,49,211.2,2,11,"NAN",0.5,0,0,0,0.1123626,0.0005618129,26.93,"$GPRMC,180901,A,1943.7472,N,15505.4238,W,000.0,211.2,240715,009.7,E","$GPGGA,180901,1943.7472,N,15505.4238,W,2,11,0.8,49.0,M,2.3,M,,"
"2015-07-24 08:09:40",30,12.96,12.96,26.45182,74.3894,19,43.7472,-155,-5.4238,0,9.7,49,211.2,2,11,"NAN",0.5,0,0,0,0.1123626,0.0005618129,26.93,"$GPRMC,180906,A,1943.7472,N,15505.4238,W,000.0,211.2,240715,009.7,E","$GPGGA,180906,1943.7472,N,15505.4238,W,2,11,0.8,49.0,M,2.3,M,,"
"2015-07-24 08:09:45",31,12.96,12.96,26.48574,73.43961,19,43.7472,-155,-5.4238,0,9.7,49,211.2,2,11,"NAN",0.49,0,0,0,0.1120252,0.0005601257,26.93,"$GPRMC,180911,A,1943.7472,N,15505.4238,W,000.0,211.2,240715,009.7,E","$GPGGA,180911,1943.7472,N,15505.4238,W,2,11,0.8,49.0,M,2.3,M,,"
"2015-07-24 08:09:50",32,12.96,12.96,26.48574,72.7951,19,43.7472,-155,-5.4238,0,9.7,49,211.2,2,11,"NAN",0.49,0,0,0,0.1116877,0.0005584387,26.93,"$GPRMC,180916,A,1943.7472,N,15505.4238,W,000.0,211.2,240715,009.7,E","$GPGGA,180916,1943.7472,N,15505.4238,W,2,11,0.8,49.0,M,2.3,M,,"
"2015-07-24 08:09:55",33,12.96,12.96,26.4179,72.38805,19,43.7472,-155,-5.4238,0,9.7,49,211.2,2,11,"NAN",0.49,0,0,0,0.1113503,0.0005567515,26.93,"$GPRMC,180921,A,1943.7472,N,15505.4238,W,000.0,211.2,240715,009.7,E","$GPGGA,180921,1943.7472,N,15505.4238,W,2,11,0.8,49.0,M,2.3,M,,"
"2015-07-24 08:10:00",34,12.96,12.96,26.35006,72.55766,19,43.7472,-155,-5.4238,0,9.7,49,211.2,2,11,"NAN",0.49,0,0,0,0.1123626,0.0005618129,26.93,"$GPRMC,180926,A,1943.7472,N,15505.4238,W,000.0,211.2,240715,009.7,E","$GPGGA,180926,1943.7472,N,15505.4238,W,2,11,0.8,49.0,M,2.3,M,,"
"2015-07-24 08:10:05",35,12.96,12.96,26.4179,71.43826,19,43.7472,-155,-5.4238,0,9.7,49,211.2,2,11,"NAN",0.48,0,0,0,0.1116877,0.0005584387,26.93,"$GPRMC,180931,A,1943.7472,N,15505.4238,W,000.0,211.2,240715,009.7,E","$GPGGA,180931,1943.7472,N,15505.4238,W,2,11,0.8,49.0,M,2.3,M,,"
"2015-07-24 08:10:10",36,12.96,12.96,26.4507,70.01237,19,43.7472,-155,-5.4238,0,9.7,49,211.2,2,11,"NAN",0.48,0,0,0,0.111351,0.0005567552,26.93,"$GPRMC,180936,A,1943.7472,N,15505.4238,W,000.0,211.2,240715,009.7,E","$GPGGA,180936,1943.7472,N,15505.4238,W,2,11,0.8,49.0,M,2.3,M,,"
"2015-07-24 08:10:15",37,12.96,12.96,26.41678,68.79123,19,43.7472,-155,-5.4238,0,9.7,49,211.2,2,11,"NAN",0.5,0,0,0,0.1120259,0.0005601294,26.93,"$GPRMC,180941,A,1943.7472,N,15505.4238,W,000.0,211.2,240715,009.7,E","$GPGGA,180941,1943.7472,N,15505.4238,W,2,11,0.8,49.0,M,2.3,M,,"
"2015-07-24 08:10:20",38,12.96,12.96,26.4507,68.92691,19,43.7472,-155,-5.4238,0,9.7,49,211.2,2,11,"NAN",0.48,0,0,0,0.111351,0.0005567552,26.96,"$GPRMC,180946,A,1943.7472,N,15505.4238,W,000.0,211.2,240715,009.7,E","$GPGGA,180946,1943.7472,N,15505.4238,W,2,11,0.8,49.0,M,2.3,M,,"
"2015-07-24 08:10:25",39,12.96,12.96,26.48462,69.09651,19,43.7473,-155,-5.4238,0,9.7,49,211.2,2,11,"NAN",0.49,0,0,0,0.1110136,0.000555068,26.93,"$GPRMC,180951,A,1943.7473,N,15505.4238,W,000.0,211.2,240715,009.7,E","$GPGGA,180951,1943.7473,N,15505.4238,W,2,11,0.7,49.0,M,2.3,M,,"
"2015-07-24 08:10:30",40,12.96,12.96,26.41678,69.46964,19,43.7473,-155,-5.4238,0,9.7,49,211.2,2,11,"NAN",0.48,0,0,0,0.1110136,0.000555068,26.96,"$GPRMC,180956,A,1943.7473,N,15505.4238,W,000.0,211.2,240715,009.7,E","$GPGGA,180956,1943.7473,N,15505.4238,W,2,11,0.7,49.0,M,2.3,M,,"
"2015-07-24 08:10:35",41,12.96,12.96,26.41678,69.60532,19,43.7473,-155,-5.4238,0,9.7,49,211.2,2,11,"NAN",0.48,0,0,0,0.111351,0.0005567552,26.96,"$GPRMC,181001,A,1943.7473,N,15505.4238,W,000.0,211.2,240715,009.7,E","$GPGGA,181001,1943.7473,N,15505.4238,W,2,11,0.7,49.0,M,2.3,M,,"
"2015-07-24 08:10:40",42,12.96,12.96,26.4507,69.09651,19,43.7473,-155,-5.4238,0,9.7,49,211.2,2,11,"NAN",0.48,0,0,0,0.1100013,0.0005500066,26.96,"$GPRMC,181006,A,1943.7473,N,15505.4238,W,000.0,211.2,240715,009.7,E","$GPGGA,181006,1943.7473,N,15505.4238,W,2,11,0.8,49.0,M,2.3,M,,"
"2015-07-24 08:10:45",43,12.95,12.95,26.41678,68.75731,19,43.7472,-155,-5.4238,0,9.7,49,211.2,2,11,"NAN",0.52,0,0,0,0.108989,0.0005449452,26.96,"$GPRMC,181011,A,1943.7472,N,15505.4238,W,000.0,211.2,240715,009.7,E","$GPGGA,181011,1943.7472,N,15505.4238,W,2,11,0.7,49.0,M,2.3,M,,"
"2015-07-24 08:10:50",44,12.95,12.95,26.48462,68.65555,19,43.7472,-155,-5.4238,0,9.7,49,211.2,2,11,"NAN",0.49,0,0,0,0.1056148,0.0005280738,26.96,"$GPRMC,181016,A,1943.7472,N,15505.4238,W,000.0,211.2,240715,009.7,E","$GPGGA,181016,1943.7472,N,15505.4238,W,2,11,0.7,49.0,M,2.3,M,,"
"2015-07-24 08:10:55",45,12.95,12.95,26.48462,68.65555,19,43.7472,-155,-5.4238,0,9.7,49,211.2,2,11,"NAN",0.5,0,0,0,0.1059522,0.000529761,26.96,"$GPRMC,181021,A,1943.7472,N,15505.4238,W,000.0,211.2,240715,009.7,E","$GPGGA,181021,1943.7472,N,15505.4238,W,2,11,0.7,49.0,M,2.3,M,,"
"2015-07-24 08:11:00",46,12.96,12.96,26.41678,68.79123,19,43.7472,-155,-5.4238,0,9.7,49,211.2,2,11,"NAN",0.49,0,0,0,0.1049399,0.0005246995,26.96,"$GPRMC,181026,A,1943.7472,N,15505.4238,W,000.0,211.2,240715,009.7,E","$GPGGA,181026,1943.7472,N,15505.4238,W,2,11,0.7,49.0,M,2.3,M,,"
"2015-07-24 08:11:05",47,12.95,12.95,26.41678,69.06259,19,43.7472,-155,-5.4238,0,9.7,49,211.2,2,11,"NAN",0.48,0,0,0,0.1042651,0.0005213253,26.96,"$GPRMC,181031,A,1943.7472,N,15505.4238,W,000.0,211.2,240715,009.7,E","$GPGGA,181031,1943.7472,N,15505.4238,W,2,11,0.7,49.0,M,2.3,M,,"
"2015-07-24 08:11:10",48,12.95,12.95,26.45093,70.01261,19,43.7472,-155,-5.4238,0,9.7,48.9,211.2,2,11,"NAN",0.49,0,0,0,0.1042656,0.000521328,26.96,"$GPRMC,181036,A,1943.7472,N,15505.4238,W,000.0,211.2,240715,009.7,E","$GPGGA,181036,1943.7472,N,15505.4238,W,2,11,0.7,48.9,M,2.3,M,,"
"2015-07-24 08:11:15",49,12.95,12.95,26.48485,70.35182,19,43.7473,-155,-5.4238,0,9.7,48.6,211.2,2,11,"NAN",0.49,0,0,0,0.1025784,0.0005128922,26.96,"$GPRMC,181041,A,1943.7473,N,15505.4238,W,000.0,211.2,240715,009.7,E","$GPGGA,181041,1943.7473,N,15505.4238,W,2,11,0.7,48.6,M,2.3,M,,"
"2015-07-24 08:11:20",50,12.95,12.95,26.48485,70.62318,19,43.7474,-155,-5.4238,0,9.7,47.7,211.2,2,11,"NAN",0.48,0,0,0,0.1015662,0.0005078308,26.96,"$GPRMC,181046,A,1943.7474,N,15505.4238,W,000.0,211.2,240715,009.7,E","$GPGGA,181046,1943.7474,N,15505.4238,W,2,11,0.7,47.7,M,2.3,M,,"
"2015-07-24 08:11:25",51,12.95,12.95,26.45093,70.75887,19,43.7476,-155,-5.4239,0,9.7,47.1,211.2,2,11,"NAN",0.5,0,0,0,0.1008913,0.0005044565,26.96,"$GPRMC,181051,A,1943.7476,N,15505.4239,W,000.0,211.2,240715,009.7,E","$GPGGA,181051,1943.7476,N,15505.4239,W,2,11,0.7,47.1,M,2.3,M,,"
"2015-07-24 08:11:30",52,12.95,12.95,26.48485,70.72495,19,43.7477,-155,-5.4239,0,9.7,47,211.2,2,11,"NAN",0.49,0,0,0,0.1005539,0.0005027694,26.96,"$GPRMC,181056,A,1943.7477,N,15505.4239,W,000.0,211.2,240715,009.7,E","$GPGGA,181056,1943.7477,N,15505.4239,W,2,11,0.7,47.0,M,2.3,M,,"
"2015-07-24 08:11:35",53,12.95,12.95,26.417,70.58926,19,43.7477,-155,-5.4239,0,9.7,47,211.2,2,11,"NAN",0.48,0,0,0,0.1002164,0.0005010822,26.96,"$GPRMC,181101,A,1943.7477,N,15505.4239,W,000.0,211.2,240715,009.7,E","$GPGGA,181101,1943.7477,N,15505.4239,W,2,11,0.7,47.0,M,2.3,M,,"
"2015-07-24 08:11:40",54,12.95,12.95,26.48485,71.16592,19,43.7477,-155,-5.4239,0,9.7,47,211.2,2,10,"NAN",0.49,0,0,0,0.1005539,0.0005027694,26.96,"$GPRMC,181106,A,1943.7477,N,15505.4239,W,000.0,211.2,240715,009.7,E","$GPGGA,181106,1943.7477,N,15505.4239,W,2,10,0.9,47.0,M,2.3,M,,"
"2015-07-24 08:11:45",55,12.95,12.95,26.45093,71.33553,19,43.7477,-155,-5.4239,0,9.7,47,211.2,2,10,"NAN",0.5,0,0,0,0.09920416,0.0004960208,26.96,"$GPRMC,181111,A,1943.7477,N,15505.4239,W,000.0,211.2,240715,009.7,E","$GPGGA,181111,1943.7477,N,15505.4239,W,2,10,0.9,47.0,M,2.3,M,,"
"2015-07-24 08:11:50",56,12.95,12.95,26.48485,71.23376,19,43.7477,-155,-5.4239,0,9.7,47,211.2,2,10,"NAN",0.5,0,0,0,0.09717958,0.0004858979,26.96,"$GPRMC,181116,A,1943.7477,N,15505.4239,W,000.0,211.2,240715,009.7,E","$GPGGA,181116,1943.7477,N,15505.4239,W,2,10,0.9,47.0,M,2.3,M,,"
"2015-07-24 08:11:55",57,12.95,12.95,26.48485,70.28398,19,43.7477,-155,-5.4239,0,9.7,47,211.2,2,11,"NAN",0.49,0,0,0,0.09515501,0.000475775,26.96,"$GPRMC,181121,A,1943.7477,N,15505.4239,W,000.0,211.2,240715,009.7,E","$GPGGA,181121,1943.7477,N,15505.4239,W,2,11,0.7,47.0,M,2.3,M,,"
"2015-07-24 08:12:00",58,12.95,12.95,26.45093,69.19851,19,43.7477,-155,-5.4239,0,9.7,47,211.2,2,11,"NAN",0.5,0,0,0,0.09346786,0.0004673393,26.96,"$GPRMC,181126,A,1943.7477,N,15505.4239,W,000.0,211.2,240715,009.7,E","$GPGGA,181126,1943.7477,N,15505.4239,W,2,11,0.7,47.0,M,2.3,M,,"
"2015-07-24 08:12:05",59,12.95,12.95,26.45093,68.5201,19,43.7477,-155,-5.4239,0,9.7,47,211.2,2,11,"NAN",0.48,0,0,0,0.092793,0.000463965,26.96,"$GPRMC,181131,A,1943.7477,N,15505.4239,W,000.0,211.2,240715,009.7,E","$GPGGA,181131,1943.7477,N,15505.4239,W,2,11,0.7,47.0,M,2.3,M,,"
"2015-07-24 08:12:10",60,12.95,12.95,26.41718,68.31676,19,43.7477,-155,-5.4239,0,9.7,47,211.2,2,11,"NAN",0.49,0,0,0,0.09211854,0.0004605927,26.96,"$GPRMC,181136,A,1943.7477,N,15505.4239,W,000.0,211.2,240715,009.7,E","$GPGGA,181136,1943.7477,N,15505.4239,W,2,11,0.7,47.0,M,2.3,M,,"
"2015-07-24 08:12:15",61,12.95,12.95,26.48503,68.18108,19,43.7477,-155,-5.4239,0,9.7,47,211.2,2,11,"NAN",0.48,0,0,0,0.0917811,0.0004589055,26.96,"$GPRMC,181141,A,1943.7477,N,15505.4239,W,000.0,211.2,240715,009.7,E","$GPGGA,181141,1943.7477,N,15505.4239,W,2,11,0.7,47.0,M,2.3,M,,"
"2015-07-24 08:12:20",62,12.95,12.95,26.41718,68.11324,19,43.7478,-155,-5.4239,0,9.7,47,211.2,2,11,"NAN",0.48,0,0,0,0.09144367,0.0004572184,26.96,"$GPRMC,181146,A,1943.7478,N,15505.4239,W,000.0,211.2,240715,009.7,E","$GPGGA,181146,1943.7478,N,15505.4239,W,2,11,0.7,47.0,M,2.3,M,,"
"2015-07-24 08:12:25",63,12.95,12.95,26.48503,67.90971,19,43.7478,-155,-5.4239,0,9.7,47,211.2,2,11,"NAN",0.51,0,0,0,0.09076881,0.0004538441,26.96,"$GPRMC,181151,A,1943.7478,N,15505.4239,W,000.0,211.2,240715,009.7,E","$GPGGA,181151,1943.7478,N,15505.4239,W,2,11,0.7,47.0,M,2.3,M,,"
"2015-07-24 08:12:30",64,12.95,12.95,26.41718,67.97755,19,43.7479,-155,-5.424,0,9.7,46.8,211.2,2,10,"NAN",0.5,0,0,0,0.09009396,0.0004504698,26.96,"$GPRMC,181156,A,1943.7479,N,15505.4240,W,000.0,211.2,240715,009.7,E","$GPGGA,181156,1943.7479,N,15505.4240,W,2,10,0.8,46.8,M,2.3,M,,"
"2015-07-24 08:12:35",65,12.95,12.95,26.48503,67.94363,19,43.748,-155,-5.424,0,9.7,46.7,211.2,2,10,"NAN",0.51,0,0,0,0.08975653,0.0004487826,26.96,"$GPRMC,181201,A,1943.7480,N,15505.4240,W,000.0,211.2,240715,009.7,E","$GPGGA,181201,1943.7480,N,15505.4240,W,2,10,0.8,46.7,M,2.3,M,,"
"2015-07-24 08:12:40",66,12.95,12.95,26.48503,68.11324,19,43.7482,-155,-5.424,0,9.7,46.4,211.2,2,9,"NAN",0.52,0,0,0,0.08941909,0.0004470954,27,"$GPRMC,181206,A,1943.7482,N,15505.4240,W,000.0,211.2,240715,009.7,E","$GPGGA,181206,1943.7482,N,15505.4240,W,2,09,0.8,46.4,M,2.3,M,,"
"2015-07-24 08:12:45",67,12.95,12.95,26.4511,68.11324,19,43.7482,-155,-5.424,0,9.7,46.4,211.2,2,9,"NAN",0.5,0,0,0,0.08908166,0.0004454083,27,"$GPRMC,181211,A,1943.7482,N,15505.4240,W,000.0,211.2,240715,009.7,E","$GPGGA,181211,1943.7482,N,15505.4240,W,2,09,0.8,46.4,M,2.3,M,,"
"2015-07-24 08:12:50",68,12.95,12.95,26.4511,68.11324,19,43.7482,-155,-5.424,0,9.7,46.4,211.2,2,9,"NAN",0.52,0,0,0,0.08874423,0.0004437211,27,"$GPRMC,181216,A,1943.7482,N,15505.4240,W,000.0,211.2,240715,009.7,E","$GPGGA,181216,1943.7482,N,15505.4240,W,2,09,0.8,46.4,M,2.3,M,,"
"2015-07-24 08:12:55",69,12.95,12.95,26.41718,68.07932,19,43.7482,-155,-5.4241,0,9.7,46.1,211.2,2,9,"NAN",0.54,0,0,0,0.08806937,0.0004403469,27,"$GPRMC,181221,A,1943.7482,N,15505.4241,W,000.0,211.2,240715,009.7,E","$GPGGA,181221,1943.7482,N,15505.4241,W,2,09,0.9,46.1,M,2.3,M,,"
"2015-07-24 08:13:00",70,12.95,12.95,26.41718,68.41852,19,43.7482,-155,-5.4241,0,9.7,46.1,211.2,2,9,"NAN",0.54,0,0,0,0.08773194,0.0004386597,27,"$GPRMC,181226,A,1943.7482,N,15505.4241,W,000.0,211.2,240715,009.7,E","$GPGGA,181226,1943.7482,N,15505.4241,W,2,09,0.9,46.1,M,2.3,M,,"
"2015-07-24 08:13:05",71,12.95,12.95,26.41718,68.62205,19,43.7482,-155,-5.4241,0,9.7,46.1,211.2,2,8,"NAN",0.53,0,0,0,0.08739451,0.0004369725,27,"$GPRMC,181231,A,1943.7482,N,15505.4241,W,000.0,211.2,240715,009.7,E","$GPGGA,181231,1943.7482,N,15505.4241,W,2,08,0.9,46.1,M,2.3,M,,"
"2015-07-24 08:13:10",72,12.95,12.95,26.48518,68.18122,19,43.7482,-155,-5.4241,0,9.7,46.1,211.2,2,8,"NAN",0.56,0,0,0,0.0863825,0.0004319125,27,"$GPRMC,181236,A,1943.7482,N,15505.4241,W,000.0,211.2,240715,009.7,E","$GPGGA,181236,1943.7482,N,15505.4241,W,2,08,0.9,46.1,M,2.3,M,,"
"2015-07-24 08:13:15",73,12.95,12.95,26.45126,67.94378,19,43.7482,-155,-5.4241,0,9.7,46.1,211.2,2,8,"NAN",0.51,0,0,0,0.08537021,0.000426851,27,"$GPRMC,181241,A,1943.7482,N,15505.4241,W,000.0,211.2,240715,009.7,E","$GPGGA,181241,1943.7482,N,15505.4241,W,2,08,0.9,46.1,M,2.3,M,,"
"2015-07-24 08:13:20",74,12.95,12.95,26.41734,67.9777,19,43.7482,-155,-5.424,0,9.7,45.9,211.2,2,8,"NAN",0.53,0,0,0,0.08435791,0.0004217895,27,"$GPRMC,181246,A,1943.7482,N,15505.4240,W,000.0,211.2,240715,009.7,E","$GPGGA,181246,1943.7482,N,15505.4240,W,2,08,0.9,45.9,M,2.3,M,,"
"2015-07-24 08:13:25",75,12.95,12.95,26.41734,68.11338,19,43.7482,-155,-5.424,0,9.7,45.9,211.2,2,9,"NAN",0.53,0,0,0,0.08334562,0.0004167281,27,"$GPRMC,181251,A,1943.7482,N,15505.4240,W,000.0,211.2,240715,009.7,E","$GPGGA,181251,1943.7482,N,15505.4240,W,2,09,0.8,45.9,M,2.3,M,,"
"2015-07-24 08:13:30",76,12.95,12.95,26.45126,68.41867,19,43.7482,-155,-5.4239,0,9.7,45.7,211.2,2,9,"NAN",0.49,0,0,0,0.08267076,0.0004133538,27,"$GPRMC,181256,A,1943.7482,N,15505.4239,W,000.0,211.2,240715,009.7,E","$GPGGA,181256,1943.7482,N,15505.4239,W,2,09,0.8,45.7,M,2.3,M,,"
"2015-07-24 08:13:35",77,12.95,12.95,26.45126,68.7918,19,43.7482,-155,-5.4238,0,9.7,46,211.2,2,9,"NAN",0.56,0,0,0,0.08165846,0.0004082923,27,"$GPRMC,181301,A,1943.7482,N,15505.4238,W,000.0,211.2,240715,009.7,E","$GPGGA,181301,1943.7482,N,15505.4238,W,2,09,0.8,46.0,M,2.3,M,,"
"2015-07-24 08:13:40",78,12.95,12.95,26.48518,68.96141,19,43.7482,-155,-5.4238,0,9.7,46,211.2,2,9,"NAN",0.51,0,0,0,0.0809836,0.000404918,27,"$GPRMC,181306,A,1943.7482,N,15505.4238,W,000.0,211.2,240715,009.7,E","$GPGGA,181306,1943.7482,N,15505.4238,W,2,09,0.8,46.0,M,2.3,M,,"
"2015-07-24 08:13:45",79,12.95,12.95,26.41734,69.19885,19,43.7482,-155,-5.4238,0,9.7,46,211.2,2,9,"NAN",0.54,0,0,0,0.08030873,0.0004015437,27,"$GPRMC,181311,A,1943.7482,N,15505.4238,W,000.0,211.2,240715,009.7,E","$GPGGA,181311,1943.7482,N,15505.4238,W,2,09,0.8,46.0,M,2.3,M,,"
"2015-07-24 08:13:50",80,12.95,12.95,26.45126,69.97903,19,43.7482,-155,-5.4238,0,9.7,46,211.2,2,9,"NAN",0.52,0,0,0,0.07963387,0.0003981693,27,"$GPRMC,181316,A,1943.7482,N,15505.4238,W,000.0,211.2,240715,009.7,E","$GPGGA,181316,1943.7482,N,15505.4238,W,2,09,0.8,46.0,M,2.3,M,,"
"2015-07-24 08:13:55",81,12.95,12.95,26.5191,70.2504,19,43.7482,-155,-5.4238,0,9.7,46,211.2,2,9,"NAN",0.5,0,0,0,0.078959,0.000394795,27,"$GPRMC,181321,A,1943.7482,N,15505.4238,W,000.0,211.2,240715,009.7,E","$GPGGA,181321,1943.7482,N,15505.4238,W,2,09,0.8,46.0,M,2.3,M,,"
"2015-07-24 08:14:00",82,12.95,12.95,26.48518,70.14864,19,43.7482,-155,-5.4238,0,9.7,46,211.2,2,9,"NAN",0.5,0,0,0,0.07828414,0.0003914207,27,"$GPRMC,181326,A,1943.7482,N,15505.4238,W,000.0,211.2,240715,009.7,E","$GPGGA,181326,1943.7482,N,15505.4238,W,2,09,0.8,46.0,M,2.3,M,,"
"2015-07-24 08:14:05",83,12.95,12.95,26.48518,70.04688,19,43.7482,-155,-5.4238,0,9.7,46,211.2,2,9,"NAN",0.55,0,0,0,0.07794671,0.0003897336,27,"$GPRMC,181331,A,1943.7482,N,15505.4238,W,000.0,211.2,240715,009.7,E","$GPGGA,181331,1943.7482,N,15505.4238,W,2,09,0.8,46.0,M,2.3,M,,"
"2015-07-24 08:14:10",84,12.95,12.95,26.48529,70.21661,19,43.7482,-155,-5.4238,0,9.7,46,211.2,2,9,"NAN",0.5,0,0,0,0.07727205,0.0003863602,27,"$GPRMC,181336,A,1943.7482,N,15505.4238,W,000.0,211.2,240715,009.7,E","$GPGGA,181336,1943.7482,N,15505.4238,W,2,09,0.8,46.0,M,2.3,M,,"
"2015-07-24 08:14:15",85,12.95,12.95,26.48529,70.14877,19,43.7481,-155,-5.4238,0,9.7,46.5,211.2,2,10,"NAN",0.5,0,0,0,0.07693462,0.0003846731,27,"$GPRMC,181341,A,1943.7481,N,15505.4238,W,000.0,211.2,240715,009.7,E","$GPGGA,181341,1943.7481,N,15505.4238,W,2,10,0.8,46.5,M,2.3,M,,"
"2015-07-24 08:14:20",86,12.95,12.95,26.41745,70.08092,19,43.748,-155,-5.4238,0,9.7,47.2,211.2,2,10,"NAN",0.48,0,0,0,0.07625975,0.0003812988,27,"$GPRMC,181346,A,1943.7480,N,15505.4238,W,000.0,211.2,240715,009.7,E","$GPGGA,181346,1943.7480,N,15505.4238,W,2,10,0.8,47.2,M,2.3,M,,"
"2015-07-24 08:14:25",87,12.95,12.95,26.48529,69.8774,19,43.7482,-155,-5.4238,0,9.7,47.5,211.2,2,10,"NAN",0.5,0,0,0,0.07592232,0.0003796116,27,"$GPRMC,181351,A,1943.7482,N,15505.4238,W,000.0,211.2,240715,009.7,E","$GPGGA,181351,1943.7482,N,15505.4238,W,2,10,0.8,47.5,M,2.3,M,,"
"2015-07-24 08:14:30",88,12.95,12.95,26.45137,69.77563,19,43.7483,-155,-5.4239,0,9.7,47.5,211.2,2,10,"NAN",0.49,0,0,0,0.07524746,0.0003762373,27.03,"$GPRMC,181356,A,1943.7483,N,15505.4239,W,000.0,211.2,240715,009.7,E","$GPGGA,181356,1943.7483,N,15505.4239,W,2,10,0.8,47.5,M,2.3,M,,"
"2015-07-24 08:14:35",89,12.95,12.95,26.48529,69.97916,19,43.7485,-155,-5.424,0,9.7,47.4,211.2,2,10,"NAN",0.51,0,0,0,0.07491002,0.0003745501,27,"$GPRMC,181401,A,1943.7485,N,15505.4240,W,000.0,211.2,240715,009.7,E","$GPGGA,181401,1943.7485,N,15505.4240,W,2,10,0.8,47.4,M,2.3,M,,"
"2015-07-24 08:14:40",90,12.95,12.95,26.41745,70.01308,19,43.7488,-155,-5.4239,0,9.7,47.7,211.2,2,10,"NAN",0.5,0,0,0,0.07457259,0.0003728629,27.03,"$GPRMC,181406,A,1943.7488,N,15505.4239,W,000.0,211.2,240715,009.7,E","$GPGGA,181406,1943.7488,N,15505.4239,W,2,10,0.8,47.7,M,2.3,M,,"
"2015-07-24 08:14:45",91,12.95,12.95,26.48529,69.94524,19,43.7488,-155,-5.4239,0,9.7,47.7,211.2,2,10,"NAN",0.5,0,0,0,0.07423516,0.0003711758,27.03,"$GPRMC,181411,A,1943.7488,N,15505.4239,W,000.0,211.2,240715,009.7,E","$GPGGA,181411,1943.7488,N,15505.4239,W,2,10,0.8,47.7,M,2.3,M,,"
"2015-07-24 08:14:50",92,12.95,12.95,26.41745,69.97916,19,43.7488,-155,-5.4239,0,9.7,47.7,211.2,2,10,"NAN",0.51,0,0,0,0.07356029,0.0003678015,27.03,"$GPRMC,181416,A,1943.7488,N,15505.4239,W,000.0,211.2,240715,009.7,E","$GPGGA,181416,1943.7488,N,15505.4239,W,2,10,0.8,47.7,M,2.3,M,,"
"2015-07-24 08:14:55",93,12.95,12.95,26.41745,70.01308,19,43.7488,-155,-5.4239,0,9.7,47.7,211.2,2,10,"NAN",0.5,0,0,0,0.07322286,0.0003661143,27.03,"$GPRMC,181421,A,1943.7488,N,15505.4239,W,000.0,211.2,240715,009.7,E","$GPGGA,181421,1943.7488,N,15505.4239,W,2,10,0.8,47.7,M,2.3,M,,"
"2015-07-24 08:15:00",94,12.95,12.95,26.41745,70.11485,19,43.7488,-155,-5.4239,0,9.7,47.7,211.2,2,10,"NAN",0.49,0,0,0,0.07288543,0.0003644272,27.03,"$GPRMC,181426,A,1943.7488,N,15505.4239,W,000.0,211.2,240715,009.7,E","$GPGGA,181426,1943.7488,N,15505.4239,W,2,10,0.8,47.7,M,2.3,M,,"
"2015-07-24 08:15:05",95,12.95,12.95,26.48529,70.5219,19,43.7488,-155,-5.4239,0,9.7,47.7,211.2,2,10,"NAN",0.5,0,0,0,0.07288543,0.0003644272,27.03,"$GPRMC,181431,A,1943.7488,N,15505.4239,W,000.0,211.2,240715,009.7,E","$GPGGA,181431,1943.7488,N,15505.4239,W,2,10,0.8,47.7,M,2.3,M,,"
"2015-07-24 08:15:10",96,12.95,12.95,26.45146,70.99689,19,43.7488,-155,-5.4239,0,9.7,47.7,211.2,2,10,"NAN",0.5,0,0,0,0.07288313,0.0003644156,27.03,"$GPRMC,181436,A,1943.7488,N,15505.4239,W,000.0,211.2,240715,009.7,E","$GPGGA,181436,1943.7488,N,15505.4239,W,2,10,0.8,47.7,M,2.3,M,,"
"2015-07-24 08:15:15",97,12.95,12.95,26.48538,71.6414,19,43.7488,-155,-5.4239,0,9.7,47.7,211.2,2,10,"NAN",0.51,0,0,0,0.07254571,0.0003627285,27.03,"$GPRMC,181441,A,1943.7488,N,15505.4239,W,000.0,211.2,240715,009.7,E","$GPGGA,181441,1943.7488,N,15505.4239,W,2,10,0.8,47.7,M,2.3,M,,"
"2015-07-24 08:15:20",98,12.95,12.95,26.48538,72.25198,19,43.7488,-155,-5.4239,0,9.7,47.7,211.2,2,10,"NAN",0.54,0,0,0,0.07288313,0.0003644156,27.03,"$GPRMC,181446,A,1943.7488,N,15505.4239,W,000.0,211.2,240715,009.7,E","$GPGGA,181446,1943.7488,N,15505.4239,W,2,10,0.8,47.7,M,2.3,M,,"
"2015-07-24 08:15:25",99,12.95,12.95,26.48538,73.16785,19,43.7488,-155,-5.4239,0,9.7,47.6,211.2,2,10,"NAN",0.5,0,0,0,0.07288313,0.0003644156,27.03,"$GPRMC,181451,A,1943.7488,N,15505.4239,W,000.0,211.2,240715,009.7,E","$GPGGA,181451,1943.7488,N,15505.4239,W,2,10,0.8,47.6,M,2.3,M,,"
"2015-07-24 08:15:30",100,12.95,12.95,26.48538,73.74451,19,43.7488,-155,-5.4239,0,9.7,47.6,211.2,2,10,"NAN",0.5,0,0,0,0.07288313,0.0003644156,27.03,"$GPRMC,181456,A,1943.7488,N,15505.4239,W,000.0,211.2,240715,009.7,E","$GPGGA,181456,1943.7488,N,15505.4239,W,2,10,0.8,47.6,M,2.3,M,,"
"2015-07-24 08:15:35",101,12.95,12.95,26.51931,74.11764,19,43.7488,-155,-5.4239,0,9.7,47.6,211.2,2,10,"NAN",0.49,0,0,0,0.07288313,0.0003644156,27.03,"$GPRMC,181501,A,1943.7488,N,15505.4239,W,000.0,211.2,240715,009.7,E","$GPGGA,181501,1943.7488,N,15505.4239,W,2,10,0.8,47.6,M,2.3,M,,"
"2015-07-24 08:15:40",102,12.95,12.95,26.48538,74.49077,19,43.7488,-155,-5.4239,0,9.7,47.6,211.2,2,10,"NAN",0.49,0,0,0,0.07254571,0.0003627285,27.03,"$GPRMC,181506,A,1943.7488,N,15505.4239,W,000.0,211.2,240715,009.7,E","$GPGGA,181506,1943.7488,N,15505.4239,W,2,10,0.8,47.6,M,2.3,M,,"
"2015-07-24 08:15:45",103,12.95,12.95,26.48538,75.13527,19,43.7488,-155,-5.4239,0,9.7,47.6,211.2,2,10,"NAN",0.51,0,0,0,0.07254571,0.0003627285,27.03,"$GPRMC,181511,A,1943.7488,N,15505.4239,W,000.0,211.2,240715,009.7,E","$GPGGA,181511,1943.7488,N,15505.4239,W,2,10,0.8,47.6,M,2.3,M,,"
"2015-07-24 08:15:50",104,12.95,12.95,26.51931,75.40664,19,43.7488,-155,-5.4239,0,9.7,47.6,211.2,2,10,"NAN",0.51,0,0,0,0.07288313,0.0003644156,27.03,"$GPRMC,181516,A,1943.7488,N,15505.4239,W,000.0,211.2,240715,009.7,E","$GPGGA,181516,1943.7488,N,15505.4239,W,2,10,0.8,47.6,M,2.3,M,,"
"2015-07-24 08:15:55",105,12.95,12.95,26.48538,75.30488,19,43.7488,-155,-5.4239,0,9.7,47.6,211.2,2,10,"NAN",0.5,0,0,0,0.07355797,0.0003677898,27.03,"$GPRMC,181521,A,1943.7488,N,15505.4239,W,000.0,211.2,240715,009.7,E","$GPGGA,181521,1943.7488,N,15505.4239,W,2,10,0.8,47.6,M,2.3,M,,"
"2015-07-24 08:16:00",106,12.95,12.95,26.48538,75.37272,19,43.7488,-155,-5.4239,0,9.7,47.6,211.2,2,10,"NAN",0.49,0,0,0,0.07355797,0.0003677898,27.03,"$GPRMC,181526,A,1943.7488,N,15505.4239,W,000.0,211.2,240715,009.7,E","$GPGGA,181526,1943.7488,N,15505.4239,W,2,10,0.8,47.6,M,2.3,M,,"
"2015-07-24 08:16:05",107,12.95,12.95,26.48538,75.37272,19,43.7488,-155,-5.4239,0,9.7,47.6,211.2,2,10,"NAN",0.5,0,0,0,0.07322054,0.0003661027,27.06,"$GPRMC,181531,A,1943.7488,N,15505.4239,W,000.0,211.2,240715,009.7,E","$GPGGA,181531,1943.7488,N,15505.4239,W,2,10,0.8,47.6,M,2.3,M,,"
"2015-07-24 08:16:10",108,12.95,12.95,26.45154,74.62653,19,43.7488,-155,-5.4239,0,9.7,47.6,211.2,2,10,"NAN",0.51,0,0,0,0.07186905,0.0003593452,27.03,"$GPRMC,181536,A,1943.7488,N,15505.4239,W,000.0,211.2,240715,009.7,E","$GPGGA,181536,1943.7488,N,15505.4239,W,2,10,0.8,47.6,M,2.3,M,,"
"2015-07-24 08:16:15",109,12.95,12.95,26.48546,73.91419,19,43.7488,-155,-5.4239,0,9.7,47.6,211.2,2,11,"NAN",0.5,0,0,0,0.0708568,0.000354284,27.06,"$GPRMC,181541,A,1943.7488,N,15505.4239,W,000.0,211.2,240715,009.7,E","$GPGGA,181541,1943.7488,N,15505.4239,W,2,11,0.7,47.6,M,2.3,M,,"
"2015-07-24 08:16:20",110,12.95,12.95,26.45154,73.57498,19,43.7488,-155,-5.4239,0,9.7,47.6,211.2,2,11,"NAN",0.48,0,0,0,0.07018198,0.0003509099,27.06,"$GPRMC,181546,A,1943.7488,N,15505.4239,W,000.0,211.2,240715,009.7,E","$GPGGA,181546,1943.7488,N,15505.4239,W,2,11,0.7,47.6,M,2.3,M,,"
"2015-07-24 08:16:25",111,12.95,12.95,26.48546,73.33753,19,43.7488,-155,-5.4239,0,9.7,47.6,211.2,2,11,"NAN",0.49,0,0,0,0.06950715,0.0003475357,27.06,"$GPRMC,181551,A,1943.7488,N,15505.4239,W,000.0,211.2,240715,009.7,E","$GPGGA,181551,1943.7488,N,15505.4239,W,2,11,0.7,47.6,M,2.3,M,,"
"2015-07-24 08:16:30",112,12.95,12.95,26.5533,73.57498,19,43.7489,-155,-5.424,0,9.7,47.6,211.2,2,11,"NAN",0.47,0,0,0,0.06916974,0.0003458487,27.06,"$GPRMC,181556,A,1943.7489,N,15505.4240,W,000.0,211.2,240715,009.7,E","$GPGGA,181556,1943.7489,N,15505.4240,W,2,11,0.7,47.6,M,2.3,M,,"
"2015-07-24 08:16:35",113,12.95,12.95,26.48546,74.38908,19,43.7491,-155,-5.4243,0,9.7,47.7,211.2,2,11,"NAN",0.49,0,0,0,0.06883232,0.0003441616,27.06,"$GPRMC,181601,A,1943.7491,N,15505.4243,W,000.0,211.2,240715,009.7,E","$GPGGA,181601,1943.7491,N,15505.4243,W,2,11,0.7,47.7,M,2.3,M,,"
"2015-07-24 08:16:40",114,12.95,12.95,26.48546,74.69437,19,43.7491,-155,-5.4244,0,9.7,47.7,211.2,2,11,"NAN",0.48,0,0,0,0.06883232,0.0003441616,27.06,"$GPRMC,181606,A,1943.7491,N,15505.4244,W,000.0,211.2,240715,009.7,E","$GPGGA,181606,1943.7491,N,15505.4244,W,2,11,0.7,47.7,M,2.3,M,,"
"2015-07-24 08:16:45",115,12.95,12.95,26.48546,73.98203,19,43.7491,-155,-5.4244,0,9.7,47.8,211.2,2,11,"NAN",0.48,0,0,0,0.06849491,0.0003424746,27.06,"$GPRMC,181611,A,1943.7491,N,15505.4244,W,000.0,211.2,240715,009.7,E","$GPGGA,181611,1943.7491,N,15505.4244,W,2,11,0.7,47.8,M,2.3,M,,"
"2015-07-24 08:16:50",116,12.95,12.95,26.48546,72.9644,19,43.7496,-155,-5.4246,0,9.7,47.8,211.2,2,11,"NAN",0.48,0,0,0,0.06849491,0.0003424746,27.06,"$GPRMC,181616,A,1943.7496,N,15505.4246,W,000.0,211.2,240715,009.7,E","$GPGGA,181616,1943.7496,N,15505.4246,W,2,11,0.7,47.8,M,2.3,M,,"
"2015-07-24 08:16:55",117,12.95,12.95,26.48546,72.69303,19,43.7496,-155,-5.4246,0,9.7,47.8,211.2,2,11,"NAN",0.49,0,0,0,0.06849491,0.0003424746,27.06,"$GPRMC,181621,A,1943.7496,N,15505.4246,W,000.0,211.2,240715,009.7,E","$GPGGA,181621,1943.7496,N,15505.4246,W,2,11,0.7,47.8,M,2.3,M,,"
"2015-07-24 08:17:00",118,12.95,12.95,26.51938,72.3199,19,43.7496,-155,-5.4246,0,9.7,47.8,211.2,2,11,"NAN",0.49,0,0,0,0.0681575,0.0003407875,27.06,"$GPRMC,181626,A,1943.7496,N,15505.4246,W,000.0,211.2,240715,009.7,E","$GPGGA,181626,1943.7496,N,15505.4246,W,2,11,0.7,47.8,M,2.3,M,,"
"2015-07-24 08:17:05",119,12.95,12.95,26.48546,71.77716,19,43.7496,-155,-5.4246,0,9.7,47.8,211.2,2,11,"NAN",0.48,0,0,0,0.0681575,0.0003407875,27.06,"$GPRMC,181631,A,1943.7496,N,15505.4246,W,000.0,211.2,240715,009.7,E","$GPGGA,181631,1943.7496,N,15505.4246,W,2,11,0.7,47.8,M,2.3,M,,"
"2015-07-24 08:17:10",120,12.95,12.95,26.51831,71.02975,19,43.7496,-155,-5.4246,0,9.7,47.8,211.2,2,11,"NAN",0.48,0,0,0,0.06781872,0.0003390936,27.06,"$GPRMC,181636,A,1943.7496,N,15505.4246,W,000.0,211.2,240715,009.7,E","$GPGGA,181636,1943.7496,N,15505.4246,W,2,11,0.7,47.8,M,2.3,M,,"
"2015-07-24 08:17:15",121,12.95,12.95,26.48439,70.86015,19,43.7496,-155,-5.4246,0,9.7,47.8,211.2,2,11,"NAN",0.48,0,0,0,0.06815612,0.0003407806,27.06,"$GPRMC,181641,A,1943.7496,N,15505.4246,W,000.0,211.2,240715,009.7,E","$GPGGA,181641,1943.7496,N,15505.4246,W,2,11,0.7,47.8,M,2.3,M,,"
"2015-07-24 08:17:20",122,12.95,12.95,26.55223,70.92799,19,43.7496,-155,-5.4246,0,9.7,47.8,211.2,2,11,"NAN",0.49,0,0,0,0.06815612,0.0003407806,27.06,"$GPRMC,181646,A,1943.7496,N,15505.4246,W,000.0,211.2,240715,009.7,E","$GPGGA,181646,1943.7496,N,15505.4246,W,2,11,0.7,47.8,M,2.3,M,,"
"2015-07-24 08:17:25",123,12.95,12.95,26.48439,71.02975,19,43.7496,-155,-5.4246,0,9.7,47.8,211.2,2,11,"NAN",0.49,0,0,0,0.06815612,0.0003407806,27.06,"$GPRMC,181651,A,1943.7496,N,15505.4246,W,000.0,211.2,240715,009.7,E","$GPGGA,181651,1943.7496,N,15505.4246,W,2,11,0.7,47.8,M,2.3,M,,"
"2015-07-24 08:17:30",124,12.95,12.95,26.51831,71.2672,19,43.7496,-155,-5.4246,0,9.7,47.8,211.2,2,11,"NAN",0.52,0,0,0,0.06815612,0.0003407806,27.06,"$GPRMC,181656,A,1943.7496,N,15505.4246,W,000.0,211.2,240715,009.7,E","$GPGGA,181656,1943.7496,N,15505.4246,W,2,11,0.7,47.8,M,2.3,M,,"
"2015-07-24 08:17:35",125,12.95,12.95,26.51831,71.60641,19,43.7496,-155,-5.4246,0,9.7,47.8,211.2,2,11,"NAN",0.52,0,0,0,0.06815612,0.0003407806,27.06,"$GPRMC,181701,A,1943.7496,N,15505.4246,W,000.0,211.2,240715,009.7,E","$GPGGA,181701,1943.7496,N,15505.4246,W,2,11,0.7,47.8,M,2.3,M,,"
"2015-07-24 08:17:40",126,12.95,12.95,26.51831,71.74209,19,43.7496,-155,-5.4246,0,9.7,47.8,211.2,2,11,"NAN",0.52,0,0,0,0.06849353,0.0003424676,27.06,"$GPRMC,181706,A,1943.7496,N,15505.4246,W,000.0,211.2,240715,009.7,E","$GPGGA,181706,1943.7496,N,15505.4246,W,2,11,0.7,47.8,M,2.3,M,,"
"2015-07-24 08:17:45",127,12.95,12.95,26.55223,71.80993,19,43.7496,-155,-5.4246,0,9.7,47.8,211.2,2,11,"NAN",0.51,0,0,0,0.06883093,0.0003441547,27.06,"$GPRMC,181711,A,1943.7496,N,15505.4246,W,000.0,211.2,240715,009.7,E","$GPGGA,181711,1943.7496,N,15505.4246,W,2,11,0.7,47.8,M,2.3,M,,"
"2015-07-24 08:17:50",128,12.95,12.95,26.55223,71.84385,19,43.7496,-155,-5.4246,0,9.7,47.8,211.2,2,11,"NAN",0.5,0,0,0,0.06916834,0.0003458417,27.06,"$GPRMC,181716,A,1943.7496,N,15505.4246,W,000.0,211.2,240715,009.7,E","$GPGGA,181716,1943.7496,N,15505.4246,W,2,11,0.7,47.8,M,2.3,M,,"
"2015-07-24 08:17:55",129,12.95,12.95,26.55223,72.21697,19,43.7496,-155,-5.4246,0,9.7,47.8,211.2,2,11,"NAN",0.49,0,0,0,0.06950574,0.0003475287,27.06,"$GPRMC,181721,A,1943.7496,N,15505.4246,W,000.0,211.2,240715,009.7,E","$GPGGA,181721,1943.7496,N,15505.4246,W,2,11,0.7,47.8,M,2.3,M,,"
"2015-07-24 08:18:00",130,12.95,12.95,26.51831,72.45442,19,43.7496,-155,-5.4246,0,9.7,47.8,211.2,2,11,"NAN",0.49,0,0,0,0.06984315,0.0003492158,27.09,"$GPRMC,181726,A,1943.7496,N,15505.4246,W,000.0,211.2,240715,009.7,E","$GPGGA,181726,1943.7496,N,15505.4246,W,2,11,0.7,47.8,M,2.3,M,,"
"2015-07-24 08:18:05",131,12.95,12.95,26.51831,72.18305,19,43.7496,-155,-5.4246,0,9.7,47.8,211.2,2,11,"NAN",0.49,0,0,0,0.07085537,0.0003542769,27.09,"$GPRMC,181731,A,1943.7496,N,15505.4246,W,000.0,211.2,240715,009.7,E","$GPGGA,181731,1943.7496,N,15505.4246,W,2,11,0.7,47.8,M,2.3,M,,"
"2015-07-24 08:18:10",132,12.95,12.95,26.58643,71.87806,19,43.7496,-155,-5.4246,0,9.7,47.8,211.2,2,11,"NAN",0.49,0,0,0,0.07186885,0.0003593443,27.09,"$GPRMC,181736,A,1943.7496,N,15505.4246,W,000.0,211.2,240715,009.7,E","$GPGGA,181736,1943.7496,N,15505.4246,W,2,11,0.7,47.8,M,2.3,M,,"
"2015-07-24 08:18:15",133,12.95,12.95,26.55251,72.01375,19,43.7496,-155,-5.4246,0,9.7,47.8,211.2,2,11,"NAN",0.49,0,0,0,0.07321851,0.0003660925,27.09,"$GPRMC,181741,A,1943.7496,N,15505.4246,W,000.0,211.2,240715,009.7,E","$GPGGA,181741,1943.7496,N,15505.4246,W,2,11,0.7,47.8,M,2.3,M,,"
"2015-07-24 08:18:20",134,12.95,12.95,26.55251,71.6067,19,43.7495,-155,-5.4246,0,9.7,47.8,211.2,2,11,"NAN",0.48,0,0,0,0.07558039,0.0003779019,27.09,"$GPRMC,181746,A,1943.7495,N,15505.4246,W,000.0,211.2,240715,009.7,E","$GPGGA,181746,1943.7495,N,15505.4246,W,2,11,0.7,47.8,M,2.3,M,,"
"2015-07-24 08:18:25",135,12.95,12.95,26.51859,70.9622,19,43.7495,-155,-5.4246,0,9.7,47.8,211.2,2,11,"NAN",0.5,0,0,0,0.07794228,0.0003897114,27.09,"$GPRMC,181751,A,1943.7495,N,15505.4246,W,000.0,211.2,240715,009.7,E","$GPGGA,181751,1943.7495,N,15505.4246,W,2,11,0.7,47.8,M,2.3,M,,"
"2015-07-24 08:18:30",136,12.95,12.95,26.51859,70.21594,19,43.7495,-155,-5.4246,0,9.7,47.8,211.2,2,11,"NAN",0.5,0,0,0,0.08030416,0.0004015208,27.09,"$GPRMC,181756,A,1943.7495,N,15505.4246,W,000.0,211.2,240715,009.7,E","$GPGGA,181756,1943.7495,N,15505.4246,W,2,11,0.7,47.8,M,2.3,M,,"
"2015-07-24 08:18:35",137,12.95,12.95,26.55251,69.60537,19,43.7495,-155,-5.4246,0,9.7,47.8,211.2,2,11,"NAN",0.49,0,0,0,0.08334088,0.0004167044,27.09,"$GPRMC,181801,A,1943.7495,N,15505.4246,W,000.0,211.2,240715,009.7,E","$GPGGA,181801,1943.7495,N,15505.4246,W,2,11,0.7,47.8,M,2.3,M,,"
"2015-07-24 08:18:40",138,12.95,12.95,26.55251,69.50361,19,43.7495,-155,-5.4246,0,9.7,47.8,211.2,2,11,"NAN",0.49,0,0,0,0.08435311,0.0004217656,27.09,"$GPRMC,181806,A,1943.7495,N,15505.4246,W,000.0,211.2,240715,009.7,E","$GPGGA,181806,1943.7495,N,15505.4246,W,2,11,0.7,47.8,M,2.3,M,,"
"2015-07-24 08:18:45",139,12.95,12.95,26.62035,69.33401,19,43.7495,-155,-5.4245,0,9.7,47.8,211.2,2,11,"NAN",0.5,0,0,0,0.08300346,0.0004150173,27.09,"$GPRMC,181811,A,1943.7495,N,15505.4245,W,000.0,211.2,240715,009.7,E","$GPGGA,181811,1943.7495,N,15505.4245,W,2,11,0.7,47.8,M,2.3,M,,"
"2015-07-24 08:18:50",140,12.95,12.95,26.55251,69.43577,19,43.7495,-155,-5.4245,0,9.7,47.7,211.2,2,11,"NAN",0.53,0,0,0,0.0813164,0.000406582,27.09,"$GPRMC,181816,A,1943.7495,N,15505.4245,W,000.0,211.2,240715,009.7,E","$GPGGA,181816,1943.7495,N,15505.4245,W,2,11,0.7,47.7,M,2.3,M,,"
"2015-07-24 08:18:55",141,12.95,12.95,26.62035,69.46969,19,43.7495,-155,-5.4245,0,9.7,47.7,211.2,2,11,"NAN",0.54,0,0,0,0.08199123,0.0004099561,27.09,"$GPRMC,181821,A,1943.7495,N,15505.4245,W,000.0,211.2,240715,009.7,E","$GPGGA,181821,1943.7495,N,15505.4245,W,2,11,0.7,47.7,M,2.3,M,,"
"2015-07-24 08:19:00",142,12.95,12.95,26.58643,68.9948,19,43.7495,-155,-5.4245,0,9.7,47.7,211.2,2,10,"NAN",0.52,0,0,0,0.08435311,0.0004217656,27.09,"$GPRMC,181826,A,1943.7495,N,15505.4245,W,000.0,211.2,240715,009.7,E","$GPGGA,181826,1943.7495,N,15505.4245,W,2,10,0.8,47.7,M,2.3,M,,"
"2015-07-24 08:19:05",143,12.95,12.95,26.62035,68.45206,19,43.7495,-155,-5.4245,0,9.7,47.7,211.2,2,11,"NAN",0.52,0,0,0,0.08604018,0.0004302009,27.09,"$GPRMC,181831,A,1943.7495,N,15505.4245,W,000.0,211.2,240715,009.7,E","$GPGGA,181831,1943.7495,N,15505.4245,W,2,11,0.7,47.7,M,2.3,M,,"
"2015-07-24 08:19:10",144,12.95,12.95,26.65336,68.24761,19,43.7495,-155,-5.4245,0,9.7,47.7,211.2,2,11,"NAN",0.53,0,0,0,0.0863788,0.000431894,27.09,"$GPRMC,181836,A,1943.7495,N,15505.4245,W,000.0,211.2,240715,009.7,E","$GPGGA,181836,1943.7495,N,15505.4245,W,2,11,0.7,47.7,M,2.3,M,,"
"2015-07-24 08:19:15",145,12.95,12.95,26.65336,68.14585,19,43.7495,-155,-5.4245,0,9.7,47.7,211.2,2,11,"NAN",0.52,0,0,0,0.08671622,0.0004335811,27.09,"$GPRMC,181841,A,1943.7495,N,15505.4245,W,000.0,211.2,240715,009.7,E","$GPGGA,181841,1943.7495,N,15505.4245,W,2,11,0.7,47.7,M,2.3,M,,"
"2015-07-24 08:19:20",146,12.95,12.95,26.61944,68.04409,19,43.7495,-155,-5.4245,0,9.7,47.7,211.2,2,11,"NAN",0.48,0,0,0,0.08604138,0.0004302069,27.09,"$GPRMC,181846,A,1943.7495,N,15505.4245,W,000.0,211.2,240715,009.7,E","$GPGGA,181846,1943.7495,N,15505.4245,W,2,11,0.7,47.7,M,2.3,M,,"
"2015-07-24 08:19:25",147,12.95,12.95,26.58552,67.90841,19,43.7495,-155,-5.4245,0,9.7,47.7,211.2,2,11,"NAN",0.48,0,0,0,0.08300462,0.0004150231,27.12,"$GPRMC,181851,A,1943.7495,N,15505.4245,W,000.0,211.2,240715,009.7,E","$GPGGA,181851,1943.7495,N,15505.4245,W,2,11,0.7,47.7,M,2.3,M,,"
"2015-07-24 08:19:30",148,12.95,12.95,26.58552,68.07801,19,43.7495,-155,-5.4245,0,9.7,47.7,211.2,2,10,"NAN",0.52,0,0,0,0.07929304,0.0003964652,27.12,"$GPRMC,181856,A,1943.7495,N,15505.4245,W,000.0,211.2,240715,009.7,E","$GPGGA,181856,1943.7495,N,15505.4245,W,2,10,0.8,47.7,M,2.3,M,,"
"2015-07-24 08:19:35",149,12.95,12.95,26.65336,68.24761,19,43.7495,-155,-5.4245,0,9.7,47.7,211.2,2,10,"NAN",0.52,0,0,0,0.0765937,0.0003829685,27.12,"$GPRMC,181901,A,1943.7495,N,15505.4245,W,000.0,211.2,240715,009.7,E","$GPGGA,181901,1943.7495,N,15505.4245,W,2,10,0.8,47.7,M,2.3,M,,"
"2015-07-24 08:19:40",150,12.95,12.95,26.61944,68.28153,19,43.7495,-155,-5.4245,0,9.7,47.7,211.2,2,10,"NAN",0.49,0,0,0,0.07558145,0.0003779073,27.12,"$GPRMC,181906,A,1943.7495,N,15505.4245,W,000.0,211.2,240715,009.7,E","$GPGGA,181906,1943.7495,N,15505.4245,W,2,10,0.8,47.7,M,2.3,M,,"
"2015-07-24 08:19:45",151,12.95,12.95,26.61944,68.24761,19,43.7495,-155,-5.4245,0,9.7,47.7,211.2,2,9,"NAN",0.51,0,0,0,0.07490662,0.0003745331,27.12,"$GPRMC,181911,A,1943.7495,N,15505.4245,W,000.0,211.2,240715,009.7,E","$GPGGA,181911,1943.7495,N,15505.4245,W,2,09,0.8,47.7,M,2.3,M,,"
"2015-07-24 08:19:50",152,12.95,12.95,26.68728,68.95994,19,43.7495,-155,-5.4245,0,9.7,47.6,211.2,2,9,"NAN",0.51,0,0,0,0.0745692,0.000372846,27.12,"$GPRMC,181916,A,1943.7495,N,15505.4245,W,000.0,211.2,240715,009.7,E","$GPGGA,181916,1943.7495,N,15505.4245,W,2,09,0.8,47.6,M,2.3,M,,"
"2015-07-24 08:19:55",153,12.95,12.95,26.68728,69.2313,19,43.7495,-155,-5.4245,0,9.7,47.7,211.2,2,9,"NAN",0.5,0,0,0,0.07389437,0.0003694718,27.12,"$GPRMC,181921,A,1943.7495,N,15505.4245,W,000.0,211.2,240715,009.7,E","$GPGGA,181921,1943.7495,N,15505.4245,W,2,09,0.8,47.7,M,2.3,M,,"
"2015-07-24 08:20:00",154,12.95,12.95,26.68728,69.19738,19,43.7495,-155,-5.4245,0,9.7,47.7,211.2,2,10,"NAN",0.49,0,0,0,0.07254469,0.0003627235,27.12,"$GPRMC,181926,A,1943.7495,N,15505.4245,W,000.0,211.2,240715,009.7,E","$GPGGA,181926,1943.7495,N,15505.4245,W,2,10,0.8,47.7,M,2.3,M,,"
"2015-07-24 08:20:05",155,12.95,12.95,26.61944,68.99386,19,43.7495,-155,-5.4245,0,9.7,47.6,211.2,2,9,"NAN",0.51,0,0,0,0.07186987,0.0003593493,27.12,"$GPRMC,181931,A,1943.7495,N,15505.4245,W,000.0,211.2,240715,009.7,E","$GPGGA,181931,1943.7495,N,15505.4245,W,2,09,0.8,47.6,M,2.3,M,,"
"2015-07-24 08:20:10",156,12.95,12.95,26.65376,68.79075,19,43.7495,-155,-5.4245,0,9.7,47.7,211.2,2,9,"NAN",0.51,0,0,0,0.07085841,0.000354292,27.12,"$GPRMC,181936,A,1943.7495,N,15505.4245,W,000.0,211.2,240715,009.7,E","$GPGGA,181936,1943.7495,N,15505.4245,W,2,09,0.8,47.7,M,2.3,M,,"
"2015-07-24 08:20:15",157,12.95,12.95,26.65376,68.68899,19,43.7495,-155,-5.4245,0,9.7,47.6,211.2,2,11,"NAN",0.48,0,0,0,0.06984615,0.0003492307,27.12,"$GPRMC,181941,A,1943.7495,N,15505.4245,W,000.0,211.2,240715,009.7,E","$GPGGA,181941,1943.7495,N,15505.4245,W,2,11,0.7,47.6,M,2.3,M,,"
"2015-07-24 08:20:20",158,12.95,12.95,26.68768,68.72291,19,43.7495,-155,-5.4245,0,9.7,47.7,211.2,2,10,"NAN",0.49,0,0,0,0.0691713,0.0003458565,27.12,"$GPRMC,181946,A,1943.7495,N,15505.4245,W,000.0,211.2,240715,009.7,E","$GPGGA,181946,1943.7495,N,15505.4245,W,2,10,0.8,47.7,M,2.3,M,,"
"2015-07-24 08:20:25",159,12.96,12.96,26.65376,68.68899,19,43.7495,-155,-5.4245,0,9.7,47.6,211.2,2,11,"NAN",0.49,0,0,0,0.06849646,0.0003424823,27.12,"$GPRMC,181951,A,1943.7495,N,15505.4245,W,000.0,211.2,240715,009.7,E","$GPGGA,181951,1943.7495,N,15505.4245,W,2,11,0.7,47.6,M,2.3,M,,"
"2015-07-24 08:20:30",160,12.96,12.96,26.65376,68.68899,19,43.7495,-155,-5.4245,0,9.7,47.7,211.2,2,11,"NAN",0.49,0,0,0,0.06815904,0.0003407952,27.12,"$GPRMC,181956,A,1943.7495,N,15505.4245,W,000.0,211.2,240715,009.7,E","$GPGGA,181956,1943.7495,N,15505.4245,W,2,11,0.7,47.7,M,2.3,M,,"
"2015-07-24 08:20:35",161,12.96,12.96,26.7216,68.45155,19,43.7495,-155,-5.4245,0,9.7,47.7,211.2,2,10,"NAN",0.51,0,0,0,0.06748419,0.000337421,27.12,"$GPRMC,182001,A,1943.7495,N,15505.4245,W,000.0,211.2,240715,009.7,E","$GPGGA,182001,1943.7495,N,15505.4245,W,2,10,0.9,47.7,M,2.3,M,,"
"2015-07-24 08:20:40",162,12.96,12.96,26.68768,67.90882,19,43.7495,-155,-5.4245,0,9.7,47.7,211.2,2,11,"NAN",0.5,0,0,0,0.06714678,0.0003357339,27.12,"$GPRMC,182006,A,1943.7495,N,15505.4245,W,000.0,211.2,240715,009.7,E","$GPGGA,182006,1943.7495,N,15505.4245,W,2,11,0.7,47.7,M,2.3,M,,"
"2015-07-24 08:20:45",163,12.96,12.96,26.68768,67.50177,19,43.7495,-155,-5.4245,0,9.7,47.7,211.2,2,11,"NAN",0.49,0,0,0,0.06680936,0.0003340468,27.12,"$GPRMC,182011,A,1943.7495,N,15505.4245,W,000.0,211.2,240715,009.7,E","$GPGGA,182011,1943.7495,N,15505.4245,W,2,11,0.7,47.7,M,2.3,M,,"
"2015-07-24 08:20:50",164,12.96,12.96,26.65376,67.02689,19,43.7506,-155,-5.423,2.4,9.7,47.7,46.8,2,11,"NAN",0.47,0,0,0,0.07355778,0.0003677889,27.12,"$GPRMC,182016,A,1943.7506,N,15505.4230,W,002.4,046.8,240715,009.7,E","$GPGGA,182016,1943.7506,N,15505.4230,W,2,11,0.7,47.7,M,2.3,M,,"
"2015-07-24 08:20:55",165,12.96,12.96,26.61984,66.61984,19,43.7517,-155,-5.4199,0,9.7,47.8,53.6,2,10,"NAN",0.52,0,0,0,0.02631884,0.0001315942,27.15,"$GPRMC,182021,A,1943.7517,N,15505.4199,W,000.0,053.6,240715,009.7,E","$GPGGA,182021,1943.7517,N,15505.4199,W,2,10,0.8,47.8,M,2.3,M,,"
"2015-07-24 08:21:00",166,12.96,12.96,26.61984,66.04319,19,43.7514,-155,-5.4213,2,9.7,47.2,255.1,2,11,"NAN",0.51,0,0,0,0.02766852,0.0001383426,27.15,"$GPRMC,182026,A,1943.7514,N,15505.4213,W,002.0,255.1,240715,009.7,E","$GPGGA,182026,1943.7514,N,15505.4213,W,2,11,0.7,47.2,M,2.3,M,,"
"2015-07-24 08:21:05",167,12.96,12.96,26.68768,64.99166,19,43.752,-155,-5.4246,1.7,9.7,46.8,306.9,2,10,"NAN",0.53,0,0,0,0.07524488,0.0003762244,27.12,"$GPRMC,182031,A,1943.7520,N,15505.4246,W,001.7,306.9,240715,009.7,E","$GPGGA,182031,1943.7520,N,15505.4246,W,2,10,0.8,46.8,M,2.3,M,,"
"2015-07-24 08:21:10",168,12.96,12.96,26.62016,64.61884,19,43.7532,-155,-5.4254,0,9.7,46.6,325.7,2,11,"NAN",0.49,0,0,0,0.1072972,0.0005364861,27.15,"$GPRMC,182036,A,1943.7532,N,15505.4254,W,000.0,325.7,240715,009.7,E","$GPGGA,182036,1943.7532,N,15505.4254,W,2,11,0.7,46.6,M,2.3,M,,"
"2015-07-24 08:21:15",169,12.96,12.96,26.65408,64.58492,19,43.7514,-155,-5.4251,2.9,9.7,46.7,163.5,2,11,"NAN",0.48,0,0,0,0.1106713,0.0005533567,27.15,"$GPRMC,182041,A,1943.7514,N,15505.4251,W,002.9,163.5,240715,009.7,E","$GPGGA,182041,1943.7514,N,15505.4251,W,2,11,0.7,46.7,M,2.3,M,,"
"2015-07-24 08:21:20",170,12.96,12.96,26.65408,64.65276,19,43.7483,-155,-5.4293,3.7,9.7,46.9,193.7,2,9,"NAN",0.54,0,0,0,0.139014,0.0006950701,27.15,"$GPRMC,182046,A,1943.7483,N,15505.4293,W,003.7,193.7,240715,009.7,E","$GPGGA,182046,1943.7483,N,15505.4293,W,2,09,0.8,46.9,M,2.3,M,,"
"2015-07-24 08:21:25",171,12.96,12.96,26.688,64.58492,19,43.7458,-155,-5.4333,3.8,9.7,46.7,217.8,2,9,"NAN",0.52,0,0,0,0.2051469,0.001025734,27.15,"$GPRMC,182051,A,1943.7458,N,15505.4333,W,003.8,217.8,240715,009.7,E","$GPGGA,182051,1943.7458,N,15505.4333,W,2,09,0.8,46.7,M,2.3,M,,"
"2015-07-24 08:21:30",172,12.96,12.96,26.65408,63.83867,19,43.7474,-155,-5.4362,2.3,9.7,47.6,326.5,2,10,"NAN",0.52,0,0,0,0.05229896,0.0002614948,27.15,"$GPRMC,182056,A,1943.7474,N,15505.4362,W,002.3,326.5,240715,009.7,E","$GPGGA,182056,1943.7474,N,15505.4362,W,2,10,0.8,47.6,M,2.3,M,,"
"2015-07-24 08:21:35",173,12.96,12.96,26.688,63.2281,19,43.7528,-155,-5.4392,5.7,9.7,48.9,332.2,2,9,"NAN",0.51,0,0,0,0.05972204,0.0002986102,27.15,"$GPRMC,182101,A,1943.7528,N,15505.4392,W,005.7,332.2,240715,009.7,E","$GPGGA,182101,1943.7528,N,15505.4392,W,2,09,0.9,48.9,M,2.3,M,,"
"2015-07-24 08:21:40",174,12.96,12.96,26.65408,62.68537,19,43.7592,-155,-5.4427,3.1,9.7,51,339.4,2,9,"NAN",0.54,0,0,0,0.07962938,0.0003981469,27.15,"$GPRMC,182106,A,1943.7592,N,15505.4427,W,003.1,339.4,240715,009.7,E","$GPGGA,182106,1943.7592,N,15505.4427,W,2,09,0.8,51.0,M,2.3,M,,"
"2015-07-24 08:21:45",175,12.96,12.96,26.688,61.19286,19,43.7633,-155,-5.4429,2.5,9.7,50.9,12,2,11,"NAN",0.51,0,0,0,0.1940123,0.0009700613,27.15,"$GPRMC,182111,A,1943.7633,N,15505.4429,W,002.5,012.0,240715,009.7,E","$GPGGA,182111,1943.7633,N,15505.4429,W,2,11,0.7,50.9,M,2.3,M,,"
"2015-07-24 08:21:50",176,12.96,12.96,26.688,60.48053,19,43.7673,-155,-5.4384,5.5,9.7,50.1,77.9,2,11,"NAN",0.53,0,0,0,0.2486731,0.001243366,27.15,"$GPRMC,182116,A,1943.7673,N,15505.4384,W,005.5,077.9,240715,009.7,E","$GPGGA,182116,1943.7673,N,15505.4384,W,2,11,0.7,50.1,M,2.3,M,,"
"2015-07-24 08:21:55",177,12.96,12.96,26.688,59.83603,19,43.7693,-155,-5.4273,9,9.7,48.7,84.2,2,11,"NAN",0.51,0,0,0,0.2830892,0.001415446,27.15,"$GPRMC,182121,A,1943.7693,N,15505.4273,W,009.0,084.2,240715,009.7,E","$GPGGA,182121,1943.7693,N,15505.4273,W,2,11,0.7,48.7,M,2.3,M,,"
"2015-07-24 08:22:00",178,12.96,12.96,26.688,59.56467,19,43.7711,-155,-5.4115,11.8,9.7,47.3,82.4,2,10,"NAN",0.5,0,0,0,0.2969231,0.001484616,27.15,"$GPRMC,182126,A,1943.7711,N,15505.4115,W,011.8,082.4,240715,009.7,E","$GPGGA,182126,1943.7711,N,15505.4115,W,2,10,0.8,47.3,M,2.3,M,,"
"2015-07-24 08:22:05",179,12.96,12.96,26.62016,59.49683,19,43.7739,-155,-5.3941,11,9.7,46.1,78.7,2,11,"NAN",0.51,0,0,0,0.2925368,0.001462684,27.15,"$GPRMC,182131,A,1943.7739,N,15505.3941,W,011.0,078.7,240715,009.7,E","$GPGGA,182131,1943.7739,N,15505.3941,W,2,11,0.7,46.1,M,2.3,M,,"
"2015-07-24 08:22:10",180,12.96,12.96,26.68826,59.5649,19,43.7757,-155,-5.3824,3.3,9.7,44.8,79.4,2,11,"NAN",0.48,0,0,0,0.2743203,0.001371601,27.15,"$GPRMC,182136,A,1943.7757,N,15505.3824,W,003.3,079.4,240715,009.7,E","$GPGGA,182136,1943.7757,N,15505.3824,W,2,11,0.7,44.8,M,2.3,M,,"
"2015-07-24 08:22:15",181,12.96,12.96,26.68826,59.15785,19,43.7743,-155,-5.3776,5.2,9.7,44.7,140.1,2,10,"NAN",0.49,0,0,0,0.2534004,0.001267002,27.18,"$GPRMC,182141,A,1943.7743,N,15505.3776,W,005.2,140.1,240715,009.7,E","$GPGGA,182141,1943.7743,N,15505.3776,W,2,10,0.8,44.7,M,2.3,M,,"
"2015-07-24 08:22:20",182,12.96,12.96,26.68826,57.32613,19,43.761,-155,-5.3755,13.1,9.7,43.4,173.5,2,11,"NAN",0.52,0,0,0,0.2618358,0.001309179,27.15,"$GPRMC,182146,A,1943.7610,N,15505.3755,W,013.1,173.5,240715,009.7,E","$GPGGA,182146,1943.7610,N,15505.3755,W,2,11,0.7,43.4,M,2.3,M,,"
"2015-07-24 08:22:25",183,12.96,12.96,26.68826,56.37634,19,43.7374,-155,-5.372,18.7,9.7,42.4,170.1,2,11,"NAN",0.51,0,0,0,0.09413944,0.0004706972,27.18,"$GPRMC,182151,A,1943.7374,N,15505.3720,W,018.7,170.1,240715,009.7,E","$GPGGA,182151,1943.7374,N,15505.3720,W,2,11,0.7,42.4,M,2.3,M,,"
"2015-07-24 08:22:30",184,12.96,12.96,26.65434,56.17282,19,43.7099,-155,-5.3679,19.2,9.7,41.3,172.4,2,11,"NAN",0.51,0,0,0,0.2560998,0.001280499,27.18,"$GPRMC,182156,A,1943.7099,N,15505.3679,W,019.2,172.4,240715,009.7,E","$GPGGA,182156,1943.7099,N,15505.3679,W,2,11,0.7,41.3,M,2.3,M,,"
"2015-07-24 08:22:35",185,12.96,12.96,26.62042,55.93537,19,43.6856,-155,-5.3638,16.2,9.7,39.9,170.4,2,11,"NAN",0.51,0,0,0,0.2550875,0.001275438,27.18,"$GPRMC,182201,A,1943.6856,N,15505.3638,W,016.2,170.4,240715,009.7,E","$GPGGA,182201,1943.6856,N,15505.3638,W,2,11,0.7,39.9,M,2.3,M,,"
"2015-07-24 08:22:40",186,12.96,12.96,26.68826,55.39264,19,43.6641,-155,-5.3557,18.1,9.7,38.2,166,2,11,"NAN",0.51,0,0,0,0.1734325,0.0008671626,27.18,"$GPRMC,182206,A,1943.6641,N,15505.3557,W,018.1,166.0,240715,009.7,E","$GPGGA,182206,1943.6641,N,15505.3557,W,2,11,0.7,38.2,M,2.3,M,,"
"2015-07-24 08:22:45",187,12.96,12.96,26.68826,54.57854,19,43.6409,-155,-5.3424,18.9,9.7,36.8,159.9,2,11,"NAN",0.48,0,0,0,0.03947783,0.0001973891,27.18,"$GPRMC,182211,A,1943.6409,N,15505.3424,W,018.9,159.9,240715,009.7,E","$GPGGA,182211,1943.6409,N,15505.3424,W,2,11,0.7,36.8,M,2.3,M,,"
"2015-07-24 08:22:50",188,12.96,12.96,26.62042,53.66268,19,43.6224,-155,-5.327,12.3,9.7,37.2,152.5,2,11,"NAN",0.47,0,0,0,0.2250574,0.001125287,27.18,"$GPRMC,182216,A,1943.6224,N,15505.3270,W,012.3,152.5,240715,009.7,E","$GPGGA,182216,1943.6224,N,15505.3270,W,2,11,0.7,37.2,M,2.2,M,,"
"2015-07-24 08:22:55",189,12.96,12.96,26.62042,53.42524,19,43.6148,-155,-5.322,4.9,9.7,37.3,166.5,2,10,"NAN",0.53,0,0,0,0.222358,0.00111179,27.18,"$GPRMC,182221,A,1943.6148,N,15505.3220,W,004.9,166.5,240715,009.7,E","$GPGGA,182221,1943.6148,N,15505.3220,W,2,10,0.8,37.3,M,2.2,M,,"
"2015-07-24 08:23:00",190,12.96,12.96,26.62042,52.33977,19,43.6074,-155,-5.3268,9.5,9.7,37.5,234.3,2,11,"NAN",0.48,0,0,0,0.2331554,0.001165777,27.18,"$GPRMC,182226,A,1943.6074,N,15505.3268,W,009.5,234.3,240715,009.7,E","$GPGGA,182226,1943.6074,N,15505.3268,W,2,11,0.7,37.5,M,2.2,M,,"
"2015-07-24 08:23:05",191,12.96,12.96,26.68826,51.83096,19,43.5962,-155,-5.3412,14.2,9.7,38,225.7,2,10,"NAN",0.53,0,0,0,0.2058246,0.001029123,27.18,"$GPRMC,182231,A,1943.5962,N,15505.3412,W,014.2,225.7,240715,009.7,E","$GPGGA,182231,1943.5962,N,15505.3412,W,2,10,0.9,38.0,M,2.3,M,,"
"2015-07-24 08:23:10",192,12.96,12.96,26.65454,52.00072,19,43.5833,-155,-5.3598,16.2,9.7,40,240.4,2,10,"NAN",0.52,0,0,0,0.2527199,0.001263599,27.18,"$GPRMC,182236,A,1943.5833,N,15505.3598,W,016.2,240.4,240715,009.7,E","$GPGGA,182236,1943.5833,N,15505.3598,W,2,10,0.9,40.0,M,2.3,M,,"
"2015-07-24 08:23:15",193,12.96,12.96,26.5867,52.37385,19,43.5688,-155,-5.3752,12.1,9.7,41.8,192.2,2,11,"NAN",0.49,0,0,0,0.1852379,0.0009261896,27.18,"$GPRMC,182241,A,1943.5688,N,15505.3752,W,012.1,192.2,240715,009.7,E","$GPGGA,182241,1943.5688,N,15505.3752,W,2,11,0.7,41.8,M,2.3,M,,"
"2015-07-24 08:23:20",194,12.96,12.96,26.62062,52.27209,19,43.5552,-155,-5.3723,8.6,9.7,42.4,150.6,2,11,"NAN",0.54,0,0,0,0.1258538,0.0006292691,27.18,"$GPRMC,182246,A,1943.5552,N,15505.3723,W,008.6,150.6,240715,009.7,E","$GPGGA,182246,1943.5552,N,15505.3723,W,2,11,0.7,42.4,M,2.3,M,,"
"2015-07-24 08:23:25",195,12.96,12.96,26.68847,52.17033,19,43.5418,-155,-5.3632,13.2,9.7,42.7,148.7,2,11,"NAN",0.49,0,0,0,0.3876837,0.001938419,27.18,"$GPRMC,182251,A,1943.5418,N,15505.3632,W,013.2,148.7,240715,009.7,E","$GPGGA,182251,1943.5418,N,15505.3632,W,2,11,0.7,42.7,M,2.3,M,,"
"2015-07-24 08:23:30",196,12.96,12.96,26.62062,52.06856,19,43.5266,-155,-5.3527,10.2,9.7,41.9,149.1,2,10,"NAN",0.51,0,0,0,0.354955,0.001774775,27.18,"$GPRMC,182256,A,1943.5266,N,15505.3527,W,010.2,149.1,240715,009.7,E","$GPGGA,182256,1943.5266,N,15505.3527,W,2,10,0.9,41.9,M,2.3,M,,"
"2015-07-24 08:23:35",197,12.96,12.96,26.62062,50.88133,19,43.52,-155,-5.3485,2.3,9.7,42.3,149,2,9,"NAN",0.55,0,0,0,0.4700117,0.002350058,27.18,"$GPRMC,182301,A,1943.5200,N,15505.3485,W,002.3,149.0,240715,009.7,E","$GPGGA,182301,1943.5200,N,15505.3485,W,2,09,0.9,42.3,M,2.3,M,,"
"2015-07-24 08:23:40",198,12.96,12.96,26.62062,50.20292,19,43.5194,-155,-5.348,0,9.7,42.6,149,2,10,"NAN",0.49,0,0,0,0.5911418,0.002955709,27.18,"$GPRMC,182306,A,1943.5194,N,15505.3480,W,000.0,149.0,240715,009.7,E","$GPGGA,182306,1943.5194,N,15505.3480,W,2,10,0.8,42.6,M,2.3,M,,"
"2015-07-24 08:23:45",199,12.96,12.96,26.62062,50.27076,19,43.5107,-155,-5.3426,10.4,9.7,42.7,148.5,2,9,"NAN",0.51,0,0,0,0.1558833,0.0007794164,27.18,"$GPRMC,182311,A,1943.5107,N,15505.3426,W,010.4,148.5,240715,009.7,E","$GPGGA,182311,1943.5107,N,15505.3426,W,2,09,0.8,42.7,M,2.3,M,,"
"2015-07-24 08:23:50",200,12.96,12.96,26.65454,50.60997,19,43.496,-155,-5.3332,12.6,9.7,42.6,148.8,2,11,"NAN",0.49,0,0,0,0.02564314,0.0001282157,27.18,"$GPRMC,182316,A,1943.4960,N,15505.3332,W,012.6,148.8,240715,009.7,E","$GPGGA,182316,1943.4960,N,15505.3332,W,2,11,0.7,42.6,M,2.3,M,,"
"2015-07-24 08:23:55",201,12.96,12.96,26.62062,50.84741,19,43.4807,-155,-5.3239,13.3,9.7,42,148,2,11,"NAN",0.52,0,0,0,0.5435671,0.002717835,27.18,"$GPRMC,182321,A,1943.4807,N,15505.3239,W,013.3,148.0,240715,009.7,E","$GPGGA,182321,1943.4807,N,15505.3239,W,2,11,0.7,42.0,M,2.3,M,,"
"2015-07-24 08:24:00",202,12.96,12.96,26.65454,50.77957,19,43.4617,-155,-5.3128,15.9,9.7,41.9,152.5,2,11,"NAN",0.54,0,0,0,0.3428082,0.001714041,27.18,"$GPRMC,182326,A,1943.4617,N,15505.3128,W,015.9,152.5,240715,009.7,E","$GPGGA,182326,1943.4617,N,15505.3128,W,2,11,0.7,41.9,M,2.3,M,,"
"2015-07-24 08:24:05",203,12.96,12.96,26.62062,49.99939,19,43.443,-155,-5.3021,15.4,9.7,41.4,149.8,2,11,"NAN",0.52,0,0,0,0.4902563,0.002451282,27.18,"$GPRMC,182331,A,1943.4430,N,15505.3021,W,015.4,149.8,240715,009.7,E","$GPGGA,182331,1943.4430,N,15505.3021,W,2,11,0.7,41.4,M,2.3,M,,"
"2015-07-24 08:24:10",204,12.96,12.96,26.65471,49.28717,19,43.4277,-155,-5.293,10.2,9.7,41.4,154.1,2,11,"NAN",0.52,0,0,0,0.3566356,0.001783178,27.18,"$GPRMC,182336,A,1943.4277,N,15505.2930,W,010.2,154.1,240715,009.7,E","$GPGGA,182336,1943.4277,N,15505.2930,W,2,11,0.7,41.4,M,2.3,M,,"
"2015-07-24 08:24:15",205,12.96,12.96,26.65471,49.21933,19,43.4165,-155,-5.286,8,9.7,41.8,149.7,2,10,"NAN",0.52,0,0,0,0.3002892,0.001501446,27.18,"$GPRMC,182341,A,1943.4165,N,15505.2860,W,008.0,149.7,240715,009.7,E","$GPGGA,182341,1943.4165,N,15505.2860,W,2,10,0.9,41.8,M,2.3,M,,"
"2015-07-24 08:24:20",206,12.96,12.96,26.62078,49.45678,19,43.4086,-155,-5.2822,4.3,9.7,42.1,152.6,2,11,"NAN",0.48,0,0,0,0.3660829,0.001830415,27.18,"$GPRMC,182346,A,1943.4086,N,15505.2822,W,004.3,152.6,240715,009.7,E","$GPGGA,182346,1943.4086,N,15505.2822,W,2,11,0.7,42.1,M,2.2,M,,"
"2015-07-24 08:24:25",207,12.96,12.96,26.65471,48.91404,19,43.4042,-155,-5.2868,5.7,9.7,42.7,177.7,2,11,"NAN",0.53,0,0,0,0.3964492,0.001982246,27.18,"$GPRMC,182351,A,1943.4042,N,15505.2868,W,005.7,177.7,240715,009.7,E","$GPGGA,182351,1943.4042,N,15505.2868,W,2,11,0.7,42.7,M,2.3,M,,"
"2015-07-24 08:24:30",208,12.96,12.96,26.65471,48.47306,19,43.3999,-155,-5.2962,5.4,9.7,43.3,204.8,2,11,"NAN",0.51,0,0,0,0.4092706,0.002046353,27.18,"$GPRMC,182356,A,1943.3999,N,15505.2962,W,005.4,204.8,240715,009.7,E","$GPGGA,182356,1943.3999,N,15505.2962,W,2,11,0.7,43.3,M,2.3,M,,"
